id,name,type,address,street_one,street_two,city,state,zip_code,location_description,date_from,date_to,open_time1,close_time1,open_time2,close_time2,Sunday,Monday,Tuesday,Wednesday,Thursday,Friday,Saturday,SNAP,WIC,FMNP,fresh_produce-healthy,MRFEI_score,latitude,longitude,open_to_spec_group,food_bucks,source,GEOID,ward,hood,council
1,Avalon Fuel,Convenience Store,901 Ohio River Blvd,NA,NA,NA,PA,15202,NA,NA,NA,NA,NA,NA,NA,NA,NA,NA,NA,NA,NA,NA,NA,NA,NA,NA,11.11111111111111,40.495759,-80.066508,NA,NA,data-conveniencesupermarkets.xlsx,42003432400,NA,NA,NA
2,Ez Energy #303/7Eleven #36183H,Convenience Store,209 Ohio River Blvd,NA,NA,NA,PA,15143,NA,NA,NA,NA,NA,NA,NA,NA,NA,NA,NA,NA,NA,NA,NA,NA,NA,NA,16.666666666666668,40.545418,-80.194152,NA,NA,data-conveniencesupermarkets.xlsx,42003446000,NA,NA,NA
3,EZ Energy #311 / 7 Eleven #36191H,Convenience Store,8136 Ohio River Blvd,NA,NA,NA,PA,15202,NA,NA,NA,NA,NA,NA,NA,NA,NA,NA,NA,NA,NA,NA,NA,NA,NA,NA,0,40.510522,-80.094268,NA,NA,data-conveniencesupermarkets.xlsx,42003435000,NA,NA,NA
4,Getgo #3646 / Crafton - Ingram,Convenience Store,280 Crafton Ingram Shopping circle,NA,NA,NA,PA,15205,NA,NA,NA,NA,NA,NA,NA,NA,NA,NA,NA,NA,NA,NA,NA,NA,NA,NA,0,41.203322,-77.194525,NA,NA,data-conveniencesupermarkets.xlsx,42081010300,NA,NA,NA
5,Mt NeBlvd Texaco,Convenience Store,1706 Mt Nebo Rd,NA,NA,NA,PA,15143,NA,NA,NA,NA,NA,NA,NA,NA,NA,NA,NA,NA,NA,NA,NA,NA,NA,NA,25,40.553281,-80.109158,NA,NA,data-conveniencesupermarkets.xlsx,42003437000,NA,NA,NA
6,Radokovic Marathon,Convenience Store,1826 Lincoln Highway,NA,NA,NA,PA,15137,NA,NA,NA,NA,NA,NA,NA,NA,NA,NA,NA,NA,NA,NA,NA,NA,NA,NA,NA,40.367923,-79.780429,NA,NA,data-conveniencesupermarkets.xlsx,42003564400,NA,NA,NA
7,Sunoco #7544,Convenience Store,1201 Airport Blvdulevard,NA,NA,NA,PA,15231,NA,NA,NA,NA,NA,NA,NA,NA,NA,NA,NA,NA,NA,NA,NA,NA,NA,NA,0,40.494177,-80.267208,NA,NA,data-conveniencesupermarkets.xlsx,42003452000,NA,NA,NA
8,Sunoco A Plus Mini Market #8154,Convenience Store,5204 Interbo Ave,NA,NA,NA,PA,15207,NA,NA,NA,NA,NA,NA,NA,NA,NA,NA,NA,NA,NA,NA,NA,NA,NA,NA,12.5,40.370214,-79.913195,NA,NA,data-conveniencesupermarkets.xlsx,42003310200,31,Lincoln Place,5
9,Plow & Hearth,Convenience Store,1710 Settlers Ridge Center Dr,NA,NA,NA,PA,15205,NA,NA,NA,NA,NA,NA,NA,NA,NA,NA,NA,NA,NA,NA,NA,NA,NA,NA,13.636363636363637,40.440641,-80.149132,NA,NA,data-conveniencesupermarkets.xlsx,42003459201,NA,NA,NA
10,S & R Market,Convenience Store,4915 2nd Ave,NA,NA,NA,PA,15207,NA,NA,NA,NA,NA,NA,NA,NA,NA,NA,NA,NA,NA,NA,NA,NA,NA,NA,13.043478260869565,40.529076,-80.025577,NA,NA,data-conveniencesupermarkets.xlsx,42003429400,NA,NA,NA
11,EZ Energy #307 / 7 Eleven #36187H,Convenience Store,4630 Wm Flynn Highway,NA,NA,NA,PA,15101,NA,NA,NA,NA,NA,NA,NA,NA,NA,NA,NA,NA,NA,NA,NA,NA,NA,NA,15.384615384615385,40.590622,-79.948086,NA,NA,data-conveniencesupermarkets.xlsx,42003414101,NA,NA,NA
12,Mega Deli,Convenience Store,995 Greensburg Pike,NA,NA,NA,PA,15112,NA,NA,NA,NA,NA,NA,NA,NA,NA,NA,NA,NA,NA,NA,NA,NA,NA,NA,11.11111111111111,40.416874,-79.839453,NA,NA,data-conveniencesupermarkets.xlsx,42003520002,NA,NA,NA
13,Sheetz #500,Convenience Store,1910 Mt Nebo Rd,NA,NA,NA,PA,15143,NA,NA,NA,NA,NA,NA,NA,NA,NA,NA,NA,NA,NA,NA,NA,NA,NA,NA,25,40.552928,-80.115508,NA,NA,data-conveniencesupermarkets.xlsx,42003437000,NA,NA,NA
14,7 Eleven #35968H,Convenience Store,525 Perry Highway,NA,NA,NA,PA,15229,NA,NA,NA,NA,NA,NA,NA,NA,NA,NA,NA,NA,NA,NA,NA,NA,NA,NA,22.22222222222222,40.396638,-77.026583,NA,NA,data-conveniencesupermarkets.xlsx,42099030301,NA,NA,NA
15,7 Eleven #36143A,Convenience Store,601 Penn Av,NA,NA,NA,PA,15222,NA,NA,NA,NA,NA,NA,NA,NA,NA,NA,NA,NA,NA,NA,NA,NA,NA,NA,3.488372093023256,40.442813,-80.001884,NA,NA,data-conveniencesupermarkets.xlsx,42003020100,2,Central Business District,6
16,A & E Deli Food Mart,Convenience Store,105 Brownsville Rd,NA,NA,NA,PA,15210,NA,NA,NA,NA,NA,NA,NA,NA,NA,NA,NA,NA,NA,NA,NA,NA,NA,NA,14.285714285714286,40.41739,-79.986525,NA,NA,data-conveniencesupermarkets.xlsx,42003481000,NA,NA,NA
17,Al's Market,Convenience Store,24 Braddock Ave,NA,NA,NA,PA,15104,NA,NA,NA,NA,NA,NA,NA,NA,NA,NA,NA,NA,NA,NA,NA,NA,NA,NA,7.6923076923076925,40.407271,-79.875462,NA,NA,data-conveniencesupermarkets.xlsx,42003514000,NA,NA,NA
18,Alstan Mini Mart,Convenience Store,2516 Monroeville Blvd,NA,NA,NA,PA,15146,NA,NA,NA,NA,NA,NA,NA,NA,NA,NA,NA,NA,NA,NA,NA,NA,NA,NA,2.9411764705882355,40.426703,-79.788569,NA,NA,data-conveniencesupermarkets.xlsx,42003521302,NA,NA,NA
19,American Joe's,Convenience Store,2105 Walnut St,NA,NA,NA,PA,15132,NA,NA,NA,NA,NA,NA,NA,NA,NA,NA,NA,NA,NA,NA,NA,NA,NA,NA,16.666666666666668,40.340154,-79.859937,NA,NA,data-conveniencesupermarkets.xlsx,42003552400,NA,NA,NA
20,American Natural,Convenience Store,73 Carson St,NA,NA,NA,PA,15219,NA,NA,NA,NA,NA,NA,NA,NA,NA,NA,NA,NA,NA,NA,NA,NA,NA,NA,NA,40.430917,-80.001402,NA,NA,data-conveniencesupermarkets.xlsx,42003980700,17,South Shore,3
21,Avalon Mart,Convenience Store,632 California Av,NA,NA,NA,PA,15202,NA,NA,NA,NA,NA,NA,NA,NA,NA,NA,NA,NA,NA,NA,NA,NA,NA,NA,11.11111111111111,40.501336,-80.067941,NA,NA,data-conveniencesupermarkets.xlsx,42003432400,NA,NA,NA
22,AW Food Express / Sunoco,Convenience Store,1001 Pikettsburgh St,NA,NA,NA,PA,15024,NA,NA,NA,NA,NA,NA,NA,NA,NA,NA,NA,NA,NA,NA,NA,NA,NA,NA,0,40.540809,-79.807543,NA,NA,data-conveniencesupermarkets.xlsx,42003418000,NA,NA,NA
23,Bett's Market,Convenience Store,819 Brushton Ave,NA,NA,NA,PA,15208,NA,NA,NA,NA,NA,NA,NA,NA,NA,NA,NA,NA,NA,NA,NA,NA,NA,NA,7.407407407407407,40.455264,-79.888216,NA,NA,data-conveniencesupermarkets.xlsx,42003130400,13,Homewood South,9
24,Cash & Carry,Convenience Store,1021 Perry Hwy,NA,NA,NA,PA,15237,NA,NA,NA,NA,NA,NA,NA,NA,NA,NA,NA,NA,NA,NA,NA,NA,NA,NA,22.727272727272727,40.540405,-80.036133,NA,NA,data-conveniencesupermarkets.xlsx,42003429300,NA,NA,NA
25,Cash & Carry Convenience Store,Convenience Store,7920 Saltsburg Rd,NA,NA,NA,PA,15239,NA,NA,NA,NA,NA,NA,NA,NA,NA,NA,NA,NA,NA,NA,NA,NA,NA,NA,0,40.477508,-79.75943,NA,NA,data-conveniencesupermarkets.xlsx,42003526202,NA,NA,NA
26,Clairton Mini Mart,Convenience Store,672 Miller Av,NA,NA,NA,PA,15025,NA,NA,NA,NA,NA,NA,NA,NA,NA,NA,NA,NA,NA,NA,NA,NA,NA,NA,28.571428571428573,40.290634,-79.883992,NA,NA,data-conveniencesupermarkets.xlsx,42003492800,NA,NA,NA
27,Clairton Mini-Mart,Convenience Store,540 St Clair Ave,NA,NA,NA,PA,15025,NA,NA,NA,NA,NA,NA,NA,NA,NA,NA,NA,NA,NA,NA,NA,NA,NA,NA,28.571428571428573,40.293214,-79.88689,NA,NA,data-conveniencesupermarkets.xlsx,42003492800,NA,NA,NA
28,Co Go's #1780,Convenience Store,3402 Main St,NA,NA,NA,PA,15120,NA,NA,NA,NA,NA,NA,NA,NA,NA,NA,NA,NA,NA,NA,NA,NA,NA,NA,0,40.386385,-79.902763,NA,NA,data-conveniencesupermarkets.xlsx,42003484500,NA,NA,NA
29,Co Go's #346,Convenience Store,3439 West Run Rd,NA,NA,NA,PA,15120,NA,NA,NA,NA,NA,NA,NA,NA,NA,NA,NA,NA,NA,NA,NA,NA,NA,NA,0,40.38845,-79.90976,NA,NA,data-conveniencesupermarkets.xlsx,42003484500,NA,NA,NA
30,Co Go's #805,Convenience Store,4071 Beechwood Blvd,NA,NA,NA,PA,15217,NA,NA,NA,NA,NA,NA,NA,NA,NA,NA,NA,NA,NA,NA,NA,NA,NA,NA,11.764705882352942,40.427102,-79.938593,NA,NA,data-conveniencesupermarkets.xlsx,42003151700,15,Greenfield,5
31,Co Go's #820,Convenience Store,2880 Brownsville Rd Ext,NA,NA,NA,PA,15129,NA,NA,NA,NA,NA,NA,NA,NA,NA,NA,NA,NA,NA,NA,NA,NA,NA,NA,0,40.279791,-80.001782,NA,NA,data-conveniencesupermarkets.xlsx,42003490004,NA,NA,NA
32,CR Petroleum,Convenience Store,101 Mile Lock La,NA,NA,NA,PA,15014,NA,NA,NA,NA,NA,NA,NA,NA,NA,NA,NA,NA,NA,NA,NA,NA,NA,NA,NA,47.15441,-2.172958,NA,NA,data-conveniencesupermarkets.xlsx,NA,NA,NA,NA
33,De Carlo Fruit Market,Convenience Store,560 Mckeesport Rd,NA,NA,NA,PA,15037,NA,NA,NA,NA,NA,NA,NA,NA,NA,NA,NA,NA,NA,NA,NA,NA,NA,NA,15.384615384615385,40.276563,-79.878044,NA,NA,data-conveniencesupermarkets.xlsx,42003496102,NA,NA,NA
34,Edgewood Avenue Express,Convenience Store,253 Edgewood Ave,NA,NA,NA,PA,15218,NA,NA,NA,NA,NA,NA,NA,NA,NA,NA,NA,NA,NA,NA,NA,NA,NA,NA,5.2631578947368425,40.430663,-79.884352,NA,NA,data-conveniencesupermarkets.xlsx,42003516200,NA,NA,NA
35,Edna's Market & Deli @ Northview Heights,Convenience Store,529 Mt Pleasant Rd,NA,NA,NA,PA,15214,NA,NA,NA,NA,NA,NA,NA,NA,NA,NA,NA,NA,NA,NA,NA,NA,NA,NA,0,40.478135,-80.000449,NA,NA,data-conveniencesupermarkets.xlsx,42003260900,26,Northview Heights,1
36,Everest Food,Convenience Store,308 Curry Hollow Rd,NA,NA,NA,PA,15236,NA,NA,NA,NA,NA,NA,NA,NA,NA,NA,NA,NA,NA,NA,NA,NA,NA,NA,10.526315789473685,40.336174,-79.972625,NA,NA,data-conveniencesupermarkets.xlsx,42003489002,NA,NA,NA
37,Express Mini Mart,Convenience Store,3518 Brownsville Rd,NA,NA,NA,PA,15227,NA,NA,NA,NA,NA,NA,NA,NA,NA,NA,NA,NA,NA,NA,NA,NA,NA,NA,15.789473684210526,40.374467,-79.975539,NA,NA,data-conveniencesupermarkets.xlsx,42003478200,NA,NA,NA
38,Fa's Market,Convenience Store,623 Jones Ave,NA,NA,NA,PA,15104,NA,NA,NA,NA,NA,NA,NA,NA,NA,NA,NA,NA,NA,NA,NA,NA,NA,NA,9.090909090909092,40.404138,-79.861887,NA,NA,data-conveniencesupermarkets.xlsx,42003512800,NA,NA,NA
39,Fuel On # 25,Convenience Store,5724 Ellsworth Av,NA,NA,NA,PA,15232,NA,NA,NA,NA,NA,NA,NA,NA,NA,NA,NA,NA,NA,NA,NA,NA,NA,NA,24,40.455308,-79.931608,NA,NA,data-conveniencesupermarkets.xlsx,42003070500,7,Shadyside,8
40,Fueland,Convenience Store,921 Brodhead Rd,NA,NA,NA,PA,15108,NA,NA,NA,NA,NA,NA,NA,NA,NA,NA,NA,NA,NA,NA,NA,NA,NA,NA,NA,40.518217,-80.222543,NA,NA,data-conveniencesupermarkets.xlsx,42003451105,NA,NA,NA
41,Fueland #220,Convenience Store,710 Brown Av,NA,NA,NA,PA,15145,NA,NA,NA,NA,NA,NA,NA,NA,NA,NA,NA,NA,NA,NA,NA,NA,NA,NA,11.11111111111111,40.427276,-79.836019,NA,NA,data-conveniencesupermarkets.xlsx,42003520002,NA,NA,NA
42,GetGo #3108,Convenience Store,10525 Frankstown Rd,NA,NA,NA,PA,15235,NA,NA,NA,NA,NA,NA,NA,NA,NA,NA,NA,NA,NA,NA,NA,NA,NA,NA,15,40.457119,-79.877698,NA,NA,data-conveniencesupermarkets.xlsx,42003130600,13,East Hills,9
43,GetGo #3109,Convenience Store,436 Lincoln Hwy East,NA,NA,NA,PA,15035,NA,NA,NA,NA,NA,NA,NA,NA,NA,NA,NA,NA,NA,NA,NA,NA,NA,NA,7.6923076923076925,40.380961,-79.8115,NA,NA,data-conveniencesupermarkets.xlsx,42003507000,NA,NA,NA
44,Glassmere Food Mart #252,Convenience Store,3001 Freeport Rd,NA,NA,NA,PA,15144,NA,NA,NA,NA,NA,NA,NA,NA,NA,NA,NA,NA,NA,NA,NA,NA,NA,NA,0,40.595044,-79.76881,NA,NA,data-conveniencesupermarkets.xlsx,42003404000,NA,NA,NA
45,Homestead Food Mart,Convenience Store,238 8th Av,NA,NA,NA,PA,15120,NA,NA,NA,NA,NA,NA,NA,NA,NA,NA,NA,NA,NA,NA,NA,NA,NA,NA,10.526315789473685,40.407623,-79.909613,NA,NA,data-conveniencesupermarkets.xlsx,42003483800,NA,NA,NA
46,Honey Bear / Spee-D Mart,Convenience Store,209 3rd Street,NA,NA,NA,PA,15034,NA,NA,NA,NA,NA,NA,NA,NA,NA,NA,NA,NA,NA,NA,NA,NA,NA,NA,0,40.349519,-79.891481,NA,NA,data-conveniencesupermarkets.xlsx,42003487000,NA,NA,NA
47,International Food Emporium,Convenience Store,4110 Saw Mill Run Blvd,NA,NA,NA,PA,15227,NA,NA,NA,NA,NA,NA,NA,NA,NA,NA,NA,NA,NA,NA,NA,NA,NA,NA,10.526315789473685,40.367213,-79.984027,NA,NA,data-conveniencesupermarkets.xlsx,42003478100,NA,NA,NA
48,Janoski's Farm Market,Convenience Store,1714 U.S. Route 30,NA,NA,NA,PA,15026,NA,NA,NA,NA,NA,NA,NA,NA,NA,NA,NA,NA,NA,NA,NA,NA,NA,NA,0,40.559221,-80.437686,NA,NA,data-conveniencesupermarkets.xlsx,42007602900,NA,NA,NA
49,Jeets Sunoco,Convenience Store,5457 Perry Hwy,NA,NA,NA,PA,15229,NA,NA,NA,NA,NA,NA,NA,NA,NA,NA,NA,NA,NA,NA,NA,NA,NA,NA,23.076923076923077,40.513271,-80.030768,NA,NA,data-conveniencesupermarkets.xlsx,42003429700,NA,NA,NA
50,Jimit Sunoco,Convenience Store,2904 5th Ave,NA,NA,NA,PA,15131,NA,NA,NA,NA,NA,NA,NA,NA,NA,NA,NA,NA,NA,NA,NA,NA,NA,NA,16.666666666666668,40.358373,-79.831701,NA,NA,data-conveniencesupermarkets.xlsx,42003503002,NA,NA,NA
51,Jodha Exxon,Convenience Store,2200 Babcock Blvd,NA,NA,NA,PA,15237,NA,NA,NA,NA,NA,NA,NA,NA,NA,NA,NA,NA,NA,NA,NA,NA,NA,NA,7.6923076923076925,40.510927,-79.993984,NA,NA,data-conveniencesupermarkets.xlsx,42003429202,NA,NA,NA
52,Kolos International Food,Convenience Store,114 East St / Mall Plaza,NA,NA,NA,PA,15106,NA,NA,NA,NA,NA,NA,NA,NA,NA,NA,NA,NA,NA,NA,NA,NA,NA,NA,0,40.406902,-80.087614,NA,NA,data-conveniencesupermarkets.xlsx,42003468700,NA,NA,NA
53,Kwik E Mart,Convenience Store,212 10th St,NA,NA,NA,PA,15222,NA,NA,NA,NA,NA,NA,NA,NA,NA,NA,NA,NA,NA,NA,NA,NA,NA,NA,3.488372093023256,40.444199,-79.995537,NA,NA,data-conveniencesupermarkets.xlsx,42003020100,2,Central Business District,6
54,Large Sunoco,Convenience Store,1344 Clairton Blvd,NA,NA,NA,PA,15025,NA,NA,NA,NA,NA,NA,NA,NA,NA,NA,NA,NA,NA,NA,NA,NA,NA,NA,11.11111111111111,40.307385,-79.935894,NA,NA,data-conveniencesupermarkets.xlsx,42003491101,NA,NA,NA
55,Marathon McKeesport,Convenience Store,710 5th Av,NA,NA,NA,PA,15132,NA,NA,NA,NA,NA,NA,NA,NA,NA,NA,NA,NA,NA,NA,NA,NA,NA,NA,5.882352941176471,40.351443,-79.857948,NA,NA,data-conveniencesupermarkets.xlsx,42003551900,NA,NA,NA
56,Maruti Convience,Convenience Store,1100 Fawcett Av,NA,NA,NA,PA,15131,NA,NA,NA,NA,NA,NA,NA,NA,NA,NA,NA,NA,NA,NA,NA,NA,NA,NA,16.666666666666668,40.35267,-79.825732,NA,NA,data-conveniencesupermarkets.xlsx,42003503002,NA,NA,NA
57,Mary's & Rick's,Convenience Store,200 3rd St,NA,NA,NA,PA,15106,NA,NA,NA,NA,NA,NA,NA,NA,NA,NA,NA,NA,NA,NA,NA,NA,NA,NA,0,40.403354,-80.089813,NA,NA,data-conveniencesupermarkets.xlsx,42003468800,NA,NA,NA
58,Murray's Exxon,Convenience Store,1100 Penn Ave,NA,NA,NA,PA,15221,NA,NA,NA,NA,NA,NA,NA,NA,NA,NA,NA,NA,NA,NA,NA,NA,NA,NA,9.090909090909092,40.44133,-79.877715,NA,NA,data-conveniencesupermarkets.xlsx,42003561000,NA,NA,NA
59,NeighBlvdrhood Dollar,Convenience Store,336 5th Av,NA,NA,NA,PA,15132,NA,NA,NA,NA,NA,NA,NA,NA,NA,NA,NA,NA,NA,NA,NA,NA,NA,NA,5.882352941176471,40.351125,-79.863412,NA,NA,data-conveniencesupermarkets.xlsx,42003551900,NA,NA,NA
60,New Eagle Mart,Convenience Store,300 6th Av,NA,NA,NA,PA,15222,NA,NA,NA,NA,NA,NA,NA,NA,NA,NA,NA,NA,NA,NA,NA,NA,NA,NA,3.488372093023256,40.441932,-80.001828,NA,NA,data-conveniencesupermarkets.xlsx,42003020100,1,Central Business District,6
61,Noble Mart,Convenience Store,2100 Noble St,NA,NA,NA,PA,15218,NA,NA,NA,NA,NA,NA,NA,NA,NA,NA,NA,NA,NA,NA,NA,NA,NA,NA,5.2631578947368425,40.420651,-79.885465,NA,NA,data-conveniencesupermarkets.xlsx,42003515100,NA,NA,NA
62,Oak Hill Market,Convenience Store,504 Oak Highwayll Dr,NA,NA,NA,PA,15219,NA,NA,NA,NA,NA,NA,NA,NA,NA,NA,NA,NA,NA,NA,NA,NA,NA,NA,0,40.44356,-79.969922,NA,NA,data-conveniencesupermarkets.xlsx,42003051000,5,Terrace Village,6
63,One Stop Mini Mart,Convenience Store,2333 Beechwood Blvd,NA,NA,NA,PA,15217,NA,NA,NA,NA,NA,NA,NA,NA,NA,NA,NA,NA,NA,NA,NA,NA,NA,NA,8,40.432851,-79.914965,NA,NA,data-conveniencesupermarkets.xlsx,42003140800,14,Squirrel Hill South,5
64,Phil's Citgo,Convenience Store,5340 Perry Hwy,NA,NA,NA,PA,15229,NA,NA,NA,NA,NA,NA,NA,NA,NA,NA,NA,NA,NA,NA,NA,NA,NA,NA,20,40.509195,-80.029331,NA,NA,data-conveniencesupermarkets.xlsx,42003429100,NA,NA,NA
65,Pitt Stop Express,Convenience Store,1980 Painters Run Rd,NA,NA,NA,PA,15241,NA,NA,NA,NA,NA,NA,NA,NA,NA,NA,NA,NA,NA,NA,NA,NA,NA,NA,6.666666666666667,40.363956,-80.086425,NA,NA,data-conveniencesupermarkets.xlsx,42003470400,NA,NA,NA
66,Pittsburgh Asian Market / Ou's International Co,Convenience Store,707 Penn Ave,NA,NA,NA,PA,15221,NA,NA,NA,NA,NA,NA,NA,NA,NA,NA,NA,NA,NA,NA,NA,NA,NA,NA,5.2631578947368425,40.443558,-79.884328,NA,NA,data-conveniencesupermarkets.xlsx,42003561200,NA,NA,NA
67,Quicky Mart,Convenience Store,668 WasHighwayngton Rd,NA,NA,NA,PA,15228,NA,NA,NA,NA,NA,NA,NA,NA,NA,NA,NA,NA,NA,NA,NA,NA,NA,NA,0,40.380538,-80.04456,NA,NA,data-conveniencesupermarkets.xlsx,42003473200,NA,NA,NA
68,RN Market,Convenience Store,256 S Highwayghland,NA,NA,NA,PA,15206,NA,NA,NA,NA,NA,NA,NA,NA,NA,NA,NA,NA,NA,NA,NA,NA,NA,NA,24,40.457254,-79.925206,NA,NA,data-conveniencesupermarkets.xlsx,42003070500,7,Shadyside,8
69,Rte #286 Exxon,Convenience Store,2405 Golden Mile Highway,NA,NA,NA,PA,15239,NA,NA,NA,NA,NA,NA,NA,NA,NA,NA,NA,NA,NA,NA,NA,NA,NA,NA,7.6923076923076925,40.471469,-79.986604,NA,NA,data-conveniencesupermarkets.xlsx,42003241200,26,Spring Garden,1
70,Safi Market,Convenience Store,1518 Mifflin St,NA,NA,NA,PA,15120,NA,NA,NA,NA,NA,NA,NA,NA,NA,NA,NA,NA,NA,NA,NA,NA,NA,NA,10.526315789473685,40.403187,-79.90342,NA,NA,data-conveniencesupermarkets.xlsx,42003483800,NA,NA,NA
71,SAI Sunoco,Convenience Store,3039 Freeport Rd,NA,NA,NA,PA,15065,NA,NA,NA,NA,NA,NA,NA,NA,NA,NA,NA,NA,NA,NA,NA,NA,NA,NA,10,40.642437,-79.710438,NA,NA,data-conveniencesupermarkets.xlsx,42003401100,NA,NA,NA
72,Sam Blvdk Korean Grocery,Convenience Store,1737 Penn Av,NA,NA,NA,PA,15222,NA,NA,NA,NA,NA,NA,NA,NA,NA,NA,NA,NA,NA,NA,NA,NA,NA,NA,6.349206349206349,40.450358,-79.985099,NA,NA,data-conveniencesupermarkets.xlsx,42003020300,2,Strip District,7
73,Sheetz #582,Convenience Store,4723 Wm Penn Highway,NA,NA,NA,PA,15146,NA,NA,NA,NA,NA,NA,NA,NA,NA,NA,NA,NA,NA,NA,NA,NA,NA,NA,6.896551724137931,40.434846,-79.73331,NA,NA,data-conveniencesupermarkets.xlsx,42003521500,NA,NA,NA
74,Shell North Versailles,Convenience Store,505 Lincoln Highway,NA,NA,NA,PA,15137,NA,NA,NA,NA,NA,NA,NA,NA,NA,NA,NA,NA,NA,NA,NA,NA,NA,NA,NA,40.450809,-80.199382,NA,NA,data-conveniencesupermarkets.xlsx,42003453004,NA,NA,NA
75,Sheraden Mini Mart,Convenience Store,649 HighwayllsBlvdro St,NA,NA,NA,PA,15204,NA,NA,NA,NA,NA,NA,NA,NA,NA,NA,NA,NA,NA,NA,NA,NA,NA,NA,11.11111111111111,40.431433,-79.861903,NA,NA,data-conveniencesupermarkets.xlsx,42003518001,NA,NA,NA
76,Shop N Go,Convenience Store,2226 Route 837,NA,NA,NA,PA,15088,NA,NA,NA,NA,NA,NA,NA,NA,NA,NA,NA,NA,NA,NA,NA,NA,NA,NA,9.523809523809524,40.428336,-79.973438,NA,NA,data-conveniencesupermarkets.xlsx,42003160900,16,South Side Flats,3
77,Speedway #2917,Convenience Store,4363 Broadway Blvd,NA,NA,NA,PA,15146,NA,NA,NA,NA,NA,NA,NA,NA,NA,NA,NA,NA,NA,NA,NA,NA,NA,NA,10.526315789473685,40.397285,-79.768965,NA,NA,data-conveniencesupermarkets.xlsx,42003521301,NA,NA,NA
78,Stop n Shop,Convenience Store,1043 Hamil Rd,NA,NA,NA,PA,15147,NA,NA,NA,NA,NA,NA,NA,NA,NA,NA,NA,NA,NA,NA,NA,NA,NA,NA,12.5,40.502514,-79.810806,NA,NA,data-conveniencesupermarkets.xlsx,42003523701,NA,NA,NA
79,Sunoco,Convenience Store,600 Lysle Blvd,NA,NA,NA,PA,15132,NA,NA,NA,NA,NA,NA,NA,NA,NA,NA,NA,NA,NA,NA,NA,NA,NA,NA,5.882352941176471,40.351981,-79.859689,NA,NA,data-conveniencesupermarkets.xlsx,42003551900,NA,NA,NA
80,Sunoco #7139,Convenience Store,1020 Mt Royal Blvd,NA,NA,NA,PA,15223,NA,NA,NA,NA,NA,NA,NA,NA,NA,NA,NA,NA,NA,NA,NA,NA,NA,NA,16.666666666666668,40.516752,-79.959009,NA,NA,data-conveniencesupermarkets.xlsx,42003426400,NA,NA,NA
81,Sunoco #7362,Convenience Store,19090 Perry Hwy,NA,NA,NA,PA,16046,NA,NA,NA,NA,NA,NA,NA,NA,NA,NA,NA,NA,NA,NA,NA,NA,NA,NA,16.666666666666668,40.674019,-80.098542,NA,NA,data-conveniencesupermarkets.xlsx,42003411000,NA,NA,NA
82,Sunoco #7430,Convenience Store,113 Noble Ave,NA,NA,NA,PA,15205,NA,NA,NA,NA,NA,NA,NA,NA,NA,NA,NA,NA,NA,NA,NA,NA,NA,NA,25,40.434829,-80.06553,NA,NA,data-conveniencesupermarkets.xlsx,42003465600,NA,NA,NA
83,Sunoco A Plus Mini Market,Convenience Store,123 N Negley Ave,NA,NA,NA,PA,15206,NA,NA,NA,NA,NA,NA,NA,NA,NA,NA,NA,NA,NA,NA,NA,NA,NA,NA,14.285714285714286,40.464292,-79.930226,NA,NA,data-conveniencesupermarkets.xlsx,42003111400,11,Garfield,9
84,Sushi with Gusto,Convenience Store,1551 WasHighwayngton Rd,NA,NA,NA,PA,15228,NA,NA,NA,NA,NA,NA,NA,NA,NA,NA,NA,NA,NA,NA,NA,NA,NA,NA,12.5,40.355489,-80.050351,NA,NA,data-conveniencesupermarkets.xlsx,42003473500,NA,NA,NA
85,Sweet Peas Convenience Store,Convenience Store,3937 Library Rd,NA,NA,NA,PA,15234,NA,NA,NA,NA,NA,NA,NA,NA,NA,NA,NA,NA,NA,NA,NA,NA,NA,NA,18.181818181818183,40.363119,-80.027195,NA,NA,data-conveniencesupermarkets.xlsx,42003476200,NA,NA,NA
86,T-Blvdnes BP #02706,Convenience Store,787 Wexford Bayne Rd,NA,NA,NA,PA,15090,NA,NA,NA,NA,NA,NA,NA,NA,NA,NA,NA,NA,NA,NA,NA,NA,NA,NA,16.666666666666668,40.616571,-80.091309999999993,NA,NA,data-conveniencesupermarkets.xlsx,42003411000,NA,NA,NA
87,The Hot Spot,Convenience Store,601 Monongahela Av,NA,NA,NA,PA,15045,NA,NA,NA,NA,NA,NA,NA,NA,NA,NA,NA,NA,NA,NA,NA,NA,NA,NA,20,40.325977,-79.892457,NA,NA,data-conveniencesupermarkets.xlsx,42003499400,NA,NA,NA
88,Uni-Mart,Convenience Store,3400 Versailles Av,NA,NA,NA,PA,15132,NA,NA,NA,NA,NA,NA,NA,NA,NA,NA,NA,NA,NA,NA,NA,NA,NA,NA,16.666666666666668,40.344889,-79.837515,NA,NA,data-conveniencesupermarkets.xlsx,42003552000,NA,NA,NA
89,Uni-Mart #4682,Convenience Store,551 State St,NA,NA,NA,PA,15025,NA,NA,NA,NA,NA,NA,NA,NA,NA,NA,NA,NA,NA,NA,NA,NA,NA,NA,28.571428571428573,40.292972,-79.874705,NA,NA,data-conveniencesupermarkets.xlsx,42003492800,NA,NA,NA
90,Uni-Mart #94608,Convenience Store,1181 Romine Ave,NA,NA,NA,PA,15133,NA,NA,NA,NA,NA,NA,NA,NA,NA,NA,NA,NA,NA,NA,NA,NA,NA,NA,0,40.342269,-79.871278,NA,NA,data-conveniencesupermarkets.xlsx,42003500300,NA,NA,NA
91,Victoria's Dairy,Convenience Store,1716 Lowrie St,NA,NA,NA,PA,15212,NA,NA,NA,NA,NA,NA,NA,NA,NA,NA,NA,NA,NA,NA,NA,NA,NA,NA,12.5,40.464324,-79.982206,NA,NA,data-conveniencesupermarkets.xlsx,42003240600,24,Troy Hill,1
92,Z Corner Store,Convenience Store,520 Pikettsburgh Mills Circle,NA,NA,NA,PA,15084,NA,NA,NA,NA,NA,NA,NA,NA,NA,NA,NA,NA,NA,NA,NA,NA,NA,NA,15.384615384615385,40.571307,-79.799218,NA,NA,data-conveniencesupermarkets.xlsx,42003405000,NA,NA,NA
93,7 Eleven #36139A,Convenience Store,285 Mt Lebanon Blvd,NA,NA,NA,PA,15234,NA,NA,NA,NA,NA,NA,NA,NA,NA,NA,NA,NA,NA,NA,NA,NA,NA,NA,22.22222222222222,40.368776,-80.037105,NA,NA,data-conveniencesupermarkets.xlsx,42003476100,NA,NA,NA
94,7 Eleven #36154H,Convenience Store,1101 Brookline Blvd,NA,NA,NA,PA,15226,NA,NA,NA,NA,NA,NA,NA,NA,NA,NA,NA,NA,NA,NA,NA,NA,NA,NA,0,40.39224,-80.015038,NA,NA,data-conveniencesupermarkets.xlsx,42003320600,19,Brookline,4
95,7 Eleven #36155,Convenience Store,818 Duquesne Blvd,NA,NA,NA,PA,15110,NA,NA,NA,NA,NA,NA,NA,NA,NA,NA,NA,NA,NA,NA,NA,NA,NA,NA,25,40.38276,-79.856971,NA,NA,data-conveniencesupermarkets.xlsx,42003486700,NA,NA,NA
96,B & Z Deli,Convenience Store,3392 Saxonburg Blvd,NA,NA,NA,PA,15116,NA,NA,NA,NA,NA,NA,NA,NA,NA,NA,NA,NA,NA,NA,NA,NA,NA,NA,0,40.548903,-79.913913,NA,NA,data-conveniencesupermarkets.xlsx,42003415002,NA,NA,NA
97,CVS / Pharmacy #258,Convenience Store,5703 Steubenville Pike,NA,NA,NA,PA,15136,NA,NA,NA,NA,NA,NA,NA,NA,NA,NA,NA,NA,NA,NA,NA,NA,NA,NA,13.636363636363637,40.451423,-80.134188,NA,NA,data-conveniencesupermarkets.xlsx,42003459201,NA,NA,NA
98,EZ Energy #306 / 7 Eleven #36186H,Convenience Store,3915 Wm Flynn Highway,NA,NA,NA,PA,15101,NA,NA,NA,NA,NA,NA,NA,NA,NA,NA,NA,NA,NA,NA,NA,NA,NA,NA,0,40.559163,-79.959751,NA,NA,data-conveniencesupermarkets.xlsx,42003414200,NA,NA,NA
99,EZ Energy #312 / 7 Eleven Store #36192H,Convenience Store,650 Clairton Blvd,NA,NA,NA,PA,15236,NA,NA,NA,NA,NA,NA,NA,NA,NA,NA,NA,NA,NA,NA,NA,NA,NA,NA,6.896551724137931,40.328839,-79.945503,NA,NA,data-conveniencesupermarkets.xlsx,42003489001,NA,NA,NA
100,Family Dollar #4675,Convenience Store,27 Duquesne Blvd,NA,NA,NA,PA,15110,NA,NA,NA,NA,NA,NA,NA,NA,NA,NA,NA,NA,NA,NA,NA,NA,NA,NA,25,40.374361,-79.846658,NA,NA,data-conveniencesupermarkets.xlsx,42003486700,NA,NA,NA
101,Fast Grab & Go,Convenience Store,7261 Steubenville Pike,NA,NA,NA,PA,15071,NA,NA,NA,NA,NA,NA,NA,NA,NA,NA,NA,NA,NA,NA,NA,NA,NA,NA,NA,40.442577,-80.186135,NA,NA,data-conveniencesupermarkets.xlsx,42003453003,NA,NA,NA
102,Getgo #3280,Convenience Store,1700 Wm Flynn Highway,NA,NA,NA,PA,15116,NA,NA,NA,NA,NA,NA,NA,NA,NA,NA,NA,NA,NA,NA,NA,NA,NA,NA,100,40.538256,-79.961617,NA,NA,data-conveniencesupermarkets.xlsx,42003426800,NA,NA,NA
103,Oakdale Mini Mart,Convenience Store,7520 Steubenville Pike,NA,NA,NA,PA,15071,NA,NA,NA,NA,NA,NA,NA,NA,NA,NA,NA,NA,NA,NA,NA,NA,NA,NA,NA,40.442116,-80.201258,NA,NA,data-conveniencesupermarkets.xlsx,42003453004,NA,NA,NA
104,Save N Go,Convenience Store,5610 William Flynn Highway,NA,NA,NA,PA,15044,NA,NA,NA,NA,NA,NA,NA,NA,NA,NA,NA,NA,NA,NA,NA,NA,NA,NA,12.5,40.63553,-79.939082,NA,NA,data-conveniencesupermarkets.xlsx,42003408001,NA,NA,NA
105,Sheetz #123,Convenience Store,5300 Wm Flynn Highway,NA,NA,NA,PA,15044,NA,NA,NA,NA,NA,NA,NA,NA,NA,NA,NA,NA,NA,NA,NA,NA,NA,NA,15.384615384615385,40.614349,-79.946668,NA,NA,data-conveniencesupermarkets.xlsx,42003414101,NA,NA,NA
106,Speedway #2903,Convenience Store,4311 Steubenville Pike,NA,NA,NA,PA,15205,NA,NA,NA,NA,NA,NA,NA,NA,NA,NA,NA,NA,NA,NA,NA,NA,NA,NA,13.636363636363637,40.43959,-80.093571,NA,NA,data-conveniencesupermarkets.xlsx,42003459201,NA,NA,NA
107,TJ's Deli Mart #2,Convenience Store,5942 Steubenville Pike,NA,NA,NA,PA,15136,NA,NA,NA,NA,NA,NA,NA,NA,NA,NA,NA,NA,NA,NA,NA,NA,NA,NA,13.636363636363637,40.448456,-80.142616,NA,NA,data-conveniencesupermarkets.xlsx,42003459201,NA,NA,NA
108,Tonidale Marathon,Convenience Store,7021 Steubenville Pike,NA,NA,NA,PA,15071,NA,NA,NA,NA,NA,NA,NA,NA,NA,NA,NA,NA,NA,NA,NA,NA,NA,NA,NA,40.443867,-80.174208,NA,NA,data-conveniencesupermarkets.xlsx,42003453003,NA,NA,NA
109,Uni-Mart,Convenience Store,1300 Coraopolis Hights Rd,NA,NA,NA,PA,15108,NA,NA,NA,NA,NA,NA,NA,NA,NA,NA,NA,NA,NA,NA,NA,NA,NA,NA,9.090909090909092,40.501443,-80.175698,NA,NA,data-conveniencesupermarkets.xlsx,42003451300,NA,NA,NA
110,EZ Energy #357 / 7 Eleven #36201H,Convenience Store,10594 Perry Highway,NA,NA,NA,PA,15090,NA,NA,NA,NA,NA,NA,NA,NA,NA,NA,NA,NA,NA,NA,NA,NA,NA,NA,6.666666666666667,40.612704,-80.054105,NA,NA,data-conveniencesupermarkets.xlsx,42003413100,NA,NA,NA
111,$1 & Up,Convenience Store,744 Brookline Blvd,NA,NA,NA,PA,15226,NA,NA,NA,NA,NA,NA,NA,NA,NA,NA,NA,NA,NA,NA,NA,NA,NA,NA,0,40.39374,-80.020522,NA,NA,data-conveniencesupermarkets.xlsx,42003191800,19,Brookline,4
112,1 Stop Amish Deli & Gifts,Convenience Store,1906 Lincoln Hwy,NA,NA,NA,PA,15137,NA,NA,NA,NA,NA,NA,NA,NA,NA,NA,NA,NA,NA,NA,NA,NA,NA,NA,NA,40.367305,-79.779211,NA,NA,data-conveniencesupermarkets.xlsx,42003564400,NA,NA,NA
113,3 D's Tobacco,Convenience Store,3604 5th Ave,NA,NA,NA,PA,15213,NA,NA,NA,NA,NA,NA,NA,NA,NA,NA,NA,NA,NA,NA,NA,NA,NA,NA,0,40.441242,-79.958758,NA,NA,data-conveniencesupermarkets.xlsx,42003040500,4,Central Oakland,3
114,5 GB's Fresh Foods,Convenience Store,1100 Chartiers Av,NA,NA,NA,PA,15136,NA,NA,NA,NA,NA,NA,NA,NA,NA,NA,NA,NA,NA,NA,NA,NA,NA,NA,10,40.465482,-80.068211,NA,NA,data-conveniencesupermarkets.xlsx,42003463900,NA,NA,NA
115,52nd Street Market,Convenience Store,601 52nd St,NA,NA,NA,PA,15201,NA,NA,NA,NA,NA,NA,NA,NA,NA,NA,NA,NA,NA,NA,NA,NA,NA,NA,33.333333333333336,40.478808,-79.951957,NA,NA,data-conveniencesupermarkets.xlsx,42003101100,10,Upper Lawrenceville,7
116,7 Eleven #106 36118A,Convenience Store,1 Bigelow Sq,NA,NA,NA,PA,15219,NA,NA,NA,NA,NA,NA,NA,NA,NA,NA,NA,NA,NA,NA,NA,NA,NA,NA,3.488372093023256,40.44043,-79.99488,NA,NA,data-conveniencesupermarkets.xlsx,42003020100,2,Central Business District,6
117,7 Eleven #167,Convenience Store,643 Liberty Av,NA,NA,NA,PA,15222,NA,NA,NA,NA,NA,NA,NA,NA,NA,NA,NA,NA,NA,NA,NA,NA,NA,NA,3.488372093023256,40.442605,-80.000205,NA,NA,data-conveniencesupermarkets.xlsx,42003020100,2,Central Business District,6
118,7 Eleven #2701-36160J,Convenience Store,420 Smihfield St,NA,NA,NA,PA,15222,NA,NA,NA,NA,NA,NA,NA,NA,NA,NA,NA,NA,NA,NA,NA,NA,NA,NA,3.488372093023256,40.439202,-79.998948,NA,NA,data-conveniencesupermarkets.xlsx,42003020100,1,Central Business District,6
119,7 Eleven #36117H,Convenience Store,333 Thompson Run Rd,NA,NA,NA,PA,15237,NA,NA,NA,NA,NA,NA,NA,NA,NA,NA,NA,NA,NA,NA,NA,NA,NA,NA,7.6923076923076925,40.527563,-79.988854,NA,NA,data-conveniencesupermarkets.xlsx,42003429202,NA,NA,NA
120,7 Eleven #36121A,Convenience Store,423 James St,NA,NA,NA,PA,15145,NA,NA,NA,NA,NA,NA,NA,NA,NA,NA,NA,NA,NA,NA,NA,NA,NA,NA,0,40.408809,-79.819096,NA,NA,data-conveniencesupermarkets.xlsx,42003509400,NA,NA,NA
121,7 Eleven #36122A,Convenience Store,22 Grant Av,NA,NA,NA,PA,15223,NA,NA,NA,NA,NA,NA,NA,NA,NA,NA,NA,NA,NA,NA,NA,NA,NA,NA,20,40.50398,-79.948659,NA,NA,data-conveniencesupermarkets.xlsx,42003425000,NA,NA,NA
122,7 Eleven #36123,Convenience Store,7500 Grand Av,NA,NA,NA,PA,15225,NA,NA,NA,NA,NA,NA,NA,NA,NA,NA,NA,NA,NA,NA,NA,NA,NA,NA,9.090909090909092,40.5173,-80.148322,NA,NA,data-conveniencesupermarkets.xlsx,42003461000,NA,NA,NA
123,7 Eleven #36126A,Convenience Store,987 Greentree Rd,NA,NA,NA,PA,15220,NA,NA,NA,NA,NA,NA,NA,NA,NA,NA,NA,NA,NA,NA,NA,NA,NA,NA,10.526315789473685,40.418082,-80.045137,NA,NA,data-conveniencesupermarkets.xlsx,42003469000,NA,NA,NA
124,7 Eleven #36127A,Convenience Store,137 Clever Rd,NA,NA,NA,PA,15136,NA,NA,NA,NA,NA,NA,NA,NA,NA,NA,NA,NA,NA,NA,NA,NA,NA,NA,15.384615384615385,40.46957,-80.100321,NA,NA,data-conveniencesupermarkets.xlsx,42003460002,NA,NA,NA
125,7 Eleven #36128,Convenience Store,6403 Brownsville Rd,NA,NA,NA,PA,15236,NA,NA,NA,NA,NA,NA,NA,NA,NA,NA,NA,NA,NA,NA,NA,NA,NA,NA,0,40.321948,-79.994895,NA,NA,data-conveniencesupermarkets.xlsx,42003490003,NA,NA,NA
126,7 Eleven #36134,Convenience Store,3955 Forbes Av,NA,NA,NA,PA,15213,NA,NA,NA,NA,NA,NA,NA,NA,NA,NA,NA,NA,NA,NA,NA,NA,NA,NA,NA,40.443016,-79.95494,NA,NA,data-conveniencesupermarkets.xlsx,42003982200,4,North Oakland,3
127,7 Eleven #36135,Convenience Store,850 Blvdyce Rd,NA,NA,NA,PA,15017,NA,NA,NA,NA,NA,NA,NA,NA,NA,NA,NA,NA,NA,NA,NA,NA,NA,NA,15.384615384615385,40.328211,-80.125669,NA,NA,data-conveniencesupermarkets.xlsx,42003456004,NA,NA,NA
128,7 Eleven #36138H,Convenience Store,740 W Ingomar Rd,NA,NA,NA,PA,15237,NA,NA,NA,NA,NA,NA,NA,NA,NA,NA,NA,NA,NA,NA,NA,NA,NA,NA,20,40.581679,-80.056061,NA,NA,data-conveniencesupermarkets.xlsx,42003413202,NA,NA,NA
129,7 Eleven #36140A,Convenience Store,1005 Western Ave,NA,NA,NA,PA,15233,NA,NA,NA,NA,NA,NA,NA,NA,NA,NA,NA,NA,NA,NA,NA,NA,NA,NA,NA,40.451235,-80.019102,NA,NA,data-conveniencesupermarkets.xlsx,42003980600,21,Chateau,6
130,7 Eleven #36144A,Convenience Store,95 Warrendale Bayne Rd,NA,NA,NA,PA,15086,NA,NA,NA,NA,NA,NA,NA,NA,NA,NA,NA,NA,NA,NA,NA,NA,NA,NA,16.666666666666668,40.655507,-80.086794,NA,NA,data-conveniencesupermarkets.xlsx,42003411000,NA,NA,NA
131,7 Eleven #36146A,Convenience Store,429 Wood St,NA,NA,NA,PA,15222,NA,NA,NA,NA,NA,NA,NA,NA,NA,NA,NA,NA,NA,NA,NA,NA,NA,NA,3.488372093023256,40.440324,-80.00103,NA,NA,data-conveniencesupermarkets.xlsx,42003020100,2,Central Business District,6
132,7 Eleven #36152A,Convenience Store,608 5th St,NA,NA,NA,PA,15088,NA,NA,NA,NA,NA,NA,NA,NA,NA,NA,NA,NA,NA,NA,NA,NA,NA,NA,NA,40.27325,-79.896205,NA,NA,data-conveniencesupermarkets.xlsx,42003564500,NA,NA,NA
133,7 Eleven #36159A,Convenience Store,1350 Wildwood Rd,NA,NA,NA,PA,15044,NA,NA,NA,NA,NA,NA,NA,NA,NA,NA,NA,NA,NA,NA,NA,NA,NA,NA,33.333333333333336,40.594933,-79.993623,NA,NA,data-conveniencesupermarkets.xlsx,42003413500,NA,NA,NA
134,7 Eleven #36193A,Convenience Store,999 Greentree Rd,NA,NA,NA,PA,15220,NA,NA,NA,NA,NA,NA,NA,NA,NA,NA,NA,NA,NA,NA,NA,NA,NA,NA,10.526315789473685,40.416791,-80.044676,NA,NA,data-conveniencesupermarkets.xlsx,42003469000,NA,NA,NA
135,7 Eleven Store #36131-A,Convenience Store,10 Prospect Av,NA,NA,NA,PA,15205,NA,NA,NA,NA,NA,NA,NA,NA,NA,NA,NA,NA,NA,NA,NA,NA,NA,NA,27.272727272727273,40.445258,-80.066088,NA,NA,data-conveniencesupermarkets.xlsx,42003464300,NA,NA,NA
136,7-Eleven #36124,Convenience Store,1400 Radford Rd,NA,NA,NA,PA,15227,NA,NA,NA,NA,NA,NA,NA,NA,NA,NA,NA,NA,NA,NA,NA,NA,NA,NA,6.25,40.363734,-79.967563,NA,NA,data-conveniencesupermarkets.xlsx,42003477300,NA,NA,NA
137,A & K Convenience Store,Convenience Store,3459 Ward St,NA,NA,NA,PA,15213,NA,NA,NA,NA,NA,NA,NA,NA,NA,NA,NA,NA,NA,NA,NA,NA,NA,NA,0,40.436402,-79.95436,NA,NA,data-conveniencesupermarkets.xlsx,42003040600,4,Central Oakland,3
138,A & M Market,Convenience Store,320 Coal St,NA,NA,NA,PA,15221,NA,NA,NA,NA,NA,NA,NA,NA,NA,NA,NA,NA,NA,NA,NA,NA,NA,NA,5.2631578947368425,40.435709,-79.882673,NA,NA,data-conveniencesupermarkets.xlsx,42003516200,NA,NA,NA
139,Abby's,Convenience Store,2408 Reed St,NA,NA,NA,PA,15219,NA,NA,NA,NA,NA,NA,NA,NA,NA,NA,NA,NA,NA,NA,NA,NA,NA,NA,0,40.444968,-79.971576,NA,NA,data-conveniencesupermarkets.xlsx,42003051000,5,Terrace Village,6
140,Abe's Market,Convenience Store,1860 Centre Av,NA,NA,NA,PA,15219,NA,NA,NA,NA,NA,NA,NA,NA,NA,NA,NA,NA,NA,NA,NA,NA,NA,NA,3.1746031746031744,40.442818,-79.980847,NA,NA,data-conveniencesupermarkets.xlsx,42003030500,3,Crawford-Roberts,6
141,Aden Market,Convenience Store,1318 Federal St,NA,NA,NA,PA,15212,NA,NA,NA,NA,NA,NA,NA,NA,NA,NA,NA,NA,NA,NA,NA,NA,NA,NA,10,40.457262,-80.006901,NA,NA,data-conveniencesupermarkets.xlsx,42003220600,22,Central Northside,1
142,Ak Schwartz Super Market,Convenience Store,1901 5th Ave,NA,NA,NA,PA,15219,NA,NA,NA,NA,NA,NA,NA,NA,NA,NA,NA,NA,NA,NA,NA,NA,NA,NA,3.1746031746031744,40.438518,-79.979264,NA,NA,data-conveniencesupermarkets.xlsx,42003030500,3,Crawford-Roberts,6
143,Alfreds Deli & Market,Convenience Store,3041 Brereton St,NA,NA,NA,PA,15219,NA,NA,NA,NA,NA,NA,NA,NA,NA,NA,NA,NA,NA,NA,NA,NA,NA,NA,13.333333333333334,40.456775,-79.968396,NA,NA,data-conveniencesupermarkets.xlsx,42003060500,6,Polish Hill,7
144,Allegheny City Market,Convenience Store,1327 Arch St,NA,NA,NA,PA,15212,NA,NA,NA,NA,NA,NA,NA,NA,NA,NA,NA,NA,NA,NA,NA,NA,NA,NA,10,40.457244,-80.009625,NA,NA,data-conveniencesupermarkets.xlsx,42003220600,22,Central Northside,1
145,Allison Park Mini Market,Convenience Store,1675 Duncan Av,NA,NA,NA,PA,15101,NA,NA,NA,NA,NA,NA,NA,NA,NA,NA,NA,NA,NA,NA,NA,NA,NA,NA,33.333333333333336,40.566346,-79.999275,NA,NA,data-conveniencesupermarkets.xlsx,42003413500,NA,NA,NA
146,American Natural #12,Convenience Store,103 22nd Av,NA,NA,NA,PA,15120,NA,NA,NA,NA,NA,NA,NA,NA,NA,NA,NA,NA,NA,NA,NA,NA,NA,NA,0,40.397648,-79.902718,NA,NA,data-conveniencesupermarkets.xlsx,42003484600,NA,NA,NA
147,American Natural #14,Convenience Store,2619 Wexford Bayne Rd,NA,NA,NA,PA,15143,NA,NA,NA,NA,NA,NA,NA,NA,NA,NA,NA,NA,NA,NA,NA,NA,NA,NA,33.333333333333336,40.614788,-80.098656,NA,NA,data-conveniencesupermarkets.xlsx,42003412001,NA,NA,NA
148,American Natural #2,Convenience Store,7338 Butler St,NA,NA,NA,PA,15206,NA,NA,NA,NA,NA,NA,NA,NA,NA,NA,NA,NA,NA,NA,NA,NA,NA,NA,0,40.487385,-79.919823,NA,NA,data-conveniencesupermarkets.xlsx,42003101400,10,Highland Park,7
149,American Natural #5,Convenience Store,3800 Walnut St,NA,NA,NA,PA,15132,NA,NA,NA,NA,NA,NA,NA,NA,NA,NA,NA,NA,NA,NA,NA,NA,NA,NA,16.666666666666668,40.32561,-79.839633,NA,NA,data-conveniencesupermarkets.xlsx,42003552400,NA,NA,NA
150,American Natural #9,Convenience Store,5738 Smithfield St,NA,NA,NA,PA,15135,NA,NA,NA,NA,NA,NA,NA,NA,NA,NA,NA,NA,NA,NA,NA,NA,NA,NA,0,40.310955,-79.824816,NA,NA,data-conveniencesupermarkets.xlsx,42003496200,NA,NA,NA
151,Anlauf's Sunoco,Convenience Store,214 Rodi Rd,NA,NA,NA,PA,15235,NA,NA,NA,NA,NA,NA,NA,NA,NA,NA,NA,NA,NA,NA,NA,NA,NA,NA,14.285714285714286,40.463141,-79.824297,NA,NA,data-conveniencesupermarkets.xlsx,42003523400,NA,NA,NA
152,Ann's Market,Convenience Store,2316 Webster Ave,NA,NA,NA,PA,15219,NA,NA,NA,NA,NA,NA,NA,NA,NA,NA,NA,NA,NA,NA,NA,NA,NA,NA,6.0606060606060606,40.448314,-79.975214,NA,NA,data-conveniencesupermarkets.xlsx,42003050100,5,Middle Hill,6
153,Anytime Market,Convenience Store,730 Broadway Av,NA,NA,NA,PA,15136,NA,NA,NA,NA,NA,NA,NA,NA,NA,NA,NA,NA,NA,NA,NA,NA,NA,NA,10,40.472941,-80.074361,NA,NA,data-conveniencesupermarkets.xlsx,42003462600,NA,NA,NA
154,Arnold's Market,Convenience Store,1498 Center Av,NA,NA,NA,PA,15229,NA,NA,NA,NA,NA,NA,NA,NA,NA,NA,NA,NA,NA,NA,NA,NA,NA,NA,14.285714285714286,40.515253,-80.045024,NA,NA,data-conveniencesupermarkets.xlsx,42003430200,NA,NA,NA
155,Arrowhead Snack Bar,Convenience Store,800 Rock Run Rd,NA,NA,NA,PA,15037,NA,NA,NA,NA,NA,NA,NA,NA,NA,NA,NA,NA,NA,NA,NA,NA,NA,NA,0,40.267835,-79.812587,NA,NA,data-conveniencesupermarkets.xlsx,42003496101,NA,NA,NA
156,Azhar's Sunoco,Convenience Store,6500 Saltsburg Rd,NA,NA,NA,PA,15235,NA,NA,NA,NA,NA,NA,NA,NA,NA,NA,NA,NA,NA,NA,NA,NA,NA,NA,18.75,40.482373,-79.809518,NA,NA,data-conveniencesupermarkets.xlsx,42003523501,NA,NA,NA
157,Bailie Food Mart,Convenience Store,2316 Bailie Ave,NA,NA,NA,PA,15132,NA,NA,NA,NA,NA,NA,NA,NA,NA,NA,NA,NA,NA,NA,NA,NA,NA,NA,16.666666666666668,40.341159,-79.848683,NA,NA,data-conveniencesupermarkets.xlsx,42003552300,NA,NA,NA
158,Bakers Dairy,Convenience Store,7300 Hamilton Ave,NA,NA,NA,PA,15208,NA,NA,NA,NA,NA,NA,NA,NA,NA,NA,NA,NA,NA,NA,NA,NA,NA,NA,4.3478260869565215,40.454003,-79.895663,NA,NA,data-conveniencesupermarkets.xlsx,42003130300,13,Homewood South,9
159,Bay Valley Foods Bldg #230 - Co. Store,Convenience Store,1080 River Ave,NA,NA,NA,PA,15212,NA,NA,NA,NA,NA,NA,NA,NA,NA,NA,NA,NA,NA,NA,NA,NA,NA,NA,12.5,40.455278,-79.989036,NA,NA,data-conveniencesupermarkets.xlsx,42003240600,23,Troy Hill,1
160,Beccari Farm Market,Convenience Store,5095 Thoms Run Rd,NA,NA,NA,PA,15071,NA,NA,NA,NA,NA,NA,NA,NA,NA,NA,NA,NA,NA,NA,NA,NA,NA,NA,10.714285714285714,40.373971,-80.133093,NA,NA,data-conveniencesupermarkets.xlsx,42003458000,NA,NA,NA
161,Bell's Market,Convenience Store,603 Braddock Ave,NA,NA,NA,PA,15104,NA,NA,NA,NA,NA,NA,NA,NA,NA,NA,NA,NA,NA,NA,NA,NA,NA,NA,0,40.403331,-79.868202,NA,NA,data-conveniencesupermarkets.xlsx,42003513800,NA,NA,NA
162,Ben Avon Mini Mart,Convenience Store,200 Division Av,NA,NA,NA,PA,15202,NA,NA,NA,NA,NA,NA,NA,NA,NA,NA,NA,NA,NA,NA,NA,NA,NA,NA,NA,40.503809,-80.075415,NA,NA,data-conveniencesupermarkets.xlsx,42003434000,NA,NA,NA
163,Bhangal Mcknight,Convenience Store,4616 Mcknight Rd,NA,NA,NA,PA,15237,NA,NA,NA,NA,NA,NA,NA,NA,NA,NA,NA,NA,NA,NA,NA,NA,NA,NA,20,40.506003,-80.007421,NA,NA,data-conveniencesupermarkets.xlsx,42003429100,NA,NA,NA
164,Big Daddy's,Convenience Store,564 Forbes Av,NA,NA,NA,PA,15219,NA,NA,NA,NA,NA,NA,NA,NA,NA,NA,NA,NA,NA,NA,NA,NA,NA,NA,3.488372093023256,40.437655,-79.995074,NA,NA,data-conveniencesupermarkets.xlsx,42003020100,1,Central Business District,6
165,Bizi Mart,Convenience Store,2134 Carson St,NA,NA,NA,PA,15203,NA,NA,NA,NA,NA,NA,NA,NA,NA,NA,NA,NA,NA,NA,NA,NA,NA,NA,9.523809523809524,40.428206,-79.974793,NA,NA,data-conveniencesupermarkets.xlsx,42003160900,16,South Side Flats,3
166,Blue Eagle Market,Convenience Store,726 Broadway Ave,NA,NA,NA,PA,15136,NA,NA,NA,NA,NA,NA,NA,NA,NA,NA,NA,NA,NA,NA,NA,NA,NA,NA,10,40.472971,-80.07416,NA,NA,data-conveniencesupermarkets.xlsx,42003462600,NA,NA,NA
167,Blvdb's Exxon,Convenience Store,2602 Freeport Rd,NA,NA,NA,PA,15065,NA,NA,NA,NA,NA,NA,NA,NA,NA,NA,NA,NA,NA,NA,NA,NA,NA,NA,10,40.633564,-79.713801,NA,NA,data-conveniencesupermarkets.xlsx,42003401100,NA,NA,NA
168,BP / Bloomfield,Convenience Store,4006 Liberty Ave,NA,NA,NA,PA,15224,NA,NA,NA,NA,NA,NA,NA,NA,NA,NA,NA,NA,NA,NA,NA,NA,NA,NA,13.333333333333334,40.462645,-79.95682,NA,NA,data-conveniencesupermarkets.xlsx,42003090300,9,Bloomfield,7
169,BP Connect,Convenience Store,2 Beaver Grade Rd,NA,NA,NA,PA,15136,NA,NA,NA,NA,NA,NA,NA,NA,NA,NA,NA,NA,NA,NA,NA,NA,NA,NA,13.636363636363637,40.452448,-80.133194,NA,NA,data-conveniencesupermarkets.xlsx,42003459201,NA,NA,NA
170,BP Fueland #228,Convenience Store,1927 Brownsville Rd,NA,NA,NA,PA,15210,NA,NA,NA,NA,NA,NA,NA,NA,NA,NA,NA,NA,NA,NA,NA,NA,NA,NA,13.333333333333334,40.395391,-79.986501,NA,NA,data-conveniencesupermarkets.xlsx,42003290200,29,Carrick,4
171,BP Gas Station,Convenience Store,1001 Evergreen Av,NA,NA,NA,PA,15209,NA,NA,NA,NA,NA,NA,NA,NA,NA,NA,NA,NA,NA,NA,NA,NA,NA,NA,11.11111111111111,40.490782,-79.971815,NA,NA,data-conveniencesupermarkets.xlsx,42003427000,NA,NA,NA
172,BP Gas Station #36182,Convenience Store,100 Fox Chapel Dr,NA,NA,NA,PA,15238,NA,NA,NA,NA,NA,NA,NA,NA,NA,NA,NA,NA,NA,NA,NA,NA,NA,NA,19.047619047619047,40.489314,-79.882457,NA,NA,data-conveniencesupermarkets.xlsx,42003421100,NA,NA,NA
173,BP Oil,Convenience Store,231 5th Ave,NA,NA,NA,PA,15132,NA,NA,NA,NA,NA,NA,NA,NA,NA,NA,NA,NA,NA,NA,NA,NA,NA,NA,5.882352941176471,40.351205,-79.86532,NA,NA,data-conveniencesupermarkets.xlsx,42003551900,NA,NA,NA
174,BP Oil #07414,Convenience Store,4260 Evergreen Rd,NA,NA,NA,PA,15214,NA,NA,NA,NA,NA,NA,NA,NA,NA,NA,NA,NA,NA,NA,NA,NA,NA,NA,0,40.495669,-80.00773,NA,NA,data-conveniencesupermarkets.xlsx,42003261200,26,Summer Hill,1
175,BP Oil #67315,Convenience Store,2900 Banksville Rd,NA,NA,NA,PA,15216,NA,NA,NA,NA,NA,NA,NA,NA,NA,NA,NA,NA,NA,NA,NA,NA,NA,NA,15.789473684210526,40.402949,-80.041463,NA,NA,data-conveniencesupermarkets.xlsx,42003202300,20,Banksville,2
176,BP South Braddock,Convenience Store,1600 Braddock Av,NA,NA,NA,PA,15218,NA,NA,NA,NA,NA,NA,NA,NA,NA,NA,NA,NA,NA,NA,NA,NA,NA,NA,NA,40.426943,-79.890856,NA,NA,data-conveniencesupermarkets.xlsx,42003515401,NA,NA,NA
177,BP Stop & Go,Convenience Store,638 Brown Av,NA,NA,NA,PA,15145,NA,NA,NA,NA,NA,NA,NA,NA,NA,NA,NA,NA,NA,NA,NA,NA,NA,NA,11.11111111111111,40.42596,-79.8345,NA,NA,data-conveniencesupermarkets.xlsx,42003520002,NA,NA,NA
178,BP/ BFS Foods #64,Convenience Store,3984 Monroeville Blvd,NA,NA,NA,PA,15146,NA,NA,NA,NA,NA,NA,NA,NA,NA,NA,NA,NA,NA,NA,NA,NA,NA,NA,2.9411764705882355,40.436011,-79.773069,NA,NA,data-conveniencesupermarkets.xlsx,42003521302,NA,NA,NA
179,BP/ Fueland #216,Convenience Store,625 Ardmore Blvd,NA,NA,NA,PA,15221,NA,NA,NA,NA,NA,NA,NA,NA,NA,NA,NA,NA,NA,NA,NA,NA,NA,NA,9.090909090909092,40.437049,-79.873803,NA,NA,data-conveniencesupermarkets.xlsx,42003561000,NA,NA,NA
180,Broadway Dairy Mart,Convenience Store,412 Broadway Ave,NA,NA,NA,PA,15136,NA,NA,NA,NA,NA,NA,NA,NA,NA,NA,NA,NA,NA,NA,NA,NA,NA,NA,10,40.46921,-80.068713,NA,NA,data-conveniencesupermarkets.xlsx,42003463900,NA,NA,NA
181,Broadway Market,Convenience Store,295 Broadway Av,NA,NA,NA,PA,15136,NA,NA,NA,NA,NA,NA,NA,NA,NA,NA,NA,NA,NA,NA,NA,NA,NA,NA,10,40.467589,-80.067325,NA,NA,data-conveniencesupermarkets.xlsx,42003463900,NA,NA,NA
182,Bryant Street Market,Convenience Store,5901 Bryant St,NA,NA,NA,PA,15206,NA,NA,NA,NA,NA,NA,NA,NA,NA,NA,NA,NA,NA,NA,NA,NA,NA,NA,12.5,40.475878,-79.91957,NA,NA,data-conveniencesupermarkets.xlsx,42003110200,11,Highland Park,7
183,C & C News & Snax,Convenience Store,2 Ppg Pl,NA,NA,NA,PA,15222,NA,NA,NA,NA,NA,NA,NA,NA,NA,NA,NA,NA,NA,NA,NA,NA,NA,NA,3.488372093023256,40.440491,-80.00349,NA,NA,data-conveniencesupermarkets.xlsx,42003020100,1,Central Business District,6
184,CeeBee Market,Convenience Store,202 Brownsville Rd,NA,NA,NA,PA,15210,NA,NA,NA,NA,NA,NA,NA,NA,NA,NA,NA,NA,NA,NA,NA,NA,NA,NA,14.285714285714286,40.4158,-79.987353,NA,NA,data-conveniencesupermarkets.xlsx,42003481000,NA,NA,NA
185,Center Point Convenience,Convenience Store,4061 Perrysville Ave,NA,NA,NA,PA,15214,NA,NA,NA,NA,NA,NA,NA,NA,NA,NA,NA,NA,NA,NA,NA,NA,NA,NA,0,40.492315,-80.0217,NA,NA,data-conveniencesupermarkets.xlsx,42003260200,26,Perry North,1
186,Cheneh A - Plus Mini Mart,Convenience Store,5013 Butler St,NA,NA,NA,PA,15201,NA,NA,NA,NA,NA,NA,NA,NA,NA,NA,NA,NA,NA,NA,NA,NA,NA,NA,7.142857142857143,40.478309,-79.956214,NA,NA,data-conveniencesupermarkets.xlsx,42003090100,9,Central Lawrenceville,7
187,Christy's Market,Convenience Store,555 Foundry St,NA,NA,NA,PA,15215,NA,NA,NA,NA,NA,NA,NA,NA,NA,NA,NA,NA,NA,NA,NA,NA,NA,NA,8.333333333333334,40.50358,-79.937308,NA,NA,data-conveniencesupermarkets.xlsx,42003426700,NA,NA,NA
188,Chuong's Market,Convenience Store,2208 Arlington Ave,NA,NA,NA,PA,15210,NA,NA,NA,NA,NA,NA,NA,NA,NA,NA,NA,NA,NA,NA,NA,NA,NA,NA,NA,40.417017,-79.975536,NA,NA,data-conveniencesupermarkets.xlsx,42003561600,16,Arlington,3
189,CIO Stores #14,Convenience Store,1909 Painters Run Rd,NA,NA,NA,PA,15241,NA,NA,NA,NA,NA,NA,NA,NA,NA,NA,NA,NA,NA,NA,NA,NA,NA,NA,13.636363636363637,40.363565,-80.086297,NA,NA,data-conveniencesupermarkets.xlsx,42003474101,NA,NA,NA
190,Circle K #4200,Convenience Store,2903 Brighton Rd,NA,NA,NA,PA,15212,NA,NA,NA,NA,NA,NA,NA,NA,NA,NA,NA,NA,NA,NA,NA,NA,NA,NA,16.666666666666668,40.471598,-80.02729,NA,NA,data-conveniencesupermarkets.xlsx,42003271500,27,Marshall-Shadeland,1
191,Circle K #4201,Convenience Store,501 Main St,NA,NA,NA,PA,15215,NA,NA,NA,NA,NA,NA,NA,NA,NA,NA,NA,NA,NA,NA,NA,NA,NA,NA,0,40.494777,-79.936723,NA,NA,data-conveniencesupermarkets.xlsx,42003424000,NA,NA,NA
192,Circle K #4202,Convenience Store,3817 Butler St,NA,NA,NA,PA,15201,NA,NA,NA,NA,NA,NA,NA,NA,NA,NA,NA,NA,NA,NA,NA,NA,NA,NA,10.526315789473685,40.467553,-79.964223,NA,NA,data-conveniencesupermarkets.xlsx,42003060300,6,Lower Lawrenceville,7
193,Circle K #4235,Convenience Store,200 Market Place Dr,NA,NA,NA,PA,15071,NA,NA,NA,NA,NA,NA,NA,NA,NA,NA,NA,NA,NA,NA,NA,NA,NA,NA,NA,40.441153,-80.240396,NA,NA,data-conveniencesupermarkets.xlsx,42003564000,NA,NA,NA
194,City News & Arcade,Convenience Store,418 Wood St,NA,NA,NA,PA,15222,NA,NA,NA,NA,NA,NA,NA,NA,NA,NA,NA,NA,NA,NA,NA,NA,NA,NA,3.488372093023256,40.43978,-80.000753,NA,NA,data-conveniencesupermarkets.xlsx,42003020100,1,Central Business District,6
195,Co Go #1808,Convenience Store,1001 Brookline Blvd,NA,NA,NA,PA,15226,NA,NA,NA,NA,NA,NA,NA,NA,NA,NA,NA,NA,NA,NA,NA,NA,NA,NA,0,40.392358,-80.017326,NA,NA,data-conveniencesupermarkets.xlsx,42003191900,19,Brookline,4
196,Co Go's #1817,Convenience Store,2800 Brownsville Rd,NA,NA,NA,PA,15227,NA,NA,NA,NA,NA,NA,NA,NA,NA,NA,NA,NA,NA,NA,NA,NA,NA,NA,9.090909090909092,40.383403,-79.977468,NA,NA,data-conveniencesupermarkets.xlsx,42003290400,29,Carrick,4
197,Co Go's #321,Convenience Store,2733 South Park Road,NA,NA,NA,PA,15102,NA,NA,NA,NA,NA,NA,NA,NA,NA,NA,NA,NA,NA,NA,NA,NA,NA,NA,8,40.327631,-80.031909,NA,NA,data-conveniencesupermarkets.xlsx,42003475301,NA,NA,NA
198,Co Go's #322,Convenience Store,510 Station St,NA,NA,NA,PA,15017,NA,NA,NA,NA,NA,NA,NA,NA,NA,NA,NA,NA,NA,NA,NA,NA,NA,NA,11.11111111111111,40.357225,-80.110748,NA,NA,data-conveniencesupermarkets.xlsx,42003457200,NA,NA,NA
199,Co Go's #329,Convenience Store,1050 Brinton Rd,NA,NA,NA,PA,15221,NA,NA,NA,NA,NA,NA,NA,NA,NA,NA,NA,NA,NA,NA,NA,NA,NA,NA,7.142857142857143,40.429065,-79.874667,NA,NA,data-conveniencesupermarkets.xlsx,42003517000,NA,NA,NA
200,Co Go's #338,Convenience Store,3767 Brownsville Rd,NA,NA,NA,PA,15227,NA,NA,NA,NA,NA,NA,NA,NA,NA,NA,NA,NA,NA,NA,NA,NA,NA,NA,15.789473684210526,40.37061,-79.974834,NA,NA,data-conveniencesupermarkets.xlsx,42003478200,NA,NA,NA
201,Co Go's #496,Convenience Store,721 Island Av,NA,NA,NA,PA,15136,NA,NA,NA,NA,NA,NA,NA,NA,NA,NA,NA,NA,NA,NA,NA,NA,NA,NA,0,40.473124,-80.062598,NA,NA,data-conveniencesupermarkets.xlsx,42003464400,NA,NA,NA
202,Co Go's #777,Convenience Store,20 Bailey Av,NA,NA,NA,PA,15211,NA,NA,NA,NA,NA,NA,NA,NA,NA,NA,NA,NA,NA,NA,NA,NA,NA,NA,33.333333333333336,40.426751,-80.004641,NA,NA,data-conveniencesupermarkets.xlsx,42003180700,18,Mount Washington,3
203,Co Go's #786,Convenience Store,2003 S Braddock Ave,NA,NA,NA,PA,15218,NA,NA,NA,NA,NA,NA,NA,NA,NA,NA,NA,NA,NA,NA,NA,NA,NA,NA,5.2631578947368425,40.422453,-79.885302,NA,NA,data-conveniencesupermarkets.xlsx,42003515100,NA,NA,NA
204,Co Go's #801,Convenience Store,1709 Saw Mill Run Blvd,NA,NA,NA,PA,15210,NA,NA,NA,NA,NA,NA,NA,NA,NA,NA,NA,NA,NA,NA,NA,NA,NA,NA,16.666666666666668,40.395816,-79.997403,NA,NA,data-conveniencesupermarkets.xlsx,42003290100,29,Carrick,4
205,Co Go's #811,Convenience Store,314 Scenery Dr,NA,NA,NA,PA,15037,NA,NA,NA,NA,NA,NA,NA,NA,NA,NA,NA,NA,NA,NA,NA,NA,NA,NA,0,40.278022,-79.837547,NA,NA,data-conveniencesupermarkets.xlsx,42003496101,NA,NA,NA
206,Co Go's #812,Convenience Store,1501 N Canal St,NA,NA,NA,PA,15215,NA,NA,NA,NA,NA,NA,NA,NA,NA,NA,NA,NA,NA,NA,NA,NA,NA,NA,0,40.496714,-79.926033,NA,NA,data-conveniencesupermarkets.xlsx,42003424000,NA,NA,NA
207,Co Go's #813,Convenience Store,925 E Carson St,NA,NA,NA,PA,15203,NA,NA,NA,NA,NA,NA,NA,NA,NA,NA,NA,NA,NA,NA,NA,NA,NA,NA,12.244897959183673,40.428967,-79.989023,NA,NA,data-conveniencesupermarkets.xlsx,42003170200,17,South Side Flats,3
208,Co Go's #814,Convenience Store,304 Virginia Ave,NA,NA,NA,PA,15211,NA,NA,NA,NA,NA,NA,NA,NA,NA,NA,NA,NA,NA,NA,NA,NA,NA,NA,28.571428571428573,40.431339,-80.010762,NA,NA,data-conveniencesupermarkets.xlsx,42003190300,19,Mount Washington,2
209,Co Go's #821,Convenience Store,1513 Lincoln Wa,NA,NA,NA,PA,15131,NA,NA,NA,NA,NA,NA,NA,NA,NA,NA,NA,NA,NA,NA,NA,NA,NA,NA,16.666666666666668,40.349044,-79.817798,NA,NA,data-conveniencesupermarkets.xlsx,42003503002,NA,NA,NA
210,Cochran A-Plus Sunoco #60568,Convenience Store,1630 Cochran Rd,NA,NA,NA,PA,15220,NA,NA,NA,NA,NA,NA,NA,NA,NA,NA,NA,NA,NA,NA,NA,NA,NA,NA,NA,40.392207,-80.061257,NA,NA,data-conveniencesupermarkets.xlsx,42003470501,NA,NA,NA
211,CoGo's #1493,Convenience Store,620 Lincoln Av,NA,NA,NA,PA,15202,NA,NA,NA,NA,NA,NA,NA,NA,NA,NA,NA,NA,NA,NA,NA,NA,NA,NA,7.142857142857143,40.497549,-80.058938,NA,NA,data-conveniencesupermarkets.xlsx,42003431500,NA,NA,NA
212,CoGo's #1784,Convenience Store,1530 Potomac Av,NA,NA,NA,PA,15216,NA,NA,NA,NA,NA,NA,NA,NA,NA,NA,NA,NA,NA,NA,NA,NA,NA,NA,6.25,40.397238,-80.03548,NA,NA,data-conveniencesupermarkets.xlsx,42003472100,NA,NA,NA
213,ComBlvd Mini Mart,Convenience Store,1235 Muldowney St,NA,NA,NA,PA,15207,NA,NA,NA,NA,NA,NA,NA,NA,NA,NA,NA,NA,NA,NA,NA,NA,NA,NA,12.5,40.368932,-79.914005,NA,NA,data-conveniencesupermarkets.xlsx,42003310200,31,Lincoln Place,5
214,Comet News,Convenience Store,540 Braddock Av,NA,NA,NA,PA,15104,NA,NA,NA,NA,NA,NA,NA,NA,NA,NA,NA,NA,NA,NA,NA,NA,NA,NA,0,40.403638,-79.869559,NA,NA,data-conveniencesupermarkets.xlsx,42003513800,NA,NA,NA
215,Coraopolis Fast Stop,Convenience Store,879 4th Ave,NA,NA,NA,PA,15108,NA,NA,NA,NA,NA,NA,NA,NA,NA,NA,NA,NA,NA,NA,NA,NA,NA,NA,16.666666666666668,40.51961,-80.166401,NA,NA,data-conveniencesupermarkets.xlsx,42003450800,NA,NA,NA
216,Craft A-Plus,Convenience Store,301 Craft Ave,NA,NA,NA,PA,15213,NA,NA,NA,NA,NA,NA,NA,NA,NA,NA,NA,NA,NA,NA,NA,NA,NA,NA,4.545454545454546,40.435614,-79.96088,NA,NA,data-conveniencesupermarkets.xlsx,42003040900,4,South Oakland,3
217,Croskey's Sunoco,Convenience Store,806 Freeport Rd,NA,NA,NA,PA,15238,NA,NA,NA,NA,NA,NA,NA,NA,NA,NA,NA,NA,NA,NA,NA,NA,NA,NA,19.047619047619047,40.498863,-79.85316,NA,NA,data-conveniencesupermarkets.xlsx,42003421100,NA,NA,NA
218,Crossroads Service Center,Convenience Store,4600 Homestead Duquesne Rd,NA,NA,NA,PA,15122,NA,NA,NA,NA,NA,NA,NA,NA,NA,NA,NA,NA,NA,NA,NA,NA,NA,NA,25,40.376274,-79.894553,NA,NA,data-conveniencesupermarkets.xlsx,42003488300,NA,NA,NA
219,Curry Hollow Sunoco,Convenience Store,340 Curry Hollow Rd,NA,NA,NA,PA,15236,NA,NA,NA,NA,NA,NA,NA,NA,NA,NA,NA,NA,NA,NA,NA,NA,NA,NA,10.526315789473685,40.337461,-79.977244,NA,NA,data-conveniencesupermarkets.xlsx,42003489002,NA,NA,NA
220,CVS / Pharmacy #10034,Convenience Store,611 Duncan Av,NA,NA,NA,PA,15237,NA,NA,NA,NA,NA,NA,NA,NA,NA,NA,NA,NA,NA,NA,NA,NA,NA,NA,33.333333333333336,40.567824,-80.02325,NA,NA,data-conveniencesupermarkets.xlsx,42003413500,NA,NA,NA
221,Daily Mart,Convenience Store,1125 Arlington Ave,NA,NA,NA,PA,15203,NA,NA,NA,NA,NA,NA,NA,NA,NA,NA,NA,NA,NA,NA,NA,NA,NA,NA,25,40.422044,-79.991713,NA,NA,data-conveniencesupermarkets.xlsx,42003180300,18,Allentown,3
222,Dar's General Store,Convenience Store,709 Chartiers Av,NA,NA,NA,PA,15136,NA,NA,NA,NA,NA,NA,NA,NA,NA,NA,NA,NA,NA,NA,NA,NA,NA,NA,0,40.465584,-80.06193,NA,NA,data-conveniencesupermarkets.xlsx,42003464400,NA,NA,NA
223,Deurali Bazar Inc,Convenience Store,309 Brownsville Rd,NA,NA,NA,PA,15210,NA,NA,NA,NA,NA,NA,NA,NA,NA,NA,NA,NA,NA,NA,NA,NA,NA,NA,14.285714285714286,40.414053,-79.988023,NA,NA,data-conveniencesupermarkets.xlsx,42003481000,NA,NA,NA
224,DiLeo's Deli,Convenience Store,1009 9th Av,NA,NA,NA,PA,15014,NA,NA,NA,NA,NA,NA,NA,NA,NA,NA,NA,NA,NA,NA,NA,NA,NA,NA,0,40.609868,-79.741569,NA,NA,data-conveniencesupermarkets.xlsx,42003402000,NA,NA,NA
225,Dipen Ent Inc / Marathon,Convenience Store,3646 Library Rd,NA,NA,NA,PA,15234,NA,NA,NA,NA,NA,NA,NA,NA,NA,NA,NA,NA,NA,NA,NA,NA,NA,NA,22.22222222222222,40.365139,-80.019469,NA,NA,data-conveniencesupermarkets.xlsx,42003476100,NA,NA,NA
226,DJ's Butcher Block,Convenience Store,4623 Liberty Av,NA,NA,NA,PA,15224,NA,NA,NA,NA,NA,NA,NA,NA,NA,NA,NA,NA,NA,NA,NA,NA,NA,NA,13.333333333333334,40.462454,-79.949999,NA,NA,data-conveniencesupermarkets.xlsx,42003090300,9,Bloomfield,7
227,Dollar General #15784,Convenience Store,2301 Brownsville Rd,NA,NA,NA,PA,15129,NA,NA,NA,NA,NA,NA,NA,NA,NA,NA,NA,NA,NA,NA,NA,NA,NA,NA,0,40.298348,-79.993658,NA,NA,data-conveniencesupermarkets.xlsx,42003490003,NA,NA,NA
228,Dollar Tree #00236,Convenience Store,240 Mt NeBlvd Pointe Dr,NA,NA,NA,PA,15237,NA,NA,NA,NA,NA,NA,NA,NA,NA,NA,NA,NA,NA,NA,NA,NA,NA,NA,25,40.534703,-80.065129,NA,NA,data-conveniencesupermarkets.xlsx,42003437000,NA,NA,NA
229,Dollar Tree #05038,Convenience Store,4714 Mcknight Rd,NA,NA,NA,PA,15237,NA,NA,NA,NA,NA,NA,NA,NA,NA,NA,NA,NA,NA,NA,NA,NA,NA,NA,7.6923076923076925,40.521242,-80.004588,NA,NA,data-conveniencesupermarkets.xlsx,42003429202,NA,NA,NA
230,Dollar Tree #06413,Convenience Store,4680 Old William Penn Highway,NA,NA,NA,PA,15146,NA,NA,NA,NA,NA,NA,NA,NA,NA,NA,NA,NA,NA,NA,NA,NA,NA,NA,6.896551724137931,40.438817,-79.741022,NA,NA,data-conveniencesupermarkets.xlsx,42003521500,NA,NA,NA
231,Dollar Tree #1272,Convenience Store,5990 University Blvd,NA,NA,NA,PA,15108,NA,NA,NA,NA,NA,NA,NA,NA,NA,NA,NA,NA,NA,NA,NA,NA,NA,NA,15.384615384615385,40.521267,-80.219777,NA,NA,data-conveniencesupermarkets.xlsx,42003451101,NA,NA,NA
232,Dollar Tree #4222,Convenience Store,1020 Village Center Dr,NA,NA,NA,PA,15084,NA,NA,NA,NA,NA,NA,NA,NA,NA,NA,NA,NA,NA,NA,NA,NA,NA,NA,15.384615384615385,40.568368,-79.803954,NA,NA,data-conveniencesupermarkets.xlsx,42003405000,NA,NA,NA
233,Dollar Tree #4287,Convenience Store,47 Walsh Rd,NA,NA,NA,PA,15205,NA,NA,NA,NA,NA,NA,NA,NA,NA,NA,NA,NA,NA,NA,NA,NA,NA,NA,25,40.440254,-80.071174,NA,NA,data-conveniencesupermarkets.xlsx,42003465600,NA,NA,NA
234,Double Car Wash,Convenience Store,2305 O'Neil Blvd,NA,NA,NA,PA,15131,NA,NA,NA,NA,NA,NA,NA,NA,NA,NA,NA,NA,NA,NA,NA,NA,NA,NA,16.666666666666668,40.351707,-79.829165,NA,NA,data-conveniencesupermarkets.xlsx,42003503002,NA,NA,NA
235,DuBlvdis B P II,Convenience Store,4731 Buttermilk Hollow Rd,NA,NA,NA,PA,15122,NA,NA,NA,NA,NA,NA,NA,NA,NA,NA,NA,NA,NA,NA,NA,NA,NA,NA,25,40.359269,-79.907848,NA,NA,data-conveniencesupermarkets.xlsx,42003488300,NA,NA,NA
236,DuBlvdis BP,Convenience Store,1006 E Carson St,NA,NA,NA,PA,15203,NA,NA,NA,NA,NA,NA,NA,NA,NA,NA,NA,NA,NA,NA,NA,NA,NA,NA,12.244897959183673,40.428491,-79.988222,NA,NA,data-conveniencesupermarkets.xlsx,42003170200,17,South Side Flats,3
237,East Park News,Convenience Store,406 E OHighwayo St,NA,NA,NA,PA,15212,NA,NA,NA,NA,NA,NA,NA,NA,NA,NA,NA,NA,NA,NA,NA,NA,NA,NA,NA,40.453472,-80.001337,NA,NA,data-conveniencesupermarkets.xlsx,42003563200,23,East Allegheny,1
238,Eddies Snacks & Smokes,Convenience Store,262 5th Ave,NA,NA,NA,PA,15219,NA,NA,NA,NA,NA,NA,NA,NA,NA,NA,NA,NA,NA,NA,NA,NA,NA,NA,3.488372093023256,40.440665,-80.000665,NA,NA,data-conveniencesupermarkets.xlsx,42003020100,2,Central Business District,6
239,Eden's Market,Convenience Store,99 Alfred St,NA,NA,NA,PA,15228,NA,NA,NA,NA,NA,NA,NA,NA,NA,NA,NA,NA,NA,NA,NA,NA,NA,NA,16.666666666666668,40.380757,-80.044191,NA,NA,data-conveniencesupermarkets.xlsx,42003473300,NA,NA,NA
240,Eiben Services,Convenience Store,2929 Churchview Ave,NA,NA,NA,PA,15227,NA,NA,NA,NA,NA,NA,NA,NA,NA,NA,NA,NA,NA,NA,NA,NA,NA,NA,14.285714285714286,40.385355,-79.973001,NA,NA,data-conveniencesupermarkets.xlsx,42003480300,NA,NA,NA
241,Elizabeth BP,Convenience Store,141 Mckeesport Rd,NA,NA,NA,PA,15037,NA,NA,NA,NA,NA,NA,NA,NA,NA,NA,NA,NA,NA,NA,NA,NA,NA,NA,40,40.274669,-79.883592,NA,NA,data-conveniencesupermarkets.xlsx,42003494000,NA,NA,NA
242,Els Convenience Stop,Convenience Store,1614 Penn Ave,NA,NA,NA,PA,15221,NA,NA,NA,NA,NA,NA,NA,NA,NA,NA,NA,NA,NA,NA,NA,NA,NA,NA,12.5,40.442694,-79.867069,NA,NA,data-conveniencesupermarkets.xlsx,42003561500,NA,NA,NA
243,Ethnic Foods,Convenience Store,4371 Murray Ave,NA,NA,NA,PA,15217,NA,NA,NA,NA,NA,NA,NA,NA,NA,NA,NA,NA,NA,NA,NA,NA,NA,NA,11.764705882352942,40.420038,-79.928022,NA,NA,data-conveniencesupermarkets.xlsx,42003151700,15,Greenfield,5
244,Etna Express,Convenience Store,421 Butler St,NA,NA,NA,PA,15223,NA,NA,NA,NA,NA,NA,NA,NA,NA,NA,NA,NA,NA,NA,NA,NA,NA,NA,20,40.498662,-79.944097,NA,NA,data-conveniencesupermarkets.xlsx,42003425000,NA,NA,NA
245,Express Mini Mart @ BP Fueland,Convenience Store,501 Lowries Run Rd,NA,NA,NA,PA,15237,NA,NA,NA,NA,NA,NA,NA,NA,NA,NA,NA,NA,NA,NA,NA,NA,NA,NA,22.727272727272727,40.533915,-80.053035,NA,NA,data-conveniencesupermarkets.xlsx,42003429300,NA,NA,NA
246,Express Uni-Mart,Convenience Store,612 Old Clairton Rd,NA,NA,NA,PA,15236,NA,NA,NA,NA,NA,NA,NA,NA,NA,NA,NA,NA,NA,NA,NA,NA,NA,NA,10.526315789473685,40.324988,-79.957677,NA,NA,data-conveniencesupermarkets.xlsx,42003489002,NA,NA,NA
247,Exxon Cheswick,Convenience Store,1003 Freeport Rd,NA,NA,NA,PA,15024,NA,NA,NA,NA,NA,NA,NA,NA,NA,NA,NA,NA,NA,NA,NA,NA,NA,NA,11.11111111111111,40.540678,-79.814181,NA,NA,data-conveniencesupermarkets.xlsx,42003419000,NA,NA,NA
248,EZ Energy #305 / 7 Eleven #36185H,Convenience Store,2269 Noblestown Rd,NA,NA,NA,PA,15205,NA,NA,NA,NA,NA,NA,NA,NA,NA,NA,NA,NA,NA,NA,NA,NA,NA,NA,NA,40.42805,-80.053313,NA,NA,data-conveniencesupermarkets.xlsx,42003563100,28,Westwood,2
249,EZ Energy #308 / 7 Eleven #36188H,Convenience Store,4775 Mcknight Rd,NA,NA,NA,PA,15237,NA,NA,NA,NA,NA,NA,NA,NA,NA,NA,NA,NA,NA,NA,NA,NA,NA,NA,13.793103448275861,40.521671,-80.005583,NA,NA,data-conveniencesupermarkets.xlsx,42003429500,NA,NA,NA
250,EZ Energy #309 / 7 Eleven Store #36189H,Convenience Store,6250 Library Rd,NA,NA,NA,PA,15102,NA,NA,NA,NA,NA,NA,NA,NA,NA,NA,NA,NA,NA,NA,NA,NA,NA,NA,16.666666666666668,40.293358,-80.031019,NA,NA,data-conveniencesupermarkets.xlsx,42003475304,NA,NA,NA
251,EZ Energy #315 / 7 Eleven #36195H,Convenience Store,2 Heckle Rd,NA,NA,NA,PA,15136,NA,NA,NA,NA,NA,NA,NA,NA,NA,NA,NA,NA,NA,NA,NA,NA,NA,NA,15.384615384615385,40.474295,-80.094876,NA,NA,data-conveniencesupermarkets.xlsx,42003460002,NA,NA,NA
252,EZ Energy #354 / 7 Eleven #36199H,Convenience Store,1102 Perry Highwayghway,NA,NA,NA,PA,15237,NA,NA,NA,NA,NA,NA,NA,NA,NA,NA,NA,NA,NA,NA,NA,NA,NA,NA,13.043478260869565,40.544999,-80.035607,NA,NA,data-conveniencesupermarkets.xlsx,42003429400,NA,NA,NA
253,EZ Energy #361 / 7 Eleven #36205H,Convenience Store,6106 Saltsburg Rd,NA,NA,NA,PA,15147,NA,NA,NA,NA,NA,NA,NA,NA,NA,NA,NA,NA,NA,NA,NA,NA,NA,NA,18.75,40.484089,-79.818876,NA,NA,data-conveniencesupermarkets.xlsx,42003523501,NA,NA,NA
254,Family Dollar #7199,Convenience Store,1917 Centre Ave,NA,NA,NA,PA,15213,NA,NA,NA,NA,NA,NA,NA,NA,NA,NA,NA,NA,NA,NA,NA,NA,NA,NA,3.1746031746031744,40.443703,-79.980664,NA,NA,data-conveniencesupermarkets.xlsx,42003030500,3,Crawford-Roberts,6
255,Fast Eddie's Food-N-Fuel / G-Man Pizza & Deli,Convenience Store,1424 U.S. Route 30,NA,NA,NA,PA,15026,NA,NA,NA,NA,NA,NA,NA,NA,NA,NA,NA,NA,NA,NA,NA,NA,NA,NA,0,40.493478,-80.306274,NA,NA,data-conveniencesupermarkets.xlsx,42003452000,NA,NA,NA
256,Fast Stop,Convenience Store,620 Mcgovern Blvd,NA,NA,NA,PA,15108,NA,NA,NA,NA,NA,NA,NA,NA,NA,NA,NA,NA,NA,NA,NA,NA,NA,NA,15.384615384615385,40.54535,-80.218291,NA,NA,data-conveniencesupermarkets.xlsx,42003451101,NA,NA,NA
257,Forbes Ave Market,Convenience Store,2005 Forbes Av,NA,NA,NA,PA,15219,NA,NA,NA,NA,NA,NA,NA,NA,NA,NA,NA,NA,NA,NA,NA,NA,NA,NA,7.792207792207792,40.437573,-79.977418,NA,NA,data-conveniencesupermarkets.xlsx,42003010300,1,Bluff,6
258,Fourth St Market,Convenience Store,529 4th St,NA,NA,NA,PA,15104,NA,NA,NA,NA,NA,NA,NA,NA,NA,NA,NA,NA,NA,NA,NA,NA,NA,NA,0,40.407309,-79.869172,NA,NA,data-conveniencesupermarkets.xlsx,42003513800,NA,NA,NA
259,Frankstown Shell,Convenience Store,6701 Frankstown Ave,NA,NA,NA,PA,15208,NA,NA,NA,NA,NA,NA,NA,NA,NA,NA,NA,NA,NA,NA,NA,NA,NA,NA,0,40.458838,-79.90757,NA,NA,data-conveniencesupermarkets.xlsx,42003120700,12,Homewood West,9
260,Fratangelo Garden,Convenience Store,1014 Brodhead Rd,NA,NA,NA,PA,15108,NA,NA,NA,NA,NA,NA,NA,NA,NA,NA,NA,NA,NA,NA,NA,NA,NA,NA,15.384615384615385,40.525828,-80.224015,NA,NA,data-conveniencesupermarkets.xlsx,42003451101,NA,NA,NA
261,Frick Park Market,Convenience Store,7103 Reynolds St,NA,NA,NA,PA,15208,NA,NA,NA,NA,NA,NA,NA,NA,NA,NA,NA,NA,NA,NA,NA,NA,NA,NA,4,40.447214,-79.905123,NA,NA,data-conveniencesupermarkets.xlsx,42003140600,14,Point Breeze,9
262,Friend's Shell Food Shop,Convenience Store,5735 Baum Blvd,NA,NA,NA,PA,15206,NA,NA,NA,NA,NA,NA,NA,NA,NA,NA,NA,NA,NA,NA,NA,NA,NA,NA,22.580645161290324,40.458897,-79.932637,NA,NA,data-conveniencesupermarkets.xlsx,42003111500,8,East Liberty,7
263,Fueland,Convenience Store,801 Island Av,NA,NA,NA,PA,15136,NA,NA,NA,NA,NA,NA,NA,NA,NA,NA,NA,NA,NA,NA,NA,NA,NA,NA,0,40.473586,-80.063464,NA,NA,data-conveniencesupermarkets.xlsx,42003464400,NA,NA,NA
264,Fueland #1,Convenience Store,431 West 7th Ave,NA,NA,NA,PA,15120,NA,NA,NA,NA,NA,NA,NA,NA,NA,NA,NA,NA,NA,NA,NA,NA,NA,NA,6.666666666666667,40.402631,-79.917951,NA,NA,data-conveniencesupermarkets.xlsx,42003482500,NA,NA,NA
265,Fulland Green Tree,Convenience Store,2373 Noblestown Rd,NA,NA,NA,PA,15205,NA,NA,NA,NA,NA,NA,NA,NA,NA,NA,NA,NA,NA,NA,NA,NA,NA,NA,10.526315789473685,40.426565,-80.056017,NA,NA,data-conveniencesupermarkets.xlsx,42003469000,NA,NA,NA
266,Gaby Et Jules @ Market Street Grocery,Convenience Store,435 Market St,NA,NA,NA,PA,15222,NA,NA,NA,NA,NA,NA,NA,NA,NA,NA,NA,NA,NA,NA,NA,NA,NA,NA,3.488372093023256,40.441173,-80.002364,NA,NA,data-conveniencesupermarkets.xlsx,42003020100,1,Central Business District,6
267,Garfield Hill Market,Convenience Store,340 N. Aiken Av,NA,NA,NA,PA,15206,NA,NA,NA,NA,NA,NA,NA,NA,NA,NA,NA,NA,NA,NA,NA,NA,NA,NA,14.285714285714286,40.467559,-79.93441,NA,NA,data-conveniencesupermarkets.xlsx,42003111400,11,Garfield,9
268,Gas n' At,Convenience Store,5700 Homeville Rd,NA,NA,NA,PA,15122,NA,NA,NA,NA,NA,NA,NA,NA,NA,NA,NA,NA,NA,NA,NA,NA,NA,NA,13.333333333333334,40.366344,-79.871442,NA,NA,data-conveniencesupermarkets.xlsx,42003488400,NA,NA,NA
269,Get Go #3205,Convenience Store,350 East Main St,NA,NA,NA,PA,15106,NA,NA,NA,NA,NA,NA,NA,NA,NA,NA,NA,NA,NA,NA,NA,NA,NA,NA,0,40.409689,-80.082978,NA,NA,data-conveniencesupermarkets.xlsx,42003468700,NA,NA,NA
270,Get It Quick,Convenience Store,500 Garden City Dr,NA,NA,NA,PA,15146,NA,NA,NA,NA,NA,NA,NA,NA,NA,NA,NA,NA,NA,NA,NA,NA,NA,NA,0,40.44872,-79.780666,NA,NA,data-conveniencesupermarkets.xlsx,42003521100,NA,NA,NA
271,Getgo # 3003,Convenience Store,3247 E Carson St,NA,NA,NA,PA,15203,NA,NA,NA,NA,NA,NA,NA,NA,NA,NA,NA,NA,NA,NA,NA,NA,NA,NA,9.523809523809524,40.423126,-79.960079,NA,NA,data-conveniencesupermarkets.xlsx,42003160900,16,South Side Flats,3
272,Getgo #3021,Convenience Store,7675 Mcknight Rd,NA,NA,NA,PA,15237,NA,NA,NA,NA,NA,NA,NA,NA,NA,NA,NA,NA,NA,NA,NA,NA,NA,NA,13.793103448275861,40.545311,-80.016893,NA,NA,data-conveniencesupermarkets.xlsx,42003429500,NA,NA,NA
273,GetGo #3038,Convenience Store,5801 Forward Av,NA,NA,NA,PA,15217,NA,NA,NA,NA,NA,NA,NA,NA,NA,NA,NA,NA,NA,NA,NA,NA,NA,NA,8,40.429982,-79.923159,NA,NA,data-conveniencesupermarkets.xlsx,42003140800,14,Squirrel Hill South,5
274,GetGo #3043,Convenience Store,140 Towne Center Dr,NA,NA,NA,PA,15090,NA,NA,NA,NA,NA,NA,NA,NA,NA,NA,NA,NA,NA,NA,NA,NA,NA,NA,13.793103448275861,40.631618,-80.055692,NA,NA,data-conveniencesupermarkets.xlsx,42003409000,NA,NA,NA
275,GetGo #3060,Convenience Store,4000 Monroeville Blvd,NA,NA,NA,PA,15146,NA,NA,NA,NA,NA,NA,NA,NA,NA,NA,NA,NA,NA,NA,NA,NA,NA,NA,2.9411764705882355,40.435393,-79.77265,NA,NA,data-conveniencesupermarkets.xlsx,42003521302,NA,NA,NA
276,GetGo #3102,Convenience Store,1137 WasHighwayngton Av,NA,NA,NA,PA,15106,NA,NA,NA,NA,NA,NA,NA,NA,NA,NA,NA,NA,NA,NA,NA,NA,NA,NA,0,40.396745,-80.084329,NA,NA,data-conveniencesupermarkets.xlsx,42003470600,NA,NA,NA
277,Getgo #3106,Convenience Store,408 Penn Av,NA,NA,NA,PA,15221,NA,NA,NA,NA,NA,NA,NA,NA,NA,NA,NA,NA,NA,NA,NA,NA,NA,NA,8.695652173913043,40.444932,-79.88936,NA,NA,data-conveniencesupermarkets.xlsx,42003560400,NA,NA,NA
278,GetGo #3107,Convenience Store,4000 Butler St,NA,NA,NA,PA,15201,NA,NA,NA,NA,NA,NA,NA,NA,NA,NA,NA,NA,NA,NA,NA,NA,NA,NA,14.285714285714286,40.468733,-79.961717,NA,NA,data-conveniencesupermarkets.xlsx,42003090200,9,Central Lawrenceville,7
279,GetGo #3117,Convenience Store,117 S 18th St,NA,NA,NA,PA,15203,NA,NA,NA,NA,NA,NA,NA,NA,NA,NA,NA,NA,NA,NA,NA,NA,NA,NA,12.244897959183673,40.427557,-79.980338,NA,NA,data-conveniencesupermarkets.xlsx,42003170200,17,South Side Flats,3
280,GetGo #3128,Convenience Store,5281 Library Rd,NA,NA,NA,PA,15102,NA,NA,NA,NA,NA,NA,NA,NA,NA,NA,NA,NA,NA,NA,NA,NA,NA,NA,8.333333333333334,40.331327,-80.02207,NA,NA,data-conveniencesupermarkets.xlsx,42003475401,NA,NA,NA
281,GetGo #3140,Convenience Store,4685 Old Wm Penn Hwy,NA,NA,NA,PA,15146,NA,NA,NA,NA,NA,NA,NA,NA,NA,NA,NA,NA,NA,NA,NA,NA,NA,NA,6.896551724137931,40.440985,-79.742885,NA,NA,data-conveniencesupermarkets.xlsx,42003521500,NA,NA,NA
282,GetGo #3172,Convenience Store,1081 Freeport Rd,NA,NA,NA,PA,15238,NA,NA,NA,NA,NA,NA,NA,NA,NA,NA,NA,NA,NA,NA,NA,NA,NA,NA,19.047619047619047,40.488003,-79.883677,NA,NA,data-conveniencesupermarkets.xlsx,42003421100,NA,NA,NA
283,Getgo #3185,Convenience Store,1200 Hoffman Blvd,NA,NA,NA,PA,15122,NA,NA,NA,NA,NA,NA,NA,NA,NA,NA,NA,NA,NA,NA,NA,NA,NA,NA,11.11111111111111,40.382719,-79.868215,NA,NA,data-conveniencesupermarkets.xlsx,42003488200,NA,NA,NA
284,GetGo #3188,Convenience Store,1001 Lebanon Rd,NA,NA,NA,PA,15122,NA,NA,NA,NA,NA,NA,NA,NA,NA,NA,NA,NA,NA,NA,NA,NA,NA,NA,11.11111111111111,40.361538,-79.932066,NA,NA,data-conveniencesupermarkets.xlsx,42003488500,NA,NA,NA
285,GetGo #3486,Convenience Store,800 Allegheny River Blvd,NA,NA,NA,PA,15147,NA,NA,NA,NA,NA,NA,NA,NA,NA,NA,NA,NA,NA,NA,NA,NA,NA,NA,16.666666666666668,40.506894,-79.843134,NA,NA,data-conveniencesupermarkets.xlsx,42003524000,NA,NA,NA
286,Getgo #3487,Convenience Store,801 Mt Royal Blvd,NA,NA,NA,PA,15233,NA,NA,NA,NA,NA,NA,NA,NA,NA,NA,NA,NA,NA,NA,NA,NA,NA,NA,16.666666666666668,40.51415,-79.95942,NA,NA,data-conveniencesupermarkets.xlsx,42003426400,NA,NA,NA
287,GetGo #3488,Convenience Store,5603 Babcock Blvd,NA,NA,NA,PA,15237,NA,NA,NA,NA,NA,NA,NA,NA,NA,NA,NA,NA,NA,NA,NA,NA,NA,NA,13.793103448275861,40.546976,-80.02915,NA,NA,data-conveniencesupermarkets.xlsx,42003429500,NA,NA,NA
288,Getgo #3489,Convenience Store,2401 Ferguson Rd,NA,NA,NA,PA,15101,NA,NA,NA,NA,NA,NA,NA,NA,NA,NA,NA,NA,NA,NA,NA,NA,NA,NA,0,40.555705,-79.971377,NA,NA,data-conveniencesupermarkets.xlsx,42003414200,NA,NA,NA
289,Getgo #3600,Convenience Store,2811 Jacks Run Rd,NA,NA,NA,PA,15131,NA,NA,NA,NA,NA,NA,NA,NA,NA,NA,NA,NA,NA,NA,NA,NA,NA,NA,16.666666666666668,40.338101,-79.807652,NA,NA,data-conveniencesupermarkets.xlsx,42003503002,NA,NA,NA
290,GetGo #3616,Convenience Store,3601 Saw Mill Run Blvd,NA,NA,NA,PA,15227,NA,NA,NA,NA,NA,NA,NA,NA,NA,NA,NA,NA,NA,NA,NA,NA,NA,NA,10.526315789473685,40.372147,-79.981536,NA,NA,data-conveniencesupermarkets.xlsx,42003478100,NA,NA,NA
291,Getgo #3641,Convenience Store,3029 WasHighwayngton Pike,NA,NA,NA,PA,15017,NA,NA,NA,NA,NA,NA,NA,NA,NA,NA,NA,NA,NA,NA,NA,NA,NA,NA,7.6923076923076925,40.173242,-80.24199,NA,NA,data-conveniencesupermarkets.xlsx,42125704100,NA,NA,NA
292,Getgo #3642,Convenience Store,6507 University Blvd,NA,NA,NA,PA,15108,NA,NA,NA,NA,NA,NA,NA,NA,NA,NA,NA,NA,NA,NA,NA,NA,NA,NA,13.333333333333334,40.518266,-80.218658,NA,NA,data-conveniencesupermarkets.xlsx,42003451102,NA,NA,NA
293,Getgo #3691,Convenience Store,4099 Grandview Dr,NA,NA,NA,PA,15044,NA,NA,NA,NA,NA,NA,NA,NA,NA,NA,NA,NA,NA,NA,NA,NA,NA,NA,12.5,40.643031,-79.937868,NA,NA,data-conveniencesupermarkets.xlsx,42003408001,NA,NA,NA
294,Getgo Elizabeth #3005,Convenience Store,1000 Hayden Blvd,NA,NA,NA,PA,15037,NA,NA,NA,NA,NA,NA,NA,NA,NA,NA,NA,NA,NA,NA,NA,NA,NA,NA,7.142857142857143,40.264741,-79.879445,NA,NA,data-conveniencesupermarkets.xlsx,42003495000,NA,NA,NA
295,Glassmere Fuel Service #205,Convenience Store,1967 Saxonburg Blvd,NA,NA,NA,PA,15084,NA,NA,NA,NA,NA,NA,NA,NA,NA,NA,NA,NA,NA,NA,NA,NA,NA,NA,100,40.629201,-79.855635,NA,NA,data-conveniencesupermarkets.xlsx,42003407002,NA,NA,NA
296,Good News,Convenience Store,625 Stanwix St,NA,NA,NA,PA,15222,NA,NA,NA,NA,NA,NA,NA,NA,NA,NA,NA,NA,NA,NA,NA,NA,NA,NA,3.488372093023256,40.443227,-80.004835,NA,NA,data-conveniencesupermarkets.xlsx,42003020100,2,Central Business District,6
297,Greyhound Frankstown Sunoco A Plus,Convenience Store,6481 Fransktown Ave,NA,NA,NA,PA,15206,NA,NA,NA,NA,NA,NA,NA,NA,NA,NA,NA,NA,NA,NA,NA,NA,NA,NA,21.428571428571427,40.460783,-79.913953,NA,NA,data-conveniencesupermarkets.xlsx,42003120800,12,Larimer,9
298,Gulf Gas Station - Bridgeville,Convenience Store,449 Railroad St,NA,NA,NA,PA,15017,NA,NA,NA,NA,NA,NA,NA,NA,NA,NA,NA,NA,NA,NA,NA,NA,NA,NA,11.11111111111111,40.357899,-80.110312,NA,NA,data-conveniencesupermarkets.xlsx,42003457200,NA,NA,NA
299,Hampton Sunoco,Convenience Store,4785 Wm Flynn Hwy,NA,NA,NA,PA,15101,NA,NA,NA,NA,NA,NA,NA,NA,NA,NA,NA,NA,NA,NA,NA,NA,NA,NA,7.6923076923076925,40.596714,-79.948208,NA,NA,data-conveniencesupermarkets.xlsx,42003414102,NA,NA,NA
300,Hanini Market,Convenience Store,3245 Brighton Rd,NA,NA,NA,PA,15212,NA,NA,NA,NA,NA,NA,NA,NA,NA,NA,NA,NA,NA,NA,NA,NA,NA,NA,16.666666666666668,40.476384,-80.031944,NA,NA,data-conveniencesupermarkets.xlsx,42003271500,27,Marshall-Shadeland,1
301,Hanini Market,Convenience Store,549 Bessemer Av,NA,NA,NA,PA,15112,NA,NA,NA,NA,NA,NA,NA,NA,NA,NA,NA,NA,NA,NA,NA,NA,NA,NA,0,40.395204,-79.839383,NA,NA,data-conveniencesupermarkets.xlsx,42003510000,NA,NA,NA
302,Hanini Market/ Hanini Subs,Convenience Store,1105 Franklin Av,NA,NA,NA,PA,15221,NA,NA,NA,NA,NA,NA,NA,NA,NA,NA,NA,NA,NA,NA,NA,NA,NA,NA,9.090909090909092,40.439089,-79.878795,NA,NA,data-conveniencesupermarkets.xlsx,42003561000,NA,NA,NA
303,Happy Minimart,Convenience Store,1300 Brodhead Rd,NA,NA,NA,PA,15108,NA,NA,NA,NA,NA,NA,NA,NA,NA,NA,NA,NA,NA,NA,NA,NA,NA,NA,15.384615384615385,40.535015,-80.229455,NA,NA,data-conveniencesupermarkets.xlsx,42003451101,NA,NA,NA
304,Happy Minimart,Convenience Store,512 E Pikettsburgh - Mckeesport Blvd,NA,NA,NA,PA,15137,NA,NA,NA,NA,NA,NA,NA,NA,NA,NA,NA,NA,NA,NA,NA,NA,NA,NA,10.714285714285714,40.369823,-79.8292,NA,NA,data-conveniencesupermarkets.xlsx,42003504100,NA,NA,NA
305,Harvest Valley Farms,Convenience Store,6003 Cunningham Rd,NA,NA,NA,PA,15044,NA,NA,NA,NA,NA,NA,NA,NA,NA,NA,NA,NA,NA,NA,NA,NA,NA,NA,12.5,40.663894,-79.934941,NA,NA,data-conveniencesupermarkets.xlsx,42003408001,NA,NA,NA
306,Harv's Shell Station,Convenience Store,2501 Brighton Rd,NA,NA,NA,PA,15212,NA,NA,NA,NA,NA,NA,NA,NA,NA,NA,NA,NA,NA,NA,NA,NA,NA,NA,14.285714285714286,40.466959,-80.025229,NA,NA,data-conveniencesupermarkets.xlsx,42003270400,27,Marshall-Shadeland,1
307,Homewood's Quik Pick,Convenience Store,7201 Frankstown Av,NA,NA,NA,PA,15208,NA,NA,NA,NA,NA,NA,NA,NA,NA,NA,NA,NA,NA,NA,NA,NA,NA,NA,0,40.45752,-79.8961,NA,NA,data-conveniencesupermarkets.xlsx,42003130200,13,Homewood North,9
308,Honey Bear/Spee-D Mart #223,Convenience Store,2131 Ardmore Blvd,NA,NA,NA,PA,15221,NA,NA,NA,NA,NA,NA,NA,NA,NA,NA,NA,NA,NA,NA,NA,NA,NA,NA,NA,40.418907,-79.848982,NA,NA,data-conveniencesupermarkets.xlsx,42003563900,NA,NA,NA
309,In & Out Market,Convenience Store,300 Helen St,NA,NA,NA,PA,15136,NA,NA,NA,NA,NA,NA,NA,NA,NA,NA,NA,NA,NA,NA,NA,NA,NA,NA,0,40.474126,-80.057105,NA,NA,data-conveniencesupermarkets.xlsx,42003464400,NA,NA,NA
310,Indian Grocery Oakland,Convenience Store,319 Craig St,NA,NA,NA,PA,15213,NA,NA,NA,NA,NA,NA,NA,NA,NA,NA,NA,NA,NA,NA,NA,NA,NA,NA,0,40.4451,-79.948482,NA,NA,data-conveniencesupermarkets.xlsx,42003040400,4,North Oakland,8
311,J & K Plus Store #102,Convenience Store,901 Elizabeth St,NA,NA,NA,PA,15221,NA,NA,NA,NA,NA,NA,NA,NA,NA,NA,NA,NA,NA,NA,NA,NA,NA,NA,11.11111111111111,40.426262,-79.841255,NA,NA,data-conveniencesupermarkets.xlsx,42003520002,NA,NA,NA
312,J & S Food Mart,Convenience Store,625 W Grant St,NA,NA,NA,PA,15110,NA,NA,NA,NA,NA,NA,NA,NA,NA,NA,NA,NA,NA,NA,NA,NA,NA,NA,16.666666666666668,40.37177,-79.851733,NA,NA,data-conveniencesupermarkets.xlsx,42003486800,NA,NA,NA
313,J J's Deli Mart,Convenience Store,2300 Versailles Av,NA,NA,NA,PA,15132,NA,NA,NA,NA,NA,NA,NA,NA,NA,NA,NA,NA,NA,NA,NA,NA,NA,NA,16.666666666666668,40.345639,-79.849166,NA,NA,data-conveniencesupermarkets.xlsx,42003552300,NA,NA,NA
314,J&M Dariette,Convenience Store,552 3rd St,NA,NA,NA,PA,15025,NA,NA,NA,NA,NA,NA,NA,NA,NA,NA,NA,NA,NA,NA,NA,NA,NA,NA,28.571428571428573,40.292983,-79.881361,NA,NA,data-conveniencesupermarkets.xlsx,42003492800,NA,NA,NA
315,Jack's Market & Coffee Shop,Convenience Store,245 8th Av,NA,NA,NA,PA,15120,NA,NA,NA,NA,NA,NA,NA,NA,NA,NA,NA,NA,NA,NA,NA,NA,NA,NA,10.526315789473685,40.408016,-79.909637,NA,NA,data-conveniencesupermarkets.xlsx,42003483800,NA,NA,NA
316,Jade 99 Asian Supermaket,Convenience Store,2112 Penn Av,NA,NA,NA,PA,15222,NA,NA,NA,NA,NA,NA,NA,NA,NA,NA,NA,NA,NA,NA,NA,NA,NA,NA,6.349206349206349,40.451847,-79.982434,NA,NA,data-conveniencesupermarkets.xlsx,42003020300,2,Strip District,7
317,Jessie's Westside Market,Convenience Store,3038 Chartiers Av,NA,NA,NA,PA,15204,NA,NA,NA,NA,NA,NA,NA,NA,NA,NA,NA,NA,NA,NA,NA,NA,NA,NA,0,40.454017,-80.05974,NA,NA,data-conveniencesupermarkets.xlsx,42003202200,20,Sheraden,2
318,J-N-J Convenience Store,Convenience Store,646 Herron Av,NA,NA,NA,PA,15219,NA,NA,NA,NA,NA,NA,NA,NA,NA,NA,NA,NA,NA,NA,NA,NA,NA,NA,4,40.452605,-79.964261,NA,NA,data-conveniencesupermarkets.xlsx,42003050600,5,Upper Hill,6
319,Joes Butcher Shop,Convenience Store,502 Broadway Av,NA,NA,NA,PA,15140,NA,NA,NA,NA,NA,NA,NA,NA,NA,NA,NA,NA,NA,NA,NA,NA,NA,NA,0,40.401989,-79.777692,NA,NA,data-conveniencesupermarkets.xlsx,42003522000,NA,NA,NA
320,K-2 Convenience Store,Convenience Store,4900 Penn Av,NA,NA,NA,PA,15224,NA,NA,NA,NA,NA,NA,NA,NA,NA,NA,NA,NA,NA,NA,NA,NA,NA,NA,18.181818181818183,40.464939,-79.94488,NA,NA,data-conveniencesupermarkets.xlsx,42003080900,8,Bloomfield,7
321,Ken's Grocery,Convenience Store,216 Beltzhoover Ave,NA,NA,NA,PA,15210,NA,NA,NA,NA,NA,NA,NA,NA,NA,NA,NA,NA,NA,NA,NA,NA,NA,NA,NA,40.420099,-79.997633,NA,NA,data-conveniencesupermarkets.xlsx,42003562400,18,Beltzhoover,3
322,Kiev International Food,Convenience Store,4223 Murray Ave,NA,NA,NA,PA,15217,NA,NA,NA,NA,NA,NA,NA,NA,NA,NA,NA,NA,NA,NA,NA,NA,NA,NA,11.764705882352942,40.422509,-79.928598,NA,NA,data-conveniencesupermarkets.xlsx,42003151700,15,Greenfield,5
323,Kubaa Oriental Grocery,Convenience Store,613 OHighwayo St,NA,NA,NA,PA,15212,NA,NA,NA,NA,NA,NA,NA,NA,NA,NA,NA,NA,NA,NA,NA,NA,NA,NA,NA,40.453617,-79.998695,NA,NA,data-conveniencesupermarkets.xlsx,42003563200,23,East Allegheny,1
324,Kudla's Service Center,Convenience Store,2733 South Park Road,NA,NA,NA,PA,15102,NA,NA,NA,NA,NA,NA,NA,NA,NA,NA,NA,NA,NA,NA,NA,NA,NA,NA,8,40.327631,-80.031909,NA,NA,data-conveniencesupermarkets.xlsx,42003475301,NA,NA,NA
325,Kwik Fill #239 S0001,Convenience Store,152 Mcgovern Blvd,NA,NA,NA,PA,15046,NA,NA,NA,NA,NA,NA,NA,NA,NA,NA,NA,NA,NA,NA,NA,NA,NA,NA,0,40.563829,-80.227708,NA,NA,data-conveniencesupermarkets.xlsx,42003449000,NA,NA,NA
326,Kwik Fill S0171,Convenience Store,400 Allegheny River Blvd,NA,NA,NA,PA,15139,NA,NA,NA,NA,NA,NA,NA,NA,NA,NA,NA,NA,NA,NA,NA,NA,NA,NA,0,40.516465,-79.842597,NA,NA,data-conveniencesupermarkets.xlsx,42003525200,NA,NA,NA
327,L A Grocery,Convenience Store,511 Larimer Ave,NA,NA,NA,PA,15206,NA,NA,NA,NA,NA,NA,NA,NA,NA,NA,NA,NA,NA,NA,NA,NA,NA,NA,16.666666666666668,40.465579,-79.914188,NA,NA,data-conveniencesupermarkets.xlsx,42003120400,12,Larimer,9
328,L E Corner Store,Convenience Store,601 Lincoln Ave,NA,NA,NA,PA,15206,NA,NA,NA,NA,NA,NA,NA,NA,NA,NA,NA,NA,NA,NA,NA,NA,NA,NA,16.666666666666668,40.461804,-79.907894,NA,NA,data-conveniencesupermarkets.xlsx,42003120400,12,Larimer,9
329,Labad's Mediterranean Cafe & Grocery,Convenience Store,1727 Penn Av,NA,NA,NA,PA,15222,NA,NA,NA,NA,NA,NA,NA,NA,NA,NA,NA,NA,NA,NA,NA,NA,NA,NA,6.349206349206349,40.450316,-79.985441,NA,NA,data-conveniencesupermarkets.xlsx,42003020300,2,Strip District,7
330,Labriola Italian World,Convenience Store,605 Freeport Rd,NA,NA,NA,PA,15215,NA,NA,NA,NA,NA,NA,NA,NA,NA,NA,NA,NA,NA,NA,NA,NA,NA,NA,20,40.488444,-79.898703,NA,NA,data-conveniencesupermarkets.xlsx,42003423000,NA,NA,NA
331,Last Minit Mart in Blawnox,Convenience Store,164 Freeport Rd,NA,NA,NA,PA,15238,NA,NA,NA,NA,NA,NA,NA,NA,NA,NA,NA,NA,NA,NA,NA,NA,NA,NA,25,40.491362,-79.865556,NA,NA,data-conveniencesupermarkets.xlsx,42003420000,NA,NA,NA
332,Lebanon Shops Pharmacy,Convenience Store,300 Mt Lebanon Blvd,NA,NA,NA,PA,15234,NA,NA,NA,NA,NA,NA,NA,NA,NA,NA,NA,NA,NA,NA,NA,NA,NA,NA,22.22222222222222,40.368707,-80.034816,NA,NA,data-conveniencesupermarkets.xlsx,42003476100,NA,NA,NA
333,Le's Super Grocery Kart,Convenience Store,5482 Penn Ave,NA,NA,NA,PA,15206,NA,NA,NA,NA,NA,NA,NA,NA,NA,NA,NA,NA,NA,NA,NA,NA,NA,NA,16.666666666666668,40.463967,-79.932666,NA,NA,data-conveniencesupermarkets.xlsx,42003080700,8,Friendship,9
334,Liberty News,Convenience Store,602 Liberty Av,NA,NA,NA,PA,15222,NA,NA,NA,NA,NA,NA,NA,NA,NA,NA,NA,NA,NA,NA,NA,NA,NA,NA,3.488372093023256,40.441824,-80.001535,NA,NA,data-conveniencesupermarkets.xlsx,42003020100,2,Central Business District,6
335,Linea Verde - Green Market,Convenience Store,4619 Liberty Av,NA,NA,NA,PA,15224,NA,NA,NA,NA,NA,NA,NA,NA,NA,NA,NA,NA,NA,NA,NA,NA,NA,NA,13.333333333333334,40.462519,-79.950128,NA,NA,data-conveniencesupermarkets.xlsx,42003090300,9,Bloomfield,7
336,Los Campos,Convenience Store,11566 Perry Highwayghway,NA,NA,NA,PA,15090,NA,NA,NA,NA,NA,NA,NA,NA,NA,NA,NA,NA,NA,NA,NA,NA,NA,NA,13.793103448275861,40.625991,-80.054021,NA,NA,data-conveniencesupermarkets.xlsx,42003409000,NA,NA,NA
337,Lovedale Valero,Convenience Store,2002 Lincoln Blvd,NA,NA,NA,PA,15037,NA,NA,NA,NA,NA,NA,NA,NA,NA,NA,NA,NA,NA,NA,NA,NA,NA,NA,30.76923076923077,40.278924,-79.874895,NA,NA,data-conveniencesupermarkets.xlsx,42003497000,NA,NA,NA
338,Lucky Bucks,Convenience Store,125 Virginia Ave,NA,NA,NA,PA,15211,NA,NA,NA,NA,NA,NA,NA,NA,NA,NA,NA,NA,NA,NA,NA,NA,NA,NA,33.333333333333336,40.429437,-80.008009,NA,NA,data-conveniencesupermarkets.xlsx,42003191400,19,Mount Washington,2
339,Marathon Imperial Tri-State Petroleum #213,Convenience Store,150 U.S. Route 30,NA,NA,NA,PA,15071,NA,NA,NA,NA,NA,NA,NA,NA,NA,NA,NA,NA,NA,NA,NA,NA,NA,NA,NA,40.440899,-80.238239,NA,NA,data-conveniencesupermarkets.xlsx,42003453003,NA,NA,NA
340,Marathon Tri-State Petroleum #201,Convenience Store,956 Greentree Rd,NA,NA,NA,PA,15220,NA,NA,NA,NA,NA,NA,NA,NA,NA,NA,NA,NA,NA,NA,NA,NA,NA,NA,10.526315789473685,40.419694,-80.04666,NA,NA,data-conveniencesupermarkets.xlsx,42003469000,NA,NA,NA
341,Marathon Tri-State Petroleum #203,Convenience Store,2022 WasHighwayngton Pike,NA,NA,NA,PA,15106,NA,NA,NA,NA,NA,NA,NA,NA,NA,NA,NA,NA,NA,NA,NA,NA,NA,NA,7.6923076923076925,40.173242,-80.24199,NA,NA,data-conveniencesupermarkets.xlsx,42125704100,NA,NA,NA
342,Marathon Tri-State Petroleum #219,Convenience Store,3500 Forbes Ave,NA,NA,NA,PA,15213,NA,NA,NA,NA,NA,NA,NA,NA,NA,NA,NA,NA,NA,NA,NA,NA,NA,NA,0,40.439904,-79.95801,NA,NA,data-conveniencesupermarkets.xlsx,42003040500,4,Central Oakland,3
343,Marathon Tri-State Petroleum #221,Convenience Store,100 7th Av,NA,NA,NA,PA,15084,NA,NA,NA,NA,NA,NA,NA,NA,NA,NA,NA,NA,NA,NA,NA,NA,NA,NA,0,40.601875,-79.756348,NA,NA,data-conveniencesupermarkets.xlsx,42003403500,NA,NA,NA
344,Marathon Tri-State Petroleum #222,Convenience Store,2601 Freeport Rd,NA,NA,NA,PA,15238,NA,NA,NA,NA,NA,NA,NA,NA,NA,NA,NA,NA,NA,NA,NA,NA,NA,NA,11.11111111111111,40.537383,-79.839998,NA,NA,data-conveniencesupermarkets.xlsx,42003419000,NA,NA,NA
345,Marathon Tri-State Petroleum #223,Convenience Store,6680 Frankstown Av,NA,NA,NA,PA,15235,NA,NA,NA,NA,NA,NA,NA,NA,NA,NA,NA,NA,NA,NA,NA,NA,NA,NA,21.428571428571427,40.458544,-79.908615,NA,NA,data-conveniencesupermarkets.xlsx,42003120800,12,Larimer,9
346,Marathon Tri-State Petroleum #224,Convenience Store,4010 Penn Av,NA,NA,NA,PA,15224,NA,NA,NA,NA,NA,NA,NA,NA,NA,NA,NA,NA,NA,NA,NA,NA,NA,NA,13.333333333333334,40.464964,-79.95759,NA,NA,data-conveniencesupermarkets.xlsx,42003090300,9,Bloomfield,7
347,Market on Middle,Convenience Store,2130 Middle Rd,NA,NA,NA,PA,15116,NA,NA,NA,NA,NA,NA,NA,NA,NA,NA,NA,NA,NA,NA,NA,NA,NA,NA,0,40.548525,-79.934689,NA,NA,data-conveniencesupermarkets.xlsx,42003415002,NA,NA,NA
348,Marshall's Exxon,Convenience Store,1520 Spring Garden Ave,NA,NA,NA,PA,15212,NA,NA,NA,NA,NA,NA,NA,NA,NA,NA,NA,NA,NA,NA,NA,NA,NA,NA,7.6923076923076925,40.464747,-79.98595,NA,NA,data-conveniencesupermarkets.xlsx,42003241200,24,Spring Garden,1
349,Mascari's Duncan Manor Exxon / Staks,Convenience Store,1700 Ferguson Rd,NA,NA,NA,PA,15101,NA,NA,NA,NA,NA,NA,NA,NA,NA,NA,NA,NA,NA,NA,NA,NA,NA,NA,40,40.565659,-79.9987,NA,NA,data-conveniencesupermarkets.xlsx,42003413400,NA,NA,NA
350,Mash Mini Mart,Convenience Store,4341 Old Wm Penn Highway,NA,NA,NA,PA,15146,NA,NA,NA,NA,NA,NA,NA,NA,NA,NA,NA,NA,NA,NA,NA,NA,NA,NA,4.166666666666667,40.443278,-79.773673,NA,NA,data-conveniencesupermarkets.xlsx,42003521200,NA,NA,NA
351,Mauro's Exxon,Convenience Store,7409 Saltsburg Rd,NA,NA,NA,PA,15235,NA,NA,NA,NA,NA,NA,NA,NA,NA,NA,NA,NA,NA,NA,NA,NA,NA,NA,27.272727272727273,40.477696,-79.784625,NA,NA,data-conveniencesupermarkets.xlsx,42003523702,NA,NA,NA
352,McKees Rocks Sunoco A Plus,Convenience Store,351 Stanhope St,NA,NA,NA,PA,15204,NA,NA,NA,NA,NA,NA,NA,NA,NA,NA,NA,NA,NA,NA,NA,NA,NA,NA,NA,40.46336,-80.05625,NA,NA,data-conveniencesupermarkets.xlsx,42003562500,20,Esplen,2
353,Meme's Market,Convenience Store,1608 Walz St,NA,NA,NA,PA,15212,NA,NA,NA,NA,NA,NA,NA,NA,NA,NA,NA,NA,NA,NA,NA,NA,NA,NA,6.25,40.46336,-79.991069,NA,NA,data-conveniencesupermarkets.xlsx,42003262000,24,Spring Hill-City View,1
354,Mike's Spot,Convenience Store,815 Universal Rd,NA,NA,NA,PA,15235,NA,NA,NA,NA,NA,NA,NA,NA,NA,NA,NA,NA,NA,NA,NA,NA,NA,NA,18.75,40.461123,-79.811884,NA,NA,data-conveniencesupermarkets.xlsx,42003523501,NA,NA,NA
355,Mini-Mitch Quick Stop,Convenience Store,304 Ross St,NA,NA,NA,PA,15219,NA,NA,NA,NA,NA,NA,NA,NA,NA,NA,NA,NA,NA,NA,NA,NA,NA,NA,3.488372093023256,40.437105,-79.996495,NA,NA,data-conveniencesupermarkets.xlsx,42003020100,1,Central Business District,6
356,Morningside Market,Convenience Store,1748 CHighwayslett St St,NA,NA,NA,PA,15206,NA,NA,NA,NA,NA,NA,NA,NA,NA,NA,NA,NA,NA,NA,NA,NA,NA,NA,0,40.485217,-79.92578,NA,NA,data-conveniencesupermarkets.xlsx,42003101400,10,Morningside,7
357,Mr C's Convenience Store,Convenience Store,350 Center Av,NA,NA,NA,PA,15229,NA,NA,NA,NA,NA,NA,NA,NA,NA,NA,NA,NA,NA,NA,NA,NA,NA,NA,25,40.516583,-80.02187,NA,NA,data-conveniencesupermarkets.xlsx,42003430100,NA,NA,NA
358,Natoli's Market,Convenience Store,5045 Bakerstown Rd,NA,NA,NA,PA,15044,NA,NA,NA,NA,NA,NA,NA,NA,NA,NA,NA,NA,NA,NA,NA,NA,NA,NA,13.793103448275861,40.661682,-80.003907,NA,NA,data-conveniencesupermarkets.xlsx,42003409000,NA,NA,NA
359,Nelson Community Store,Convenience Store,92 Sylvania Ave,NA,NA,NA,PA,15210,NA,NA,NA,NA,NA,NA,NA,NA,NA,NA,NA,NA,NA,NA,NA,NA,NA,NA,NA,40.417031,-80.00607,NA,NA,data-conveniencesupermarkets.xlsx,42003562400,18,Beltzhoover,3
360,New Young's Oriental Grocery,Convenience Store,5813 Forward Ave,NA,NA,NA,PA,15217,NA,NA,NA,NA,NA,NA,NA,NA,NA,NA,NA,NA,NA,NA,NA,NA,NA,NA,8,40.42973,-79.922853,NA,NA,data-conveniencesupermarkets.xlsx,42003140800,14,Squirrel Hill South,5
361,Oakhill Convenient Store,Convenience Store,132 Burrows St,NA,NA,NA,PA,15213,NA,NA,NA,NA,NA,NA,NA,NA,NA,NA,NA,NA,NA,NA,NA,NA,NA,NA,0,40.439166,-79.966686,NA,NA,data-conveniencesupermarkets.xlsx,42003040200,4,West Oakland,6
362,OM Enterprise,Convenience Store,601 Mcneilly Rd,NA,NA,NA,PA,15226,NA,NA,NA,NA,NA,NA,NA,NA,NA,NA,NA,NA,NA,NA,NA,NA,NA,NA,16.666666666666668,40.383053,-80.020965,NA,NA,data-conveniencesupermarkets.xlsx,42003473300,NA,NA,NA
363,On the Go Market,Convenience Store,2873 W Liberty Av,NA,NA,NA,PA,15216,NA,NA,NA,NA,NA,NA,NA,NA,NA,NA,NA,NA,NA,NA,NA,NA,NA,NA,0,40.395561,-80.033092,NA,NA,data-conveniencesupermarkets.xlsx,42003472300,NA,NA,NA
364,One Stop,Convenience Store,3601 Blvd Of The Allies,NA,NA,NA,PA,15213,NA,NA,NA,NA,NA,NA,NA,NA,NA,NA,NA,NA,NA,NA,NA,NA,NA,NA,0,40.434751,-79.954267,NA,NA,data-conveniencesupermarkets.xlsx,42003040600,4,Central Oakland,3
365,Optima #1386,Convenience Store,107 Walmart Dr,NA,NA,NA,PA,15137,NA,NA,NA,NA,NA,NA,NA,NA,NA,NA,NA,NA,NA,NA,NA,NA,NA,NA,10.714285714285714,40.387172,-79.82252,NA,NA,data-conveniencesupermarkets.xlsx,42003504100,NA,NA,NA
366,P & W Mini Mart,Convenience Store,410 Scenery Dr,NA,NA,NA,PA,15037,NA,NA,NA,NA,NA,NA,NA,NA,NA,NA,NA,NA,NA,NA,NA,NA,NA,NA,0,40.277157,-79.837797,NA,NA,data-conveniencesupermarkets.xlsx,42003496101,NA,NA,NA
367,Parkway Service B P,Convenience Store,910 Saw Mill Run Blvd,NA,NA,NA,PA,15220,NA,NA,NA,NA,NA,NA,NA,NA,NA,NA,NA,NA,NA,NA,NA,NA,NA,NA,0,40.426572,-80.022275,NA,NA,data-conveniencesupermarkets.xlsx,42003191100,20,Duquesne Heights,2
368,ParMar Store #56,Convenience Store,8197 Mcknight Rd,NA,NA,NA,PA,15237,NA,NA,NA,NA,NA,NA,NA,NA,NA,NA,NA,NA,NA,NA,NA,NA,NA,NA,16.666666666666668,40.557547,-80.023367,NA,NA,data-conveniencesupermarkets.xlsx,42003413300,NA,NA,NA
369,Penn Hills Sunoco,Convenience Store,3899 Old William Penn Highway,NA,NA,NA,PA,15235,NA,NA,NA,NA,NA,NA,NA,NA,NA,NA,NA,NA,NA,NA,NA,NA,NA,NA,14.285714285714286,40.444181,-79.81354,NA,NA,data-conveniencesupermarkets.xlsx,42003523600,NA,NA,NA
370,Penn Sunoco,Convenience Store,4068 Penn Ave,NA,NA,NA,PA,15224,NA,NA,NA,NA,NA,NA,NA,NA,NA,NA,NA,NA,NA,NA,NA,NA,NA,NA,13.333333333333334,40.465415,-79.955315,NA,NA,data-conveniencesupermarkets.xlsx,42003090300,9,Bloomfield,7
371,People's Grocery,Convenience Store,5136 Penn Ave,NA,NA,NA,PA,15224,NA,NA,NA,NA,NA,NA,NA,NA,NA,NA,NA,NA,NA,NA,NA,NA,NA,NA,18.181818181818183,40.464646,-79.941379,NA,NA,data-conveniencesupermarkets.xlsx,42003080900,8,Bloomfield,7
372,Perriello Produce,Convenience Store,208 7th Av,NA,NA,NA,PA,15084,NA,NA,NA,NA,NA,NA,NA,NA,NA,NA,NA,NA,NA,NA,NA,NA,NA,NA,0,40.600196,-79.761249,NA,NA,data-conveniencesupermarkets.xlsx,42003403500,NA,NA,NA
373,Pirollo's Delicatessen,Convenience Store,307 Hulton Rd,NA,NA,NA,PA,15147,NA,NA,NA,NA,NA,NA,NA,NA,NA,NA,NA,NA,NA,NA,NA,NA,NA,NA,12.5,40.489741,-79.819455,NA,NA,data-conveniencesupermarkets.xlsx,42003523701,NA,NA,NA
374,Pitcairn Sunoco,Convenience Store,479 Broadway Blvd,NA,NA,NA,PA,15140,NA,NA,NA,NA,NA,NA,NA,NA,NA,NA,NA,NA,NA,NA,NA,NA,NA,NA,2.9411764705882355,40.401542,-79.778113,NA,NA,data-conveniencesupermarkets.xlsx,42003521302,NA,NA,NA
375,Plum Convenience,Convenience Store,7615 Saltsburg Rd,NA,NA,NA,PA,15239,NA,NA,NA,NA,NA,NA,NA,NA,NA,NA,NA,NA,NA,NA,NA,NA,NA,NA,0,40.476307,-79.778563,NA,NA,data-conveniencesupermarkets.xlsx,42003526202,NA,NA,NA
376,Plum Sunoco,Convenience Store,255 Unity Center Rd,NA,NA,NA,PA,15239,NA,NA,NA,NA,NA,NA,NA,NA,NA,NA,NA,NA,NA,NA,NA,NA,NA,NA,33.333333333333336,40.489993,-79.780528,NA,NA,data-conveniencesupermarkets.xlsx,42003526201,NA,NA,NA
377,PNC C Store,Convenience Store,620 Liberty Av,NA,NA,NA,PA,15222,NA,NA,NA,NA,NA,NA,NA,NA,NA,NA,NA,NA,NA,NA,NA,NA,NA,NA,3.488372093023256,40.441767,-80.000839,NA,NA,data-conveniencesupermarkets.xlsx,42003020100,2,Central Business District,6
378,PNK Store,Convenience Store,490 North Av,NA,NA,NA,PA,15212,NA,NA,NA,NA,NA,NA,NA,NA,NA,NA,NA,NA,NA,NA,NA,NA,NA,NA,10,40.456629,-80.002082,NA,NA,data-conveniencesupermarkets.xlsx,42003220600,22,Central Northside,1
379,Podmilsak's Market,Convenience Store,200 Herron Av,NA,NA,NA,PA,15024,NA,NA,NA,NA,NA,NA,NA,NA,NA,NA,NA,NA,NA,NA,NA,NA,NA,NA,11.11111111111111,40.542758,-79.814823,NA,NA,data-conveniencesupermarkets.xlsx,42003419000,NA,NA,NA
380,Popeye's Mini Mart,Convenience Store,1510 Saxonburg Blvd,NA,NA,NA,PA,15084,NA,NA,NA,NA,NA,NA,NA,NA,NA,NA,NA,NA,NA,NA,NA,NA,NA,NA,33.333333333333336,40.653924,-79.839314,NA,NA,data-conveniencesupermarkets.xlsx,42003407001,NA,NA,NA
381,Presto Qwik Stop,Convenience Store,5237 Thoms Run Rd,NA,NA,NA,PA,15142,NA,NA,NA,NA,NA,NA,NA,NA,NA,NA,NA,NA,NA,NA,NA,NA,NA,NA,10.714285714285714,40.373335,-80.119033,NA,NA,data-conveniencesupermarkets.xlsx,42003458000,NA,NA,NA
382,Prestogeorge Fine Foods,Convenience Store,1719 Penn Av,NA,NA,NA,PA,15222,NA,NA,NA,NA,NA,NA,NA,NA,NA,NA,NA,NA,NA,NA,NA,NA,NA,NA,6.349206349206349,40.450211,-79.98572,NA,NA,data-conveniencesupermarkets.xlsx,42003020300,2,Strip District,7
383,Produce Plus Market & Deli,Convenience Store,471 Lincoln Ave,NA,NA,NA,PA,15202,NA,NA,NA,NA,NA,NA,NA,NA,NA,NA,NA,NA,NA,NA,NA,NA,NA,NA,7.142857142857143,40.494989,-80.054846,NA,NA,data-conveniencesupermarkets.xlsx,42003431500,NA,NA,NA
384,Quick Stop,Convenience Store,3349 Liberty Ave,NA,NA,NA,PA,15201,NA,NA,NA,NA,NA,NA,NA,NA,NA,NA,NA,NA,NA,NA,NA,NA,NA,NA,10.526315789473685,40.461868,-79.966514,NA,NA,data-conveniencesupermarkets.xlsx,42003060300,6,Lower Lawrenceville,7
385,Quick Stop Sunoco,Convenience Store,1640 Saw Mill Run Blvd,NA,NA,NA,PA,15210,NA,NA,NA,NA,NA,NA,NA,NA,NA,NA,NA,NA,NA,NA,NA,NA,NA,NA,0,40.396477,-79.998692,NA,NA,data-conveniencesupermarkets.xlsx,42003320600,32,Brookline,4
386,Quik Serv,Convenience Store,400 Union Ave,NA,NA,NA,PA,15202,NA,NA,NA,NA,NA,NA,NA,NA,NA,NA,NA,NA,NA,NA,NA,NA,NA,NA,10,40.50403,-80.061799,NA,NA,data-conveniencesupermarkets.xlsx,42003432300,NA,NA,NA
387,R & M Variety Store,Convenience Store,1739 Pennsylvania Ave,NA,NA,NA,PA,15122,NA,NA,NA,NA,NA,NA,NA,NA,NA,NA,NA,NA,NA,NA,NA,NA,NA,NA,13.333333333333334,40.361839,-79.861016,NA,NA,data-conveniencesupermarkets.xlsx,42003488400,NA,NA,NA
388,Red Paprika Foods,Convenience Store,1900 Grandview Av,NA,NA,NA,PA,15132,NA,NA,NA,NA,NA,NA,NA,NA,NA,NA,NA,NA,NA,NA,NA,NA,NA,NA,16.666666666666668,40.339959,-79.837052,NA,NA,data-conveniencesupermarkets.xlsx,42003552000,NA,NA,NA
389,Reyes Tienda Mexicana,Convenience Store,413 Semple St,NA,NA,NA,PA,15213,NA,NA,NA,NA,NA,NA,NA,NA,NA,NA,NA,NA,NA,NA,NA,NA,NA,NA,0,40.43699,-79.954397,NA,NA,data-conveniencesupermarkets.xlsx,42003040600,4,Central Oakland,3
390,Rite Aid Pharmacies #10910,Convenience Store,4927 Homeville Rd,NA,NA,NA,PA,15122,NA,NA,NA,NA,NA,NA,NA,NA,NA,NA,NA,NA,NA,NA,NA,NA,NA,NA,25,40.38208,-79.876636,NA,NA,data-conveniencesupermarkets.xlsx,42003488300,NA,NA,NA
391,Rocks Express,Convenience Store,700 Frederick St,NA,NA,NA,PA,15136,NA,NA,NA,NA,NA,NA,NA,NA,NA,NA,NA,NA,NA,NA,NA,NA,NA,NA,0,40.471394,-80.064844,NA,NA,data-conveniencesupermarkets.xlsx,42003464400,NA,NA,NA
392,Rockwell Market/Rockwell Hall @ Duquesne Univ.,Convenience Store,600 Forbes Av,NA,NA,NA,PA,15282,NA,NA,NA,NA,NA,NA,NA,NA,NA,NA,NA,NA,NA,NA,NA,NA,NA,NA,7.792207792207792,40.436981,-79.990244,NA,NA,data-conveniencesupermarkets.xlsx,42003010300,1,Bluff,6
393,Rossi's Market,Convenience Store,64 Forest Grove Rd,NA,NA,NA,PA,15108,NA,NA,NA,NA,NA,NA,NA,NA,NA,NA,NA,NA,NA,NA,NA,NA,NA,NA,20,40.481197,-80.130734,NA,NA,data-conveniencesupermarkets.xlsx,42003459102,NA,NA,NA
394,Ruthfred Market,Convenience Store,3400 Suite 4 South Park Rd,NA,NA,NA,PA,15102,NA,NA,NA,NA,NA,NA,NA,NA,NA,NA,NA,NA,NA,NA,NA,NA,NA,NA,10,40.321783,-80.057607,NA,NA,data-conveniencesupermarkets.xlsx,42003475200,NA,NA,NA
395,S & S Express Food Mart,Convenience Store,922 Main St,NA,NA,NA,PA,15215,NA,NA,NA,NA,NA,NA,NA,NA,NA,NA,NA,NA,NA,NA,NA,NA,NA,NA,0,40.494685,-79.932775,NA,NA,data-conveniencesupermarkets.xlsx,42003424000,NA,NA,NA
396,Salem's Market,Convenience Store,2923 Penn Av,NA,NA,NA,PA,15201,NA,NA,NA,NA,NA,NA,NA,NA,NA,NA,NA,NA,NA,NA,NA,NA,NA,NA,6.349206349206349,40.458405,-79.973699,NA,NA,data-conveniencesupermarkets.xlsx,42003020300,6,Strip District,7
397,Samba Mini Mart,Convenience Store,2520 Bedford Av,NA,NA,NA,PA,15219,NA,NA,NA,NA,NA,NA,NA,NA,NA,NA,NA,NA,NA,NA,NA,NA,NA,NA,7.407407407407407,40.450651,-79.972121,NA,NA,data-conveniencesupermarkets.xlsx,42003050900,5,Bedford Dwellings,6
398,Sam's Market,Convenience Store,1712 5th Ave,NA,NA,NA,PA,15219,NA,NA,NA,NA,NA,NA,NA,NA,NA,NA,NA,NA,NA,NA,NA,NA,NA,NA,7.792207792207792,40.438268,-79.982097,NA,NA,data-conveniencesupermarkets.xlsx,42003010300,1,Bluff,6
399,Seoul Mart,Convenience Store,4701 5th Ave,NA,NA,NA,PA,15213,NA,NA,NA,NA,NA,NA,NA,NA,NA,NA,NA,NA,NA,NA,NA,NA,NA,NA,0,40.447245,-79.947201,NA,NA,data-conveniencesupermarkets.xlsx,42003040400,7,Shadyside,8
400,SG Management Services,Convenience Store,9411 University Blvd,NA,NA,NA,PA,15108,NA,NA,NA,NA,NA,NA,NA,NA,NA,NA,NA,NA,NA,NA,NA,NA,NA,NA,NA,40.501966,-80.221436,NA,NA,data-conveniencesupermarkets.xlsx,42003451105,NA,NA,NA
401,Shadyside Market,Convenience Store,5414 Walnut St,NA,NA,NA,PA,15232,NA,NA,NA,NA,NA,NA,NA,NA,NA,NA,NA,NA,NA,NA,NA,NA,NA,NA,15.789473684210526,40.450679,-79.934926,NA,NA,data-conveniencesupermarkets.xlsx,42003070300,7,Shadyside,8
402,Sheetz #115,Convenience Store,8607 Perry Hwy,NA,NA,NA,PA,15237,NA,NA,NA,NA,NA,NA,NA,NA,NA,NA,NA,NA,NA,NA,NA,NA,NA,NA,10,40.561828,-80.039532,NA,NA,data-conveniencesupermarkets.xlsx,42003413201,NA,NA,NA
403,Sheetz #130,Convenience Store,899 Freeport Rd,NA,NA,NA,PA,15030,NA,NA,NA,NA,NA,NA,NA,NA,NA,NA,NA,NA,NA,NA,NA,NA,NA,NA,0,40.582036,-79.778802,NA,NA,data-conveniencesupermarkets.xlsx,42003404000,NA,NA,NA
404,Sheetz #189,Convenience Store,1505 Pikettsburgh St,NA,NA,NA,PA,15024,NA,NA,NA,NA,NA,NA,NA,NA,NA,NA,NA,NA,NA,NA,NA,NA,NA,NA,0,40.541803,-79.798793,NA,NA,data-conveniencesupermarkets.xlsx,42003418000,NA,NA,NA
405,Sheetz #190,Convenience Store,2003 Golden Mile Hwy,NA,NA,NA,PA,15239,NA,NA,NA,NA,NA,NA,NA,NA,NA,NA,NA,NA,NA,NA,NA,NA,NA,NA,7.142857142857143,40.454908,-79.711646,NA,NA,data-conveniencesupermarkets.xlsx,42003526302,NA,NA,NA
406,Sheetz #253,Convenience Store,251 Curry Hollow Rd,NA,NA,NA,PA,15236,NA,NA,NA,NA,NA,NA,NA,NA,NA,NA,NA,NA,NA,NA,NA,NA,NA,NA,10.526315789473685,40.336173,-79.970867,NA,NA,data-conveniencesupermarkets.xlsx,42003489002,NA,NA,NA
407,Sheetz #277,Convenience Store,12000 Perry Hwy,NA,NA,NA,PA,15090,NA,NA,NA,NA,NA,NA,NA,NA,NA,NA,NA,NA,NA,NA,NA,NA,NA,NA,13.793103448275861,40.634005,-80.059307,NA,NA,data-conveniencesupermarkets.xlsx,42003409000,NA,NA,NA
408,Sheetz #327,Convenience Store,2100 Mosside Blvd,NA,NA,NA,PA,15146,NA,NA,NA,NA,NA,NA,NA,NA,NA,NA,NA,NA,NA,NA,NA,NA,NA,NA,10.526315789473685,40.39754,-79.768583,NA,NA,data-conveniencesupermarkets.xlsx,42003521301,NA,NA,NA
409,Sheetz #353,Convenience Store,5410 Campbells Run Rd,NA,NA,NA,PA,15205,NA,NA,NA,NA,NA,NA,NA,NA,NA,NA,NA,NA,NA,NA,NA,NA,NA,NA,13.636363636363637,40.448,-80.157482,NA,NA,data-conveniencesupermarkets.xlsx,42003459201,NA,NA,NA
410,Sheetz #360,Convenience Store,3954 Wm Penn Hwy,NA,NA,NA,PA,15146,NA,NA,NA,NA,NA,NA,NA,NA,NA,NA,NA,NA,NA,NA,NA,NA,NA,NA,4.166666666666667,40.437687,-79.774258,NA,NA,data-conveniencesupermarkets.xlsx,42003521200,NA,NA,NA
411,Sheetz #376,Convenience Store,1000 Clairton Blvd,NA,NA,NA,PA,15236,NA,NA,NA,NA,NA,NA,NA,NA,NA,NA,NA,NA,NA,NA,NA,NA,NA,NA,6.896551724137931,40.320335,-79.942773,NA,NA,data-conveniencesupermarkets.xlsx,42003489001,NA,NA,NA
412,Sheetz #379,Convenience Store,9002 University Blvd,NA,NA,NA,PA,15108,NA,NA,NA,NA,NA,NA,NA,NA,NA,NA,NA,NA,NA,NA,NA,NA,NA,NA,NA,40.503227,-80.222988,NA,NA,data-conveniencesupermarkets.xlsx,42003451105,NA,NA,NA
413,Sheetz #459,Convenience Store,2175 Hulton Rd,NA,NA,NA,PA,15147,NA,NA,NA,NA,NA,NA,NA,NA,NA,NA,NA,NA,NA,NA,NA,NA,NA,NA,12,40.526468,-79.817038,NA,NA,data-conveniencesupermarkets.xlsx,42003526101,NA,NA,NA
414,Sheetz #468,Convenience Store,3457 Wm Penn Highway,NA,NA,NA,PA,15235,NA,NA,NA,NA,NA,NA,NA,NA,NA,NA,NA,NA,NA,NA,NA,NA,NA,NA,11.11111111111111,40.43046,-79.811288,NA,NA,data-conveniencesupermarkets.xlsx,42003520001,NA,NA,NA
415,Sheetz #476,Convenience Store,3025 Babcock Blvd,NA,NA,NA,PA,15237,NA,NA,NA,NA,NA,NA,NA,NA,NA,NA,NA,NA,NA,NA,NA,NA,NA,NA,20,40.514787,-80.009388,NA,NA,data-conveniencesupermarkets.xlsx,42003429100,NA,NA,NA
416,Sheetz #515,Convenience Store,4599 Library Rd,NA,NA,NA,PA,15102,NA,NA,NA,NA,NA,NA,NA,NA,NA,NA,NA,NA,NA,NA,NA,NA,NA,NA,8.333333333333334,40.350845,-80.022411,NA,NA,data-conveniencesupermarkets.xlsx,42003475401,NA,NA,NA
417,Shenderovich In & Out Market,Convenience Store,1101 Powers Run Rd,NA,NA,NA,PA,15238,NA,NA,NA,NA,NA,NA,NA,NA,NA,NA,NA,NA,NA,NA,NA,NA,NA,NA,19.047619047619047,40.510035,-79.855995,NA,NA,data-conveniencesupermarkets.xlsx,42003421100,NA,NA,NA
418,Shenot's Farm Market,Convenience Store,3754 Wexford Run Rd,NA,NA,NA,PA,15090,NA,NA,NA,NA,NA,NA,NA,NA,NA,NA,NA,NA,NA,NA,NA,NA,NA,NA,16.666666666666668,40.625993,-80.079141,NA,NA,data-conveniencesupermarkets.xlsx,42003411000,NA,NA,NA
419,Shop N Go One,Convenience Store,6001 Buttermilk Hollow Rd,NA,NA,NA,PA,15207,NA,NA,NA,NA,NA,NA,NA,NA,NA,NA,NA,NA,NA,NA,NA,NA,NA,NA,12.5,40.362516,-79.907245,NA,NA,data-conveniencesupermarkets.xlsx,42003310200,31,Lincoln Place,5
420,Shuman's Market,Convenience Store,7210 Frankstown Av,NA,NA,NA,PA,15236,NA,NA,NA,NA,NA,NA,NA,NA,NA,NA,NA,NA,NA,NA,NA,NA,NA,NA,4.3478260869565215,40.457053,-79.89605,NA,NA,data-conveniencesupermarkets.xlsx,42003130300,13,Homewood South,9
421,Sil's,Convenience Store,6000 Noblestown Rd,NA,NA,NA,PA,15071,NA,NA,NA,NA,NA,NA,NA,NA,NA,NA,NA,NA,NA,NA,NA,NA,NA,NA,50,40.398362,-80.187505,NA,NA,data-conveniencesupermarkets.xlsx,42003455000,NA,NA,NA
422,Smithfield News,Convenience Store,115 Smithfield St,NA,NA,NA,PA,15222,NA,NA,NA,NA,NA,NA,NA,NA,NA,NA,NA,NA,NA,NA,NA,NA,NA,NA,3.488372093023256,40.43772,-80.000475,NA,NA,data-conveniencesupermarkets.xlsx,42003020100,1,Central Business District,6
423,Soergel's Orchards,Convenience Store,2573 Brandt School Rd,NA,NA,NA,PA,15090,NA,NA,NA,NA,NA,NA,NA,NA,NA,NA,NA,NA,NA,NA,NA,NA,NA,NA,33.333333333333336,40.61395,-80.092426,NA,NA,data-conveniencesupermarkets.xlsx,42003412001,NA,NA,NA
424,Sophia's,Convenience Store,2918 Walnut St,NA,NA,NA,PA,15132,NA,NA,NA,NA,NA,NA,NA,NA,NA,NA,NA,NA,NA,NA,NA,NA,NA,NA,16.666666666666668,40.331257,-79.845268,NA,NA,data-conveniencesupermarkets.xlsx,42003552400,NA,NA,NA
425,Soup Du Jour,Convenience Store,2228 W Hardies Rd,NA,NA,NA,PA,15044,NA,NA,NA,NA,NA,NA,NA,NA,NA,NA,NA,NA,NA,NA,NA,NA,NA,NA,7.6923076923076925,40.594321,-79.969859,NA,NA,data-conveniencesupermarkets.xlsx,42003414102,NA,NA,NA
426,South Fayette Sunoco,Convenience Store,140 Millers Run Rd,NA,NA,NA,PA,15017,NA,NA,NA,NA,NA,NA,NA,NA,NA,NA,NA,NA,NA,NA,NA,NA,NA,NA,18.181818181818183,40.357055,-80.119649,NA,NA,data-conveniencesupermarkets.xlsx,42003456001,NA,NA,NA
427,South Park Convenience Store,Convenience Store,5660 Brownsville Rd,NA,NA,NA,PA,15236,NA,NA,NA,NA,NA,NA,NA,NA,NA,NA,NA,NA,NA,NA,NA,NA,NA,NA,0,40.330738,-79.987682,NA,NA,data-conveniencesupermarkets.xlsx,42003490003,NA,NA,NA
428,Speedway #2900,Convenience Store,4830 Wm Penn Highway,NA,NA,NA,PA,15146,NA,NA,NA,NA,NA,NA,NA,NA,NA,NA,NA,NA,NA,NA,NA,NA,NA,NA,13.333333333333334,40.427386,-79.718529,NA,NA,data-conveniencesupermarkets.xlsx,42003521401,NA,NA,NA
429,Speedway #2901,Convenience Store,4380 Old Wm Penn Highway,NA,NA,NA,PA,15146,NA,NA,NA,NA,NA,NA,NA,NA,NA,NA,NA,NA,NA,NA,NA,NA,NA,NA,4.166666666666667,40.443721,-79.767945,NA,NA,data-conveniencesupermarkets.xlsx,42003521200,NA,NA,NA
430,Speedway #2902,Convenience Store,4420 Browns Highwayll Rd,NA,NA,NA,PA,15217,NA,NA,NA,NA,NA,NA,NA,NA,NA,NA,NA,NA,NA,NA,NA,NA,NA,NA,11.764705882352942,40.419217,-79.92745,NA,NA,data-conveniencesupermarkets.xlsx,42003151700,15,Greenfield,5
431,Speedway #2905,Convenience Store,303 Hulton Rd,NA,NA,NA,PA,15139,NA,NA,NA,NA,NA,NA,NA,NA,NA,NA,NA,NA,NA,NA,NA,NA,NA,NA,11.11111111111111,40.526263,-79.842197,NA,NA,data-conveniencesupermarkets.xlsx,42003525300,NA,NA,NA
432,Speedway #2906,Convenience Store,1700 Lincoln Highway,NA,NA,NA,PA,15137,NA,NA,NA,NA,NA,NA,NA,NA,NA,NA,NA,NA,NA,NA,NA,NA,NA,NA,NA,40.369983,-79.786291,NA,NA,data-conveniencesupermarkets.xlsx,42003564400,NA,NA,NA
433,Speedway #2910,Convenience Store,5701 Grand Av,NA,NA,NA,PA,15225,NA,NA,NA,NA,NA,NA,NA,NA,NA,NA,NA,NA,NA,NA,NA,NA,NA,NA,9.090909090909092,40.511928,-80.131934,NA,NA,data-conveniencesupermarkets.xlsx,42003461000,NA,NA,NA
434,Speedway #2911,Convenience Store,1200 Long Run Rd,NA,NA,NA,PA,15131,NA,NA,NA,NA,NA,NA,NA,NA,NA,NA,NA,NA,NA,NA,NA,NA,NA,NA,NA,40.333078,-79.812564,NA,NA,data-conveniencesupermarkets.xlsx,42003564200,NA,NA,NA
435,Speedway #6503,Convenience Store,2325 5th Ave,NA,NA,NA,PA,15132,NA,NA,NA,NA,NA,NA,NA,NA,NA,NA,NA,NA,NA,NA,NA,NA,NA,NA,5.882352941176471,40.353945,-79.837531,NA,NA,data-conveniencesupermarkets.xlsx,42003551900,NA,NA,NA
436,Speedy Food Mart,Convenience Store,1602 5th Av,NA,NA,NA,PA,15108,NA,NA,NA,NA,NA,NA,NA,NA,NA,NA,NA,NA,NA,NA,NA,NA,NA,NA,20,40.513292,-80.153687,NA,NA,data-conveniencesupermarkets.xlsx,42003450700,NA,NA,NA
437,St Clair Mini Mart,Convenience Store,2520 WasHighwayngton Rd,NA,NA,NA,PA,15241,NA,NA,NA,NA,NA,NA,NA,NA,NA,NA,NA,NA,NA,NA,NA,NA,NA,NA,0,40.318801,-80.088453,NA,NA,data-conveniencesupermarkets.xlsx,42003474202,NA,NA,NA
438,Stetor's Red Hot Dollar,Convenience Store,706 Monongahela Ave,NA,NA,NA,PA,15045,NA,NA,NA,NA,NA,NA,NA,NA,NA,NA,NA,NA,NA,NA,NA,NA,NA,NA,20,40.324036,-79.892756,NA,NA,data-conveniencesupermarkets.xlsx,42003499400,NA,NA,NA
439,Stop - N - Go,Convenience Store,21 Yost Blvd,NA,NA,NA,PA,15221,NA,NA,NA,NA,NA,NA,NA,NA,NA,NA,NA,NA,NA,NA,NA,NA,NA,NA,NA,40.414006,-79.847312,NA,NA,data-conveniencesupermarkets.xlsx,42003563900,NA,NA,NA
440,Stop N Shop,Convenience Store,2110 Ardmore Blvd,NA,NA,NA,PA,15221,NA,NA,NA,NA,NA,NA,NA,NA,NA,NA,NA,NA,NA,NA,NA,NA,NA,NA,NA,40.419144,-79.849932,NA,NA,data-conveniencesupermarkets.xlsx,42003563900,NA,NA,NA
