id,source_org,source_file,original_id,type,name,address,city,state,zip_code,county,location_description,phone,url,latitude,longitude,latlng_source,date_from,date_to,SNAP,WIC,FMNP,fresh_produce,food_bucks,free_distribution,open_to_spec_group,data_issues,data_isses
1,PFPC,2019_farmers-markets.csv,NA,farmer's market,Ambridge Farmer's Market,624 Park Road,Ambridge,PA,15003,Allegheny,"St. Mary's Church parking lot, near Do It Best",NA,NA,40.586729,-80.229576,agency,June,November,1,0,0,1,0,0,0,timestamps in season column;no phone; no url; county assumed; source assumed,NA
2,PFPC,2019_farmers-markets.csv,NA,farmer's market,Aspinwall Flea Market,217 Commerical Avenue,Aspinwall,PA,15215,Allegheny,Municipal parking lot,NA,NA,40.490575,-79.904305,agency,June,November,1,0,0,1,0,0,0,timestamps in season column;no phone; no url; county assumed; source assumed,NA
3,PFPC,2019_farmers-markets.csv,NA,farmer's market,Bachman's Greenhouse and Nursery,2905 Freeport Road,Natrona Heights,PA,15065,Allegheny,NA,NA,NA,40.640015,-79.711384,agency,June,October,1,0,0,1,0,0,0,timestamps in season column;no phone; no url; county assumed; source assumed,NA
4,PFPC,2019_farmers-markets.csv,NA,farmer's market,Bachman's Greenhouse and Nursery,Route 908 & Ekastown Road,Natrona Heights,PA,15065,Allegheny,NA,NA,NA,40.667206,-79.730284,agency,July,October,1,0,0,1,0,0,0,timestamps in season column;no phone; no url; county assumed; source assumed,NA
5,PFPC,2019_farmers-markets.csv,NA,farmer's market,Beccari's Farm Market,5095 Thoms Run Road,Oakdale,PA,15071,Allegheny,NA,NA,NA,40.373965,-80.133129,agency,June,October,1,0,0,1,0,0,0,timestamps in season column;no phone; no url; county assumed; source assumed,NA
6,PFPC,2019_farmers-markets.csv,NA,farmer's market,Bedner's Farm,1520 Bower Hill Road,Pittsburgh,PA,15220,Allegheny,NA,NA,NA,40.361146,-80.089128,agency,June,October,1,0,0,1,0,0,0,timestamps in season column;no phone; no url; county assumed; source assumed,NA
7,PFPC,2019_farmers-markets.csv,NA,farmer's market,Beechview Fresh Access,Broadway Avenue & Hampshire Avenue,Pittsburgh,PA,15216,Allegheny,NA,NA,NA,40.410567,-80.024673,agency,June 20,September 12,1,0,0,1,0,0,0,timestamps in season column;no phone; no url; county assumed; source assumed,NA
8,PFPC,2019_farmers-markets.csv,NA,farmer's market,Bellevue Farmer's Market,34 N. Balph Avenue,Pittsburgh,PA,15202,Allegheny,Bayne Park,NA,NA,40.496526,-80.054299,agency,June,October,1,0,0,1,0,0,0,timestamps in season column;no phone; no url; county assumed; source assumed,NA
9,PFPC,2019_farmers-markets.csv,NA,farmer's market,Bethel Park Farmer's Market,Corrigan Drive,Bethel Park,PA,15102,Allegheny,South Park VIP parking lot,NA,NA,40.319687,-80.008541,agency,June,September,1,0,0,1,0,0,0,timestamps in season column;no phone; no url; county assumed; source assumed,NA
10,PFPC,2019_farmers-markets.csv,NA,farmer's market,Blackberry Meadows Farm,7115 Ridge Road,Natrona Heights,PA,15065,Allegheny,NA,NA,NA,40.657587,-79.747334,agency,June,October,1,0,0,1,0,0,0,timestamps in season column;no phone; no url; county assumed; source assumed,NA
11,PFPC,2019_farmers-markets.csv,NA,farmer's market,Bloomfield Farmer's Market,5050 Liberty Avenue,Pittsburgh,PA,15224,Allegheny,NA,NA,NA,40.459003,-79.944493,agency,June,November,1,0,0,1,0,0,0,timestamps in season column;no phone; no url; county assumed; source assumed,NA
12,PFPC,2019_farmers-markets.csv,NA,farmer's market,Braddock Farm Stand,6th Street & Braddock Avenue,Braddock,PA,15104,Allegheny,NA,NA,NA,40.403283,-79.868588,agency,June,October,1,0,0,1,0,0,0,timestamps in season column;no phone; no url; county assumed; source assumed,NA
13,PFPC,2019_farmers-markets.csv,NA,farmer's market,Bridge's Farm,7108 Leechburg Road,New Kenington,PA,15068,Allegheny,NA,NA,NA,40.517658,-79.764416,agency,June,November,1,0,0,1,0,0,0,timestamps in season column;no phone; no url; county assumed; source assumed,NA
14,PFPC,2019_farmers-markets.csv,NA,farmer's market,Carrick Farmer's Market,1529 Brownsville Road,Pittsburgh,PA,15210,Allegheny,NA,NA,NA,40.400141,-79.988968,agency,June,November,1,0,0,1,0,0,0,timestamps in season column;no phone; no url; county assumed; source assumed,NA
15,PFPC,2019_farmers-markets.csv,NA,farmer's market,Green Grocer at Clairton Green Grocer,533 Miller Avenue,Clairton,PA,15025,Allegheny,Family Dollar parking lot,NA,NA,40.294044,-79.883259,agency,January,December,1,0,0,1,0,0,0,timestamps in season column;no phone; no url; county assumed; source assumed,NA
16,PFPC,2019_farmers-markets.csv,NA,farmer's market,Coraopolis Farmer's Market,1211 5th Avenue,Coraopolis,PA,15108,Allegheny,Presbyterian Church,NA,NA,40.516388,-80.161044,agency,July,September,1,0,0,1,0,0,0,timestamps in season column;no phone; no url; county assumed; source assumed,NA
17,PFPC,2019_farmers-markets.csv,NA,farmer's market,DeCarlo's Market,560 McKeesport Road,Elizabeth,PA,15037,Allegheny,NA,NA,NA,40.278533,-79.875457,agency,June,November,1,0,0,1,0,0,0,timestamps in season column;no phone; no url; county assumed; source assumed,NA
18,PFPC,2019_farmers-markets.csv,NA,farmer's market,Dillner Family Farm,4140 Sandy Hill Road,Gibsonia,PA,15044,Allegheny,NA,NA,NA,40.669553,-79.921152,agency,June,November,1,0,0,1,0,0,0,timestamps in season column;no phone; no url; county assumed; source assumed,NA
19,PFPC,2019_farmers-markets.csv,NA,farmer's market,Douds Floyd Farm,405 Pleasant Drive,Aliquippa,PA,15001,Allegheny,NA,NA,NA,40.653395,-80.33369,agency,August,September,1,0,0,1,0,0,0,timestamps in season column;no phone; no url; county assumed; source assumed,NA
20,PFPC,2019_farmers-markets.csv,NA,farmer's market,Duda's Farm Stand,1029 Lebanon Road,West Mifflin,PA,15122,Allegheny,NA,NA,NA,40.36009,-79.932729,agency,June,November,1,0,0,1,0,0,0,timestamps in season column;no phone; no url; county assumed; source assumed,NA
21,PFPC,2019_farmers-markets.csv,NA,farmer's market,Duda's Farm Stand,Hayden Boulevard,Elizabeth,PA,15037,Allegheny,NA,NA,NA,40.258934000000004,-79.878584,agency,June,November,1,0,0,1,0,0,0,timestamps in season column;no phone; no url; county assumed; source assumed,NA
22,PFPC,2019_farmers-markets.csv,NA,farmer's market,Green Grocer at Duquesne Green Grocer,1 N. Linden Street,Duquesne,PA,15110,Allegheny,Greater Pittsburgh Community Food Bank,NA,NA,40.37579,-79.842718,agency,January,December,1,0,0,1,0,0,0,timestamps in season column;no phone; no url; county assumed; source assumed,NA
23,PFPC,2019_farmers-markets.csv,NA,farmer's market,Green Grocer at East Hills Green Grocer,2291 Wilner Drive,Pittsburgh,PA,15221,Allegheny,East Hills Community Center,NA,NA,40.454251,-79.869969,agency,January,December,1,0,0,1,0,0,0,timestamps in season column;no phone; no url; county assumed; source assumed,NA
24,PFPC,2019_farmers-markets.csv,NA,farmer's market,East Liberty Farmer's Market,N. Euclid Avenue,Pittsburgh,PA,15206,Allegheny,Garland Parklet lot next to firehouse,NA,NA,40.471654,-79.922148000000007,agency,June,November,1,0,0,1,0,0,0,timestamps in season column;no phone; no url; county assumed; source assumed,NA
25,PFPC,2019_farmers-markets.csv,NA,farmer's market,Eichner's Farm Market,285 Richard Road,Wexford,PA,15090,Allegheny,NA,NA,NA,40.607845,-80.060142,agency,June,November,1,0,0,1,0,0,0,timestamps in season column;no phone; no url; county assumed; source assumed,NA
26,PFPC,2019_farmers-markets.csv,NA,farmer's market,Elizabeth Farmer's Market,Water Street,Elizabeth,PA,15037,Allegheny,NA,NA,NA,40.272309,-79.888919,agency,June,October,1,0,0,1,0,0,0,timestamps in season column;no phone; no url; county assumed; source assumed,NA
27,PFPC,2019_farmers-markets.csv,NA,farmer's market,Etna Farmer's Market,437 Butler Street,Pittsburgh,PA,15223,Allegheny,NA,NA,NA,40.499688,-79.944058,agency,June,October,1,0,0,1,0,0,0,timestamps in season column;no phone; no url; county assumed; source assumed,NA
28,PFPC,2019_farmers-markets.csv,NA,farmer's market,Farmer's Co-Op of East Liberty,344 N. Sheridan Avenue,Pittsburgh,PA,15206,Allegheny,Next to Home Depot,NA,NA,40.464359,-79.921285,agency,January,December,1,0,0,1,0,0,0,timestamps in season column;no phone; no url; county assumed; source assumed,NA
29,PFPC,2019_farmers-markets.csv,NA,farmer's market,Forest Hills Farmer's Market,Ardmore Boulevard,Pittsburgh,PA,15221,Allegheny,Forest Hills Presbyterian Church,NA,NA,40.427339,-79.862839,agency,June,October,1,0,0,1,0,0,0,timestamps in season column;no phone; no url; county assumed; source assumed,NA
30,PFPC,2019_farmers-markets.csv,NA,farmer's market,Fox Chapel Farmer's Market,423 Fox Chapel Road,Pittsburgh,PA,15238,Allegheny,Shadyside Academy,NA,NA,40.522005,-79.886905,agency,June,November,1,0,0,1,0,0,0,timestamps in season column;no phone; no url; county assumed; source assumed,NA
31,PFPC,2019_farmers-markets.csv,NA,farmer's market,Friel's Farm Market,390 Friel Road,Baden,PA,15005,Allegheny,NA,NA,NA,40.631948,-80.156065,agency,July,October,1,0,0,1,0,0,0,timestamps in season column;no phone; no url; county assumed; source assumed,NA
32,PFPC,2019_farmers-markets.csv,NA,farmer's market,Green Grocer at Glassport Green Grocer,440 Monongahela Avenue,Glassport,PA,15045,Allegheny,Glassport Honor Roll Park,NA,NA,40.327806,-79.892689,agency,January,December,1,0,0,1,0,0,0,timestamps in season column;no phone; no url; county assumed; source assumed,NA
33,PFPC,2019_farmers-markets.csv,NA,farmer's market,Green Tree Farmer's Market,10 W. Manila Avenue,Pittsburgh,PA,15220,Allegheny,Green Tree Park,NA,NA,40.418771,-80.047047,agency,June,October,1,0,0,1,0,0,0,timestamps in season column;no phone; no url; county assumed; source assumed,NA
34,PFPC,2019_farmers-markets.csv,NA,farmer's market,Harvest Valley Farm,6003 Cunningham Road,Gibsonia,PA,15044,Allegheny,NA,NA,NA,40.663915,-79.934944,agency,NA,NA,1,0,0,1,0,0,0,timestamps in season column;no phone; no url; county assumed; source assumed,NA
35,PFPC,2019_farmers-markets.csv,NA,farmer's market,Holy Cross Farmer's Market,123 Gilkeson Road,Pittsburgh,PA,15228,Allegheny,NA,NA,NA,40.355484,-80.053081,agency,June,October,1,0,0,1,0,0,0,timestamps in season column;no phone; no url; county assumed; source assumed,NA
36,PFPC,2019_farmers-markets.csv,NA,farmer's market,Homewood Fresh Access,7139 Frankstown Avenue,Pittsburgh,PA,15208,Allegheny,NA,NA,NA,40.457852,-79.89772,agency,July,October,1,0,0,1,0,0,0,timestamps in season column;no phone; no url; county assumed; source assumed,NA
37,PFPC,2019_farmers-markets.csv,NA,farmer's market,Green Grocer at Homewood Green Grocer,7227 Hamilton Avenue,Pittsburgh,PA,15208,Allegheny,Alma Illery Medical Center,NA,NA,40.4546,-79.896217,agency,January,December,1,0,0,1,0,0,0,timestamps in season column;no phone; no url; county assumed; source assumed,NA
38,PFPC,2019_farmers-markets.csv,NA,farmer's market,Homewood Backyard Market,7139 Frankstown Avenue,Pittsburgh,PA,15208,Allegheny,NA,NA,NA,40.457852,-79.89772,agency,January,December,1,0,0,1,0,0,0,timestamps in season column;no phone; no url; county assumed; source assumed,NA
39,PFPC,2019_farmers-markets.csv,NA,farmer's market,Janoski's Farm Market,1714 Route 30,Clinton,PA,15026,Allegheny,NA,NA,NA,40.492125,-80.331248,agency,June,November,1,0,0,1,0,0,0,timestamps in season column;no phone; no url; county assumed; source assumed,NA
40,PFPC,2019_farmers-markets.csv,NA,farmer's market,Jodikinos Farm Stand,2488 Route 18,Clinton,PA,15026,Allegheny,NA,NA,NA,40.540033,-80.419116,agency,June,November,1,0,0,1,0,0,0,timestamps in season column;no phone; no url; county assumed; source assumed,NA
41,PFPC,2019_farmers-markets.csv,NA,farmer's market,Larimer Farm Stand,413 Larimer Avenue,Pittsburgh,PA,15206,Allegheny,Larimer Community Garden & Urban Farm,NA,NA,40.465052,-79.915181,agency,June 23,November 24,1,0,0,1,0,0,0,timestamps in season column;no phone; no url; county assumed; source assumed,NA
42,PFPC,2019_farmers-markets.csv,NA,farmer's market,Late Bloomers Garden Club Farmer's Market,1840 Ardmore Boulevard,Pittsburgh,PA,15221,Allegheny,NA,NA,NA,40.424984,-79.861141,agency,June,October,1,0,0,1,0,0,0,timestamps in season column;no phone; no url; county assumed; source assumed,NA
43,PFPC,2019_farmers-markets.csv,NA,farmer's market,Lawrenceville Farmer's Market,250 40th Street,Pittsburgh,PA,15201,Allegheny,Arsenal Park (near 40th St. entrance),NA,NA,40.467695,-79.960795,agency,June,October,1,0,0,1,0,0,0,timestamps in season column;no phone; no url; county assumed; source assumed,NA
44,PFPC,2019_farmers-markets.csv,NA,farmer's market,Mallisee Farm,Saltsburg Road at Willow Village,Pittsburgh,PA,15239,Allegheny,NA,NA,NA,40.475162,-79.771779,agency,July,September,1,0,0,1,0,0,0,timestamps in season column;no phone; no url; county assumed; source assumed,NA
45,PFPC,2019_farmers-markets.csv,NA,farmer's market,Market Square Farmer's Market,Market Square,Pittsburgh,PA,15222,Allegheny,NA,NA,NA,40.441025,-80.002645,agency,June,October,1,0,0,1,0,0,0,timestamps in season column;no phone; no url; county assumed; source assumed,NA
46,PFPC,2019_farmers-markets.csv,NA,farmer's market,Mazurs Greenhouse and Farm,3333 Babcock Boulevard,Pittsburgh,PA,15237,Allegheny,Mazurs Autobody,NA,NA,40.533761,-80.019284,agency,June,October,1,0,0,1,0,0,0,timestamps in season column;no phone; no url; county assumed; source assumed,NA
47,PFPC,2019_farmers-markets.csv,NA,farmer's market,McConnell's Hill Farm,294 New Bethlehem Church Road,Aliquippa,PA,15001,Allegheny,NA,NA,NA,40.534606,-80.291745,agency,July,October,1,0,0,1,0,0,0,timestamps in season column;no phone; no url; county assumed; source assumed,NA
48,PFPC,2019_farmers-markets.csv,NA,farmer's market,Green Grocer at McKees Rocks Green Grocer,1100 Chartiers Avenue,McKees Rocks,PA,15136,Allegheny,5 Generation Bakers,NA,NA,40.46563,-80.06818,agency,January,December,1,0,0,1,0,0,0,timestamps in season column;no phone; no url; county assumed; source assumed,NA
49,PFPC,2019_farmers-markets.csv,NA,farmer's market,Mellon Square Farmer's Market,529 Smithfield Street,Pittsburgh,PA,15222,Allegheny,NA,NA,NA,40.440903,-79.998276,agency,June,October,1,0,0,1,0,0,0,timestamps in season column;no phone; no url; county assumed; source assumed,NA
50,PFPC,2019_farmers-markets.csv,NA,farmer's market,Green Grocer at Millvale Green Grocer,518 Grant Avenue,Pittsburgh,PA,15209,Allegheny,GAP Park,NA,NA,40.480754,-79.974368,agency,January,December,1,0,0,1,0,0,0,timestamps in season column;no phone; no url; county assumed; source assumed,NA
51,PFPC,2019_farmers-markets.csv,NA,farmer's market,Misera Farms,Butler Logan Road,Tarentum,PA,15084,Allegheny,NA,NA,NA,40.579492,-79.797134,agency,June,October,1,0,0,1,0,0,0,timestamps in season column;no phone; no url; county assumed; source assumed,NA
52,PFPC,2019_farmers-markets.csv,NA,farmer's market,Monroeville Lion's Farmer's Market,2399 Tillbrook Road,Monroeville,PA,15146,Allegheny,Monroeville Community Park,NA,NA,40.418342,-79.763985,agency,June,November,1,0,0,1,0,0,0,timestamps in season column;no phone; no url; county assumed; source assumed,NA
53,PFPC,2019_farmers-markets.csv,NA,farmer's market,Moon Township Farmer's Market,1000 Beaver Grade Road,Moon Township,PA,15108,Allegheny,Municipal Building,NA,NA,40.504587,-80.208135,agency,June,September,1,0,0,1,0,0,0,timestamps in season column;no phone; no url; county assumed; source assumed,NA
54,PFPC,2019_farmers-markets.csv,NA,farmer's market,Mt. Hope Farmer's Market,12106 Frankstown Road,Pittsburgh,PA,15235,Allegheny,NA,NA,NA,40.470772,-79.820478,agency,June,September,1,0,0,1,0,0,0,timestamps in season column;no phone; no url; county assumed; source assumed,NA
55,PFPC,2019_farmers-markets.csv,NA,farmer's market,Mt. Lebanon Lions Farmer's Market,975 Washington Road,Pittsburgh,PA,15228,Allegheny,United Lutheran Church parking lot,NA,NA,40.37376,-80.048131,agency,June,October,1,0,0,1,0,0,0,timestamps in season column;no phone; no url; county assumed; source assumed,NA
56,PFPC,2019_farmers-markets.csv,NA,farmer's market,Mt. Lebanon Upton Farmer's Market,710 Washington Road,Pittsburgh,PA,15228,Allegheny,NA,NA,NA,40.379964,-80.045191,agency,June,November,1,0,0,1,0,0,0,timestamps in season column;no phone; no url; county assumed; source assumed,NA
57,PFPC,2019_farmers-markets.csv,NA,farmer's market,Green Grocer at Mt. Oliver/Knoxville Green Grocer,Brownsville Road at Hays Avenue,Pittsburgh,PA,15210,Allegheny,Clock Tower,NA,NA,40.414217,-79.987975,agency,January,December,1,0,0,1,0,0,0,timestamps in season column;no phone; no url; county assumed; source assumed,NA
58,PFPC,2019_farmers-markets.csv,NA,farmer's market,New Sheffield Farmer's Market,2816 Brodhead Road,Aliquippa,PA,15001,Allegheny,NA,NA,NA,40.615515,-80.285458,agency,June,November,1,0,0,1,0,0,0,timestamps in season column;no phone; no url; county assumed; source assumed,NA
59,PFPC,2019_farmers-markets.csv,NA,farmer's market,Northside Farmer's Market,801 Union Place,Pittsburgh,PA,15212,Allegheny,Allegheny Commons East Park,NA,NA,40.454513,-80.002965,agency,June,November,1,0,0,1,0,0,0,timestamps in season column;no phone; no url; county assumed; source assumed,NA
60,PFPC,2019_farmers-markets.csv,NA,farmer's market,Oakland Farmer's Market,4100 Forbes Avenue,Pittsburgh,PA,15213,Allegheny,Schenley Plaza,NA,NA,40.443386,-79.952135,agency,July,October,1,0,0,1,0,0,0,timestamps in season column;no phone; no url; county assumed; source assumed,NA
61,PFPC,2019_farmers-markets.csv,NA,farmer's market,Olde World Produce,1206 Route 51,Jefferson Hills,PA,15025,Allegheny,Ciccanti's Ristorante parking lot,NA,NA,40.31224,-79.938562,agency,July,September,1,0,0,1,0,0,0,timestamps in season column;no phone; no url; county assumed; source assumed,NA
62,PFPC,2019_farmers-markets.csv,NA,farmer's market,Original Farmer's Market,151 Parks Road,Cuddy,PA,15031,Allegheny,NA,NA,NA,40.339917,-80.171283,agency,June,November,1,0,0,1,0,0,0,timestamps in season column;no phone; no url; county assumed; source assumed,NA
63,PFPC,2019_farmers-markets.csv,NA,farmer's market,Pennsylvania Market Building,108 18th Street,Pittsburgh,PA,15222,Allegheny,NA,NA,NA,40.450759,-79.985309,agency,June,November,1,0,0,1,0,0,0,timestamps in season column;no phone; no url; county assumed; source assumed,NA
64,PFPC,2019_farmers-markets.csv,NA,farmer's market,Ross Township Farmer's Market,920 Perry Highway,Pittsburgh,PA,15237,Allegheny,St. John's Church,NA,NA,40.533395,-80.03564,agency,June,October,1,0,0,1,0,0,0,timestamps in season column;no phone; no url; county assumed; source assumed,NA
65,PFPC,2019_farmers-markets.csv,NA,farmer's market,Schiefelbein Farm Stand,3323 Route 151,Aliquippa,PA,15001,Allegheny,NA,NA,NA,40.545145,-80.306042,agency,June,November,1,0,0,1,0,0,0,timestamps in season column;no phone; no url; county assumed; source assumed,NA
66,PFPC,2019_farmers-markets.csv,NA,farmer's market,Sewickley Farmer's Market,200 Walnut Street,Sewickley,PA,15143,Allegheny,St. James Catholic Church parking lot,NA,NA,40.537606,-80.184696,agency,June,November,1,0,0,1,0,0,0,timestamps in season column;no phone; no url; county assumed; source assumed,NA
67,PFPC,2019_farmers-markets.csv,NA,farmer's market,Green Grocer at Sharpsburg Green Grocer,1212 Main Street,Pittsburgh,PA,15215,Allegheny,Sharpsburg Community Library,NA,NA,40.494457,-79.930212,agency,January,December,1,0,0,1,0,0,0,timestamps in season column;no phone; no url; county assumed; source assumed,NA
68,PFPC,2019_farmers-markets.csv,NA,farmer's market,Shenot Farm Market,3754 Wexford Run Road,Wexford,PA,15090,Allegheny,NA,NA,NA,40.627021,-80.07968,agency,June,November,1,0,0,1,0,0,0,timestamps in season column;no phone; no url; county assumed; source assumed,NA
69,PFPC,2019_farmers-markets.csv,NA,farmer's market,Green Grocer at Sheraden Green Grocer,720 Sherwood Avenue,Pittsburgh,PA,15204,Allegheny,Sheraden Library,NA,NA,40.455202,-80.056557,agency,January,December,1,0,0,1,0,0,0,timestamps in season column;no phone; no url; county assumed; source assumed,NA
70,PFPC,2019_farmers-markets.csv,NA,farmer's market,Shiloh Farm Stand,Thomas Boulevard & Homewood Avenue,Pittsburgh,PA,15208,Allegheny,NA,NA,NA,40.451184,-79.9899089,agency,June,October,1,0,0,1,0,0,0,timestamps in season column;no phone; no url; county assumed; source assumed,NA
71,PFPC,2019_farmers-markets.csv,NA,farmer's market,Simmons Farm Market,170 Simmons Road,McMurray,PA,15317,Allegheny,NA,NA,NA,40.270055,-80.082325,agency,June,November,1,0,0,1,0,0,0,timestamps in season column;no phone; no url; county assumed; source assumed,NA
72,PFPC,2019_farmers-markets.csv,NA,farmer's market,Simmons Farm Market,2861 Washington Road,McMurray,PA,15317,Allegheny,NA,NA,NA,40.300759,-80.098302,agency,June,November,1,0,0,1,0,0,0,timestamps in season column;no phone; no url; county assumed; source assumed,NA
73,PFPC,2019_farmers-markets.csv,NA,farmer's market,Soergel Orchards,2573 Brandt School Road,Wexford,PA,15090,Allegheny,NA,NA,NA,40.614598,-80.092754,agency,January,December,1,0,0,1,0,0,0,timestamps in season column;no phone; no url; county assumed; source assumed,NA
74,PFPC,2019_farmers-markets.csv,NA,farmer's market,Southside Farmer's Market,18th Street & East Carson Street,Pittsburgh,PA,15203,Allegheny,Parking lot,NA,NA,40.428468,-79.980291,agency,June,November,1,0,0,1,0,0,0,timestamps in season column;no phone; no url; county assumed; source assumed,NA
75,PFPC,2019_farmers-markets.csv,NA,farmer's market,Green Grocer at Spring Hill Green Grocer,125 Rhine Place,Pittsburgh,PA,15212,Allegheny,Three Rivers Manor,NA,NA,40.467138,-79.993135,agency,January,December,1,0,0,1,0,0,0,timestamps in season column;no phone; no url; county assumed; source assumed,NA
76,PFPC,2019_farmers-markets.csv,NA,farmer's market,Squirrel Hill Farmer's Market,5737 Beacon Street,Pittsburgh,PA,15217,Allegheny,Pittsburgh Parking Authority parking lot,NA,NA,40.434744,-79.924142,agency,June,November,1,0,0,1,0,0,0,timestamps in season column;no phone; no url; county assumed; source assumed,NA
77,PFPC,2019_farmers-markets.csv,NA,farmer's market,Steel Plaza Farmer's Market,8 Grant Street,Pittsburgh,PA,15222,Allegheny,Steel Plaza,NA,NA,40.441041,-79.995344,agency,June,October,1,0,0,1,0,0,0,timestamps in season column;no phone; no url; county assumed; source assumed,NA
78,PFPC,2019_farmers-markets.csv,NA,farmer's market,Swissvale Fresh Access,2036 Noble Street,Pittsburgh,PA,15218,Allegheny,Municipal parking lot,NA,NA,40.420912,-79.885924,agency,June,October,1,0,0,1,0,0,0,timestamps in season column;no phone; no url; county assumed; source assumed,NA
79,PFPC,2019_farmers-markets.csv,NA,farmer's market,Tarentum Farmer's Market,913 Lock Street,Tarentum,PA,15084,Allegheny,NA,NA,NA,40.604353,-79.756658,agency,June,October,1,0,0,1,0,0,0,timestamps in season column;no phone; no url; county assumed; source assumed,NA
80,PFPC,2019_farmers-markets.csv,NA,farmer's market,The Block @ Northway,8103 McKnight Road,Pittsburgh,PA,15237,Allegheny,Northway Mall,NA,NA,40.558382,-80.023612,agency,June,October,1,0,0,1,0,0,0,timestamps in season column;no phone; no url; county assumed; source assumed,NA
81,PFPC,2019_farmers-markets.csv,NA,farmer's market,Tractor Supply Farmer's Market,4015 Freeport Road,Natrona Heights,PA,15065,Allegheny,Highlands Mall,NA,NA,40.646918,-79.710027,agency,June,October,1,0,0,1,0,0,0,timestamps in season column;no phone; no url; county assumed; source assumed,NA
82,PFPC,2019_farmers-markets.csv,NA,farmer's market,Trax Farms,528 Trax Road,Finleyville,PA,15332,Allegheny,NA,NA,NA,40.276656,-80.032011,agency,June,November,1,0,0,1,0,0,0,timestamps in season column;no phone; no url; county assumed; source assumed,NA
83,PFPC,2019_farmers-markets.csv,NA,farmer's market,Triple B Farms,823 Berry Lane,Monongahela,PA,15063,Allegheny,NA,NA,NA,40.226375,-79.946364,agency,June,October,1,0,0,1,0,0,0,timestamps in season column;no phone; no url; county assumed; source assumed,NA
84,PFPC,2019_farmers-markets.csv,NA,farmer's market,Upper St. Clair Lions Farmer's Market,2040 Washington Road,Pittsburgh,PA,15241,Allegheny,Westminster Presbyterian Church,NA,NA,40.339976,-80.065555,agency,June,September,1,0,0,1,0,0,0,timestamps in season column;no phone; no url; county assumed; source assumed,NA
85,PFPC,2019_farmers-markets.csv,NA,farmer's market,Valley View Farm Stand,601 N. Aiken Avenue,Pittsburgh,PA,15206,Allegheny,NA,NA,NA,40.47095,-79.932796,agency,June,October,1,0,0,1,0,0,0,timestamps in season column;no phone; no url; county assumed; source assumed,NA
86,PFPC,2019_farmers-markets.csv,NA,farmer's market,Verona Farmer's Market,736 East Railroad Avenue,Verona,PA,15147,Allegheny,NA,NA,NA,40.506048,-79.844477,agency,June,November,1,0,0,1,0,0,0,timestamps in season column;no phone; no url; county assumed; source assumed,NA
87,PFPC,2019_farmers-markets.csv,NA,farmer's market,West Homestead Farmer's Market,456 W. 8th Avenue,Homestead,PA,15120,Allegheny,NA,NA,NA,40.401228,-79.917314,agency,June,October,1,0,0,1,0,0,0,timestamps in season column;no phone; no url; county assumed; source assumed,NA
88,PFPC,2019_farmers-markets.csv,NA,farmer's market,Wexford Farms,550 Warrendale Road,Wexford,PA,15090,Allegheny,NA,NA,NA,40.64763,-80.100129,agency,June,October,1,0,0,1,0,0,0,timestamps in season column;no phone; no url; county assumed; source assumed,NA
89,PFPC,2019_farmers-markets.csv,NA,farmer's market,Wilkins Township Farmer's Market,333 Penn Center Boulevard,Pittsburgh,PA,15235,Allegheny,Route 22 Penn Center,NA,NA,40.427682,-79.811636,agency,June,October,1,0,0,1,0,0,0,timestamps in season column;no phone; no url; county assumed; source assumed,NA
90,PFPC,2019_farmers-markets.csv,NA,farmer's market,Wilkinsburg Farmer's Market,225 Penn Avenue,Pittsburgh,PA,15221,Allegheny,Life Care Hospital parking lot,NA,NA,40.446769,-79.891807,agency,June,November,1,0,0,1,0,0,0,timestamps in season column;no phone; no url; county assumed; source assumed,NA
91,PFPC,2019_farmers-markets.csv,NA,farmer's market,Green Grocer at Wilmerding Green Grocer,314 Commerce Street,Wilmerding,PA,15148,Allegheny,Wilmerding Apartments,NA,NA,40.392927,-79.807721,agency,January,December,1,0,0,1,0,0,0,timestamps in season column;no phone; no url; county assumed; source assumed,NA
92,PFPC,2019_farmers-markets.csv,NA,farmer's market,Green Grocer at Woods Run Green Grocer,1201 Woods Run Avenue,Pittsburgh,PA,15212,Allegheny,Woods Run Library,NA,NA,40.476243,-80.030199,agency,January,December,1,0,0,1,0,0,0,timestamps in season column;no phone; no url; county assumed; source assumed,NA
93,WPRDC,Allegheny_County_WIC_Vendor_Locations.xlsx,3150892,NA,Community Market,1710 Pacific Avenue,Natrona Heights,PA,15065,NA,NA,NA,NA,40.62110699999999,-79.7241253,Google,NA,NA,0,1,1,0,0,0,0,lat/long invalid;no date/time info;state assumed PA,NA
94,WPRDC,Allegheny_County_WIC_Vendor_Locations.xlsx,3148048,NA,Community Market,1117 Mill Town Road,Verona,PA,15147,NA,NA,NA,NA,40.4986122,-79.79066759999999,Google,NA,NA,0,1,1,0,0,0,0,lat/long invalid;no date/time info;state assumed PA,NA
95,WPRDC,Allegheny_County_WIC_Vendor_Locations.xlsx,3083227,NA,Coraopolis Cash Market,1017 4th Avenue,Coraopolis,PA,15108,NA,NA,NA,NA,40.5183013,-80.16280359999999,Google,NA,NA,0,1,1,0,0,0,0,lat/long invalid;no date/time info;state assumed PA,NA
96,WPRDC,Allegheny_County_WIC_Vendor_Locations.xlsx,2693039,NA,Giant Eagle,5055 Library Road,Bethel Park,PA,15102,NA,NA,NA,NA,40.3374733,-80.0240616,Google,NA,NA,0,1,1,0,0,0,0,lat/long invalid;no date/time info;state assumed PA,NA
97,WPRDC,Allegheny_County_WIC_Vendor_Locations.xlsx,2805222,NA,Giant Eagle,254 Yost Boulevard,Braddock Hills,PA,15221,NA,NA,NA,NA,40.4145589,-79.85567,Google,NA,NA,0,1,1,0,0,0,0,lat/long invalid;no date/time info;state assumed PA,NA
98,WPRDC,Allegheny_County_WIC_Vendor_Locations.xlsx,3161264,NA,Giant Eagle,600 Towne Square Way,Brentwood,PA,15227,NA,NA,NA,NA,40.3657243,-79.98327069999999,Google,NA,NA,0,1,1,0,0,0,0,lat/long invalid;no date/time info;state assumed PA,NA
99,WPRDC,Allegheny_County_WIC_Vendor_Locations.xlsx,2654758,NA,Giant Eagle,132 Ben Avon Heights Road,Camp Horne,PA,15237,NA,NA,NA,NA,40.5216374,-80.0694309,Google,NA,NA,0,1,1,0,0,0,0,lat/long invalid;no date/time info;state assumed PA,NA
100,WPRDC,Allegheny_County_WIC_Vendor_Locations.xlsx,2665562,NA,Giant Eagle,5260 Grove Road,Caste Village,PA,15236,NA,NA,NA,NA,40.357439,-80.00224999999999,Google,NA,NA,0,1,1,0,0,0,0,lat/long invalid;no date/time info;state assumed PA,NA
101,WPRDC,Allegheny_County_WIC_Vendor_Locations.xlsx,3029807,NA,Giant Eagle,9901 Mountain View Drive,Century III,PA,15122,NA,NA,NA,NA,40.3396526,-79.9497457,Google,NA,NA,0,1,1,0,0,0,0,lat/long invalid;no date/time info;state assumed PA,NA
102,WPRDC,Allegheny_County_WIC_Vendor_Locations.xlsx,2827562,NA,Giant Eagle,6320 Shakespeare Street,East Liberty,PA,15206,NA,NA,NA,NA,40.4586113,-79.9207596,Google,NA,NA,0,1,1,0,0,0,0,lat/long invalid;no date/time info;state assumed PA,NA
103,WPRDC,Allegheny_County_WIC_Vendor_Locations.xlsx,80632,NA,Giant Eagle,1705 S. Braddock Avenue,Edgewood,PA,15218,NA,NA,NA,NA,40.4257165,-79.8865572,Google,NA,NA,0,1,1,0,0,0,0,lat/long invalid;no date/time info;state assumed PA,NA
104,WPRDC,Allegheny_County_WIC_Vendor_Locations.xlsx,3168164,NA,Giant Eagle,800 Mckeesport Road,Elizabeth,PA,15037,NA,NA,NA,NA,40.2799463,-79.87563740000002,Google,NA,NA,0,1,1,0,0,0,0,lat/long invalid;no date/time info;state assumed PA,NA
105,WPRDC,Allegheny_County_WIC_Vendor_Locations.xlsx,2845101,NA,Giant Eagle,910 Freeport Road,Fox Chapel,PA,15238,NA,NA,NA,NA,40.4885202,-79.893768,Google,NA,NA,0,1,1,0,0,0,0,lat/long invalid;no date/time info;state assumed PA,NA
106,WPRDC,Allegheny_County_WIC_Vendor_Locations.xlsx,3099409,NA,Giant Eagle,9001 Frankstown Road,Frankstown,PA,15235,NA,NA,NA,NA,40.4622839,-79.8652086,Google,NA,NA,0,1,1,0,0,0,0,lat/long invalid;no date/time info;state assumed PA,NA
107,WPRDC,Allegheny_County_WIC_Vendor_Locations.xlsx,3138681,NA,Giant Eagle,4250 Murray Avenue,Greenfield,PA,15217,NA,NA,NA,NA,40.4223167,-79.92950139999999,Google,NA,NA,0,1,1,0,0,0,0,lat/long invalid;no date/time info;state assumed PA,NA
108,WPRDC,Allegheny_County_WIC_Vendor_Locations.xlsx,2835432,NA,Giant Eagle,420 East Waterfront Drive,Homestead,PA,15120,NA,NA,NA,NA,40.410888,-79.9088628,Google,NA,NA,0,1,1,0,0,0,0,lat/long invalid;no date/time info;state assumed PA,NA
109,WPRDC,Allegheny_County_WIC_Vendor_Locations.xlsx,2701552,NA,Giant Eagle,1800 Mckees Rocks Road,Kennedy Twp.,PA,15136,NA,NA,NA,NA,40.4677498,-80.0976633,Google,NA,NA,0,1,1,0,0,0,0,lat/long invalid;no date/time info;state assumed PA,NA
110,WPRDC,Allegheny_County_WIC_Vendor_Locations.xlsx,3168084,NA,Giant Eagle,3812 O'Neil Boulevard,Mckeesport,PA,15132,NA,NA,NA,NA,40.3472464,-79.8311624,Google,NA,NA,0,1,1,0,0,0,0,lat/long invalid;no date/time info;state assumed PA,NA
111,WPRDC,Allegheny_County_WIC_Vendor_Locations.xlsx,3119721,NA,Giant Eagle,4680 Old William Penn Hwy.,Monroeville,PA,15146,NA,NA,NA,NA,40.4386696,-79.7412143,Google,NA,NA,0,1,1,0,0,0,0,lat/long invalid;no date/time info;state assumed PA,NA
112,WPRDC,Allegheny_County_WIC_Vendor_Locations.xlsx,2952691,NA,Giant Eagle,4010 Monroeville Boulevard,Monroeville Blvd.,PA,15146,NA,NA,NA,NA,40.4320293,-79.7727547,Google,NA,NA,0,1,1,0,0,0,0,lat/long invalid;no date/time info;state assumed PA,NA
113,WPRDC,Allegheny_County_WIC_Vendor_Locations.xlsx,3168226,NA,Giant Eagle,5990 University Boulevard,Moon Twp.,PA,15108,NA,NA,NA,NA,40.5212671,-80.21977749999999,Google,NA,NA,0,1,1,0,0,0,0,lat/long invalid;no date/time info;state assumed PA,NA
114,WPRDC,Allegheny_County_WIC_Vendor_Locations.xlsx,16296,NA,Giant Eagle,8050 McKnight Road,North Hills,PA,15237,NA,NA,NA,NA,40.5553093,-80.0183758,Google,NA,NA,0,1,1,0,0,0,0,lat/long invalid;no date/time info;state assumed PA,NA
115,WPRDC,Allegheny_County_WIC_Vendor_Locations.xlsx,38534,NA,Giant Eagle,318-320 Cedar Avenue,North Shore,PA,15212,NA,NA,NA,NA,40.4514581,-79.9996227,Google,NA,NA,0,1,1,0,0,0,0,lat/long invalid;no date/time info;state assumed PA,NA
116,WPRDC,Allegheny_County_WIC_Vendor_Locations.xlsx,3174633,NA,Giant Eagle,1701 Lincoln Highway,North Versailles,PA,15137,NA,NA,NA,NA,40.3720217,-79.7856798,Google,NA,NA,0,1,1,0,0,0,0,lat/long invalid;no date/time info;state assumed PA,NA
117,WPRDC,Allegheny_County_WIC_Vendor_Locations.xlsx,2752932,NA,Giant Eagle,4110 Brighton Road,Northside,PA,15212,NA,NA,NA,NA,40.48922900000001,-80.0442006,Google,NA,NA,0,1,1,0,0,0,0,lat/long invalid;no date/time info;state assumed PA,NA
118,WPRDC,Allegheny_County_WIC_Vendor_Locations.xlsx,2663456,NA,Giant Eagle,230 Rodi Road,Penn Hills,PA,15235,NA,NA,NA,NA,40.4623588,-79.8269187,Google,NA,NA,0,1,1,0,0,0,0,lat/long invalid;no date/time info;state assumed PA,NA
119,WPRDC,Allegheny_County_WIC_Vendor_Locations.xlsx,2770095,NA,Giant Eagle,9805 McKnight Road,Pine Creek,PA,15237,NA,NA,NA,NA,40.5846393,-80.04039379999999,Google,NA,NA,0,1,1,0,0,0,0,lat/long invalid;no date/time info;state assumed PA,NA
120,WPRDC,Allegheny_County_WIC_Vendor_Locations.xlsx,3158672,NA,Giant Eagle,155 Towne Centre Drive,Pine Township,PA,15090,NA,NA,NA,NA,40.63215539999999,-80.05431449999999,Google,NA,NA,0,1,1,0,0,0,0,lat/long invalid;no date/time info;state assumed PA,NA
121,WPRDC,Allegheny_County_WIC_Vendor_Locations.xlsx,3152683,NA,Giant Eagle,100 Settlers Ridge Center Dr.,Robinson Twp.,PA,15205,NA,NA,NA,NA,40.4417398,-80.1512245,Google,NA,NA,0,1,1,0,0,0,0,lat/long invalid;no date/time info;state assumed PA,NA
122,WPRDC,Allegheny_County_WIC_Vendor_Locations.xlsx,2760795,NA,Giant Eagle,5550 Centre Avenue,Shadyside,PA,15232,NA,NA,NA,NA,40.4564927,-79.93460549999999,Google,NA,NA,0,1,1,0,0,0,0,lat/long invalid;no date/time info;state assumed PA,NA
123,WPRDC,Allegheny_County_WIC_Vendor_Locations.xlsx,3155863,NA,Giant Eagle,1671 Butler Plank Road,Shaler,PA,15116,NA,NA,NA,NA,40.5378264,-79.9652576,Google,NA,NA,0,1,1,0,0,0,0,lat/long invalid;no date/time info;state assumed PA,NA
124,WPRDC,Allegheny_County_WIC_Vendor_Locations.xlsx,3168245,NA,Giant Eagle,3239 Washington Pike,South Fayette,PA,15017,NA,NA,NA,NA,40.3409669,-80.1189114,Google,NA,NA,0,1,1,0,0,0,0,lat/long invalid;no date/time info;state assumed PA,NA
125,WPRDC,Allegheny_County_WIC_Vendor_Locations.xlsx,2929702,NA,Giant Eagle,2021 Wharton Street,South Side,PA,15203,NA,NA,NA,NA,40.4311183,-79.97668379999999,Google,NA,NA,0,1,1,0,0,0,0,lat/long invalid;no date/time info;state assumed PA,NA
126,WPRDC,Allegheny_County_WIC_Vendor_Locations.xlsx,2977355,NA,Giant Eagle,1901 Murray Avenue,Squirrel Hill,PA,15217,NA,NA,NA,NA,40.4357338,-79.9225263,Google,NA,NA,0,1,1,0,0,0,0,lat/long invalid;no date/time info;state assumed PA,NA
127,WPRDC,Allegheny_County_WIC_Vendor_Locations.xlsx,2869549,NA,Giant Eagle,200 Allegheny River Boulevard,Verona,PA,15147,NA,NA,NA,NA,40.4991976,-79.84455489999999,Google,NA,NA,0,1,1,0,0,0,0,lat/long invalid;no date/time info;state assumed PA,NA
128,WPRDC,Allegheny_County_WIC_Vendor_Locations.xlsx,2914092,NA,Giant Eagle,7000 Oxford Drive,Village Square,PA,15102,NA,NA,NA,NA,40.3469225,-80.0466498,Google,NA,NA,0,1,1,0,0,0,0,lat/long invalid;no date/time info;state assumed PA,NA
129,WPRDC,Allegheny_County_WIC_Vendor_Locations.xlsx,2712572,NA,Giant Eagle,1717 Cochran Road,Virginia Manor,PA,15220,NA,NA,NA,NA,40.3927168,-80.06587259999999,Google,NA,NA,0,1,1,0,0,0,0,lat/long invalid;no date/time info;state assumed PA,NA
130,WPRDC,Allegheny_County_WIC_Vendor_Locations.xlsx,3141762,NA,Giant Eagle,1356 Hoffman Boulevard,West Mifflin,PA,15122,NA,NA,NA,NA,40.3843975,-79.8683695,Google,NA,NA,0,1,1,0,0,0,0,lat/long invalid;no date/time info;state assumed PA,NA
131,WPRDC,Allegheny_County_WIC_Vendor_Locations.xlsx,85222,NA,Giant Eagle,1029 West View Park Drive,West View,PA,15229,NA,NA,NA,NA,40.5168603,-80.0389965,Google,NA,NA,0,1,1,0,0,0,0,lat/long invalid;no date/time info;state assumed PA,NA
132,WPRDC,Allegheny_County_WIC_Vendor_Locations.xlsx,2976969,NA,Giant Eagle,2001 Lincoln Way,White Oak,PA,15131,NA,NA,NA,NA,40.3360149,-79.8050112,Google,NA,NA,0,1,1,0,0,0,0,lat/long invalid;no date/time info;state assumed PA,NA
133,WPRDC,Allegheny_County_WIC_Vendor_Locations.xlsx,3162107,NA,Giant Eagle Express,2611 Freeport Road,Harmar,PA,15238,NA,NA,NA,NA,40.5379144,-79.8388218,Google,NA,NA,0,1,1,0,0,0,0,lat/long invalid;no date/time info;state assumed PA,NA
134,WPRDC,Allegheny_County_WIC_Vendor_Locations.xlsx,3162338,NA,Gorkhali Store,2116 Brownsville Rd.,Mt. Oliver,PA,15210,NA,NA,NA,NA,40.3927002,-79.98714989999999,Google,NA,NA,0,1,1,0,0,0,0,lat/long invalid;no date/time info;state assumed PA,NA
135,WPRDC,Allegheny_County_WIC_Vendor_Locations.xlsx,2796169,NA,Himalaya Grocery,3621 Brownsville Road,Brentwood,PA,15227,NA,NA,NA,NA,40.3732925,-79.9752798,Google,NA,NA,0,1,1,0,0,0,0,lat/long invalid;no date/time info;state assumed PA,NA
136,WPRDC,Allegheny_County_WIC_Vendor_Locations.xlsx,3136218,NA,Kuhn's,661 Lincoln Avenue,Bellevue,PA,15202,NA,NA,NA,NA,40.4970473,-80.0602155,Google,NA,NA,0,1,1,0,0,0,0,lat/long invalid;no date/time info;state assumed PA,NA
137,WPRDC,Allegheny_County_WIC_Vendor_Locations.xlsx,78112,NA,Kuhn's,825 Beaver Grade Road,Moon Twp.,PA,15108,NA,NA,NA,NA,40.5170785,-80.2178028,Google,NA,NA,0,1,1,0,0,0,0,lat/long invalid;no date/time info;state assumed PA,NA
138,WPRDC,Allegheny_County_WIC_Vendor_Locations.xlsx,2782779,NA,Kuhn's,4801 McKnight Road,North Hills,PA,15237,NA,NA,NA,NA,40.525355,-80.0066087,Google,NA,NA,0,1,1,0,0,0,0,lat/long invalid;no date/time info;state assumed PA,NA
139,WPRDC,Allegheny_County_WIC_Vendor_Locations.xlsx,9200,NA,Kuhn's,1130 Highwood St.,North Side,PA,15212,NA,NA,NA,NA,40.46835249999999,-80.02668349999999,Google,NA,NA,0,1,1,0,0,0,0,lat/long invalid;no date/time info;state assumed PA,NA
140,WPRDC,Allegheny_County_WIC_Vendor_Locations.xlsx,84011,NA,Kuhn's,3125 Banksville Road,South Hills,PA,15216,NA,NA,NA,NA,40.3996765,-80.0434133,Google,NA,NA,0,1,1,0,0,0,0,lat/long invalid;no date/time info;state assumed PA,NA
141,WPRDC,Allegheny_County_WIC_Vendor_Locations.xlsx,1093082,NA,Kuhn's,700 Buelah Road,Turtle Creek,PA,15145,NA,NA,NA,NA,40.4270574,-79.8348281,Google,NA,NA,0,1,1,0,0,0,0,lat/long invalid;no date/time info;state assumed PA,NA
142,WPRDC,Allegheny_County_WIC_Vendor_Locations.xlsx,2901656,NA,Las Palmas IGA,1616 Broadway Ave.,Beechview,PA,15216,NA,NA,NA,NA,40.4101433,-80.02493500000001,Google,NA,NA,0,1,1,0,0,0,0,lat/long invalid;no date/time info;state assumed PA,NA
143,WPRDC,Allegheny_County_WIC_Vendor_Locations.xlsx,2804345,NA,Murray Avenue Kosher,1916 Murray Avenue,Squirrel Hill,PA,15217,NA,NA,NA,NA,40.435459,-79.9229692,Google,NA,NA,0,1,1,0,0,0,0,lat/long invalid;no date/time info;state assumed PA,NA
144,WPRDC,Allegheny_County_WIC_Vendor_Locations.xlsx,3175606,NA,Pittsburgh Commissary,79 Soldiers Lane,Moon Twp.,PA,15108,NA,NA,NA,NA,40.5018598,-80.2182393,Google,NA,NA,0,1,1,0,0,0,0,lat/long invalid;no date/time info;state assumed PA,NA
145,WPRDC,Allegheny_County_WIC_Vendor_Locations.xlsx,3040453,NA,Save A Lot,25 Foster Avenue,Crafton,PA,15205,NA,NA,NA,NA,40.4405073,-80.0689885,Google,NA,NA,0,1,1,0,0,0,0,lat/long invalid;no date/time info;state assumed PA,NA
146,WPRDC,Allegheny_County_WIC_Vendor_Locations.xlsx,3168198,NA,Sav-A-Lot,9 Duquesne Plaza,Duquesne,PA,15110,NA,NA,NA,NA,40.3746906,-79.8470931,Google,NA,NA,0,1,1,0,0,0,0,lat/long invalid;no date/time info;state assumed PA,NA
147,WPRDC,Allegheny_County_WIC_Vendor_Locations.xlsx,3166464,NA,Sav-A-Lot,355 Lincoln Highway,North Versailles,PA,15137,NA,NA,NA,NA,40.3848255,-79.821622,Google,NA,NA,0,1,1,0,0,0,0,lat/long invalid;no date/time info;state assumed PA,NA
148,WPRDC,Allegheny_County_WIC_Vendor_Locations.xlsx,3168180,NA,Sav-A-Lot,725 Ross Ave.,Wilkinsburg,PA,15221,NA,NA,NA,NA,40.4429612,-79.88439199999999,Google,NA,NA,0,1,1,0,0,0,0,lat/long invalid;no date/time info;state assumed PA,NA
149,WPRDC,Allegheny_County_WIC_Vendor_Locations.xlsx,2691661,NA,Shop N Save,5001 Library Road,Bethel Park,PA,15102,NA,NA,NA,NA,40.3412552,-80.0247054,Google,NA,NA,0,1,1,0,0,0,0,lat/long invalid;no date/time info;state assumed PA,NA
150,WPRDC,Allegheny_County_WIC_Vendor_Locations.xlsx,48814,NA,Shop N Save,1119 Brownsville Road,Brentwood,PA,15210,NA,NA,NA,NA,40.40486569999999,-79.98964029999999,Google,NA,NA,0,1,1,0,0,0,0,lat/long invalid;no date/time info;state assumed PA,NA
151,WPRDC,Allegheny_County_WIC_Vendor_Locations.xlsx,3015114,NA,Shop N Save,4647 Buttermilk Hollow Road,Buttermilk Hollow,PA,15122,NA,NA,NA,NA,40.3610236,-79.9068223,Google,NA,NA,0,1,1,0,0,0,0,lat/long invalid;no date/time info;state assumed PA,NA
152,WPRDC,Allegheny_County_WIC_Vendor_Locations.xlsx,2739635,NA,Shop N Save,799 Castle Shannon Blvd.,Castle Shannon,PA,15234,NA,NA,NA,NA,40.3691127,-80.02854889999999,Google,NA,NA,0,1,1,0,0,0,0,lat/long invalid;no date/time info;state assumed PA,NA
153,WPRDC,Allegheny_County_WIC_Vendor_Locations.xlsx,2896675,NA,Shop N Save,1850 Centre Ave.,Centre Ave,PA,15219,NA,NA,NA,NA,40.4421821,-79.98179429999999,Google,NA,NA,0,1,1,0,0,0,0,lat/long invalid;no date/time info;state assumed PA,NA
154,WPRDC,Allegheny_County_WIC_Vendor_Locations.xlsx,28396,NA,Shop N Save,2381 Mountain View Drive,Century Square,PA,15122,NA,NA,NA,NA,40.3448105,-79.9466705,Google,NA,NA,0,1,1,0,0,0,0,lat/long invalid;no date/time info;state assumed PA,NA
155,WPRDC,Allegheny_County_WIC_Vendor_Locations.xlsx,3168274,NA,Shop N Save Village,1886 Homeville Road,Duquesne Village,PA,15122,NA,NA,NA,NA,40.365251,-79.87326879999999,Google,NA,NA,0,1,1,0,0,0,0,lat/long invalid;no date/time info;state assumed PA,NA
156,WPRDC,Allegheny_County_WIC_Vendor_Locations.xlsx,3168229,NA,Shop N Save,917 Butler Street,Glenshaw,PA,15223,NA,NA,NA,NA,40.512009,-79.9499785,Google,NA,NA,0,1,1,0,0,0,0,lat/long invalid;no date/time info;state assumed PA,NA
157,WPRDC,Allegheny_County_WIC_Vendor_Locations.xlsx,3123920,NA,Shop N Save,4548 Broadway Boulevard,Haymaker Village,PA,15146,NA,NA,NA,NA,40.391893,-79.76738449999999,Google,NA,NA,0,1,1,0,0,0,0,lat/long invalid;no date/time info;state assumed PA,NA
158,WPRDC,Allegheny_County_WIC_Vendor_Locations.xlsx,2791443,NA,Shop N Save,2100 Washington Pike,Heidelberg,PA,15106,NA,NA,NA,NA,40.3871382,-80.09406849999999,Google,NA,NA,0,1,1,0,0,0,0,lat/long invalid;no date/time info;state assumed PA,NA
159,WPRDC,Allegheny_County_WIC_Vendor_Locations.xlsx,3168120,NA,Shop N Save,2362 Golden Mile Highway,Holiday Park,PA,15239,NA,NA,NA,NA,40.462286400000004,-79.7047027,Google,NA,NA,0,1,1,0,0,0,0,lat/long invalid;no date/time info;state assumed PA,NA
160,WPRDC,Allegheny_County_WIC_Vendor_Locations.xlsx,3158901,NA,Shop N Save,600 Market Place Drive,Imperial,PA,15071,NA,NA,NA,NA,40.4403143,-80.2413286,Google,NA,NA,0,1,1,0,0,0,0,lat/long invalid;no date/time info;state assumed PA,NA
161,WPRDC,Allegheny_County_WIC_Vendor_Locations.xlsx,2805720,NA,Shop N Save,450 56th Street,Lawrenceville,PA,15201,NA,NA,NA,NA,40.4832347,-79.9485615,Google,NA,NA,0,1,1,0,0,0,0,lat/long invalid;no date/time info;state assumed PA,NA
162,WPRDC,Allegheny_County_WIC_Vendor_Locations.xlsx,2713949,NA,Shop N Save,815 Fifth Avenue,McKeesport,PA,15132,NA,NA,NA,NA,40.351935,-79.8560679,Google,NA,NA,0,1,1,0,0,0,0,lat/long invalid;no date/time info;state assumed PA,NA
163,WPRDC,Allegheny_County_WIC_Vendor_Locations.xlsx,2694562,NA,Shop N Save,125 Virginia Avenue,Mt. Washington,PA,15211,NA,NA,NA,NA,40.4294423,-80.0079447,Google,NA,NA,0,1,1,0,0,0,0,lat/long invalid;no date/time info;state assumed PA,NA
164,WPRDC,Allegheny_County_WIC_Vendor_Locations.xlsx,2994319,NA,Shop N Save,2103 Noblestown Road,Noblestown,PA,15205,NA,NA,NA,NA,40.4306955,-80.0519383,Google,NA,NA,0,1,1,0,0,0,0,lat/long invalid;no date/time info;state assumed PA,NA
165,WPRDC,Allegheny_County_WIC_Vendor_Locations.xlsx,2984266,NA,Shop N Save,4313 Walnut Street,Olympia,PA,15132,NA,NA,NA,NA,40.3216675,-79.8346639,Google,NA,NA,0,1,1,0,0,0,0,lat/long invalid;no date/time info;state assumed PA,NA
166,WPRDC,Allegheny_County_WIC_Vendor_Locations.xlsx,3007247,NA,Shop N Save,1130 Perry Highway,Pines Plaza,PA,15237,NA,NA,NA,NA,40.5482178,-80.0357219,Google,NA,NA,0,1,1,0,0,0,0,lat/long invalid;no date/time info;state assumed PA,NA
167,WPRDC,Allegheny_County_WIC_Vendor_Locations.xlsx,3054998,NA,Shop N Save,184 Rochester Road,Rochester Road,PA,15229,NA,NA,NA,NA,40.5198827,-80.0180795,Google,NA,NA,0,1,1,0,0,0,0,lat/long invalid;no date/time info;state assumed PA,NA
168,WPRDC,Allegheny_County_WIC_Vendor_Locations.xlsx,2844118,NA,Shop N Save,908 Little Deer Creek Valley Rd.,Russelton,PA,15076,NA,NA,NA,NA,40.6082302,-79.8331458,Google,NA,NA,0,1,1,0,0,0,0,lat/long invalid;no date/time info;state assumed PA,NA
169,WPRDC,Allegheny_County_WIC_Vendor_Locations.xlsx,2717654,NA,Shop N Save,1620 Babcock Blvd.,Shaler,PA,15209,NA,NA,NA,NA,40.4991215,-79.97897909999999,Google,NA,NA,0,1,1,0,0,0,0,lat/long invalid;no date/time info;state assumed PA,NA
170,WPRDC,Allegheny_County_WIC_Vendor_Locations.xlsx,2745608,NA,Shop N Save,3335 William Penn Highway,Wilkins Twp.,PA,15235,NA,NA,NA,NA,40.4328634,-79.81761039999999,Google,NA,NA,0,1,1,0,0,0,0,lat/long invalid;no date/time info;state assumed PA,NA
171,WPRDC,Allegheny_County_WIC_Vendor_Locations.xlsx,51225,NA,Shur Save,4401 Liberty Avenue,Bloomfield,PA,15224,NA,NA,NA,NA,40.4641807,-79.9522332,Google,NA,NA,0,1,1,0,0,0,0,lat/long invalid;no date/time info;state assumed PA,NA
172,WPRDC,Allegheny_County_WIC_Vendor_Locations.xlsx,2822613,NA,Target,6231 Penn Ave.,East Liberty,PA,15206,NA,NA,NA,NA,40.4609096,-79.9211941,Google,NA,NA,0,1,1,0,0,0,0,lat/long invalid;no date/time info;state assumed PA,NA
173,WPRDC,Allegheny_County_WIC_Vendor_Locations.xlsx,2773357,NA,Target,2661 Freeport Road,Harmarville,PA,15238,NA,NA,NA,NA,40.538314,-79.83653609999999,Google,NA,NA,0,1,1,0,0,0,0,lat/long invalid;no date/time info;state assumed PA,NA
174,WPRDC,Allegheny_County_WIC_Vendor_Locations.xlsx,2840342,NA,Target,360 East Waterfront Dr.,Homestead,PA,15120,NA,NA,NA,NA,40.4104359,-79.9099998,Google,NA,NA,0,1,1,0,0,0,0,lat/long invalid;no date/time info;state assumed PA,NA
175,WPRDC,Allegheny_County_WIC_Vendor_Locations.xlsx,2954381,NA,Target,4004 Monroeville Rd.,Monroeville,PA,15146,NA,NA,NA,NA,40.4245246,-79.7903887,Google,NA,NA,0,1,1,0,0,0,0,lat/long invalid;no date/time info;state assumed PA,NA
176,WPRDC,Allegheny_County_WIC_Vendor_Locations.xlsx,2776154,NA,Target,600 Chauvet Drive,Robinson,PA,15275,NA,NA,NA,NA,40.446427,-80.1834961,Google,NA,NA,0,1,1,0,0,0,0,lat/long invalid;no date/time info;state assumed PA,NA
177,WPRDC,Allegheny_County_WIC_Vendor_Locations.xlsx,91386,NA,Target,201 South Hills Village,South Hills Village,PA,15241,NA,NA,NA,NA,40.3423756,-80.0560528,Google,NA,NA,0,1,1,0,0,0,0,lat/long invalid;no date/time info;state assumed PA,NA
178,WPRDC,Allegheny_County_WIC_Vendor_Locations.xlsx,3148465,NA,Wal Mart,2200 Washington Pike,Carnegie,PA,15106,NA,NA,NA,NA,40.3868909,-80.0962669,Google,NA,NA,0,1,1,0,0,0,0,lat/long invalid;no date/time info;state assumed PA,NA
179,WPRDC,Allegheny_County_WIC_Vendor_Locations.xlsx,91410,NA,Wal Mart,4015 Freeport Road,Natrona Heights,PA,15065,NA,NA,NA,NA,40.6464068,-79.7114986,Google,NA,NA,0,1,1,0,0,0,0,lat/long invalid;no date/time info;state assumed PA,NA
180,WPRDC,Allegheny_County_WIC_Vendor_Locations.xlsx,2774136,NA,Wal Mart,250 Summit Park Drive,North Fayette,PA,15275,NA,NA,NA,NA,40.44695859999999,-80.17726220000002,Google,NA,NA,0,1,1,0,0,0,0,lat/long invalid;no date/time info;state assumed PA,NA
181,WPRDC,Allegheny_County_WIC_Vendor_Locations.xlsx,3159029,NA,Wal Mart,100 Wal Mart Drive,North Versailles,PA,15137,NA,NA,NA,NA,40.3869597,-79.8244217,Google,NA,NA,0,1,1,0,0,0,0,lat/long invalid;no date/time info;state assumed PA,NA
182,WPRDC,Allegheny_County_WIC_Vendor_Locations.xlsx,2890876,NA,Wal Mart,2010 Village Center Drive,Tarentum,PA,15084,NA,NA,NA,NA,40.5635848,-79.80380199999999,Google,NA,NA,0,1,1,0,0,0,0,lat/long invalid;no date/time info;state assumed PA,NA
183,WPRDC,Allegheny_County_WIC_Vendor_Locations.xlsx,3153451,NA,Wal Mart,2351 Century Drive,West Mifflin,PA,15122,NA,NA,NA,NA,40.3415049,-79.9462011,Google,NA,NA,0,1,1,0,0,0,0,lat/long invalid;no date/time info;state assumed PA,NA
184,USDA,PA.xlsx,NA,NA,CoGo's 1322,510 Station Street,BRIDGEVILLE,PA,15017,ALLEGHENY,NA,NA,NA,40.357666,-80.110374,agency,NA,NA,1,0,0,0,0,0,0,no type;no phone;no date/time info,NA
185,USDA,PA.xlsx,NA,NA,Market Fresh Meats,5 Crafton Sq,Pittsburgh,PA,15205,ALLEGHENY,NA,NA,NA,40.435497,-80.065086,agency,NA,NA,1,0,0,0,0,0,0,no type;no phone;no date/time info,NA
186,USDA,PA.xlsx,NA,NA,L E Corner Store,601 Lincoln Ave,East Liberty,PA,15206,ALLEGHENY,NA,NA,NA,40.461674,-79.90786,agency,NA,NA,1,0,0,0,0,0,0,no type;no phone;no date/time info,NA
187,USDA,PA.xlsx,NA,NA,Aldi 53,5159 Library Rd,Bethel Park,PA,15102,ALLEGHENY,NA,NA,NA,40.33485,-80.024025,agency,NA,NA,1,0,0,0,0,0,0,no type;no phone;no date/time info,NA
188,USDA,PA.xlsx,NA,NA,Isaly's 7020,537 E Ohio St,Pittsburgh,PA,15212,ALLEGHENY,NA,NA,NA,40.453705,-79.999367,agency,NA,NA,1,0,0,0,0,0,0,no type;no phone;no date/time info,NA
189,USDA,PA.xlsx,NA,NA,RITE AID 4682,100 William Marks Way,Munhall,PA,15120,ALLEGHENY,NA,NA,NA,40.409134,-79.901901,agency,NA,NA,1,0,0,0,0,0,0,no type;no phone;no date/time info,NA
190,USDA,PA.xlsx,NA,NA,RITE AID 0272,209 Atwood St,Pittsburgh,PA,15213,ALLEGHENY,NA,NA,NA,40.440754,-79.957176,agency,NA,NA,1,0,0,0,0,0,0,no type;no phone;no date/time info,NA
191,USDA,PA.xlsx,NA,NA,Rite Aid 1094,3210 Banksville Rd,Pittsburgh,PA,15216,ALLEGHENY,NA,NA,NA,40.399281,-80.044708,agency,NA,NA,1,0,0,0,0,0,0,no type;no phone;no date/time info,NA
192,USDA,PA.xlsx,NA,NA,RITE AID 4783,5100 Library Rd,Bethel Park,PA,15102,ALLEGHENY,NA,NA,NA,40.338581,-80.026169,agency,NA,NA,1,0,0,0,0,0,0,no type;no phone;no date/time info,NA
193,USDA,PA.xlsx,NA,NA,Rite Aid 4965,201 Grace St,Pittsburgh,PA,15211,ALLEGHENY,NA,NA,NA,40.430813,-80.010735,agency,NA,NA,1,0,0,0,0,0,0,no type;no phone;no date/time info,NA
194,USDA,PA.xlsx,NA,NA,RITE AID 0273,2300 Jane St,Pittsburgh,PA,15203,ALLEGHENY,NA,NA,NA,40.426464,-79.973183,agency,NA,NA,1,0,0,0,0,0,0,no type;no phone;no date/time info,NA
195,USDA,PA.xlsx,NA,NA,RITE AID 0268,5504 Walnut St,Pittsburgh,PA,15232,ALLEGHENY,NA,NA,NA,40.45118,-79.933617,agency,NA,NA,1,0,0,0,0,0,0,no type;no phone;no date/time info,NA
196,USDA,PA.xlsx,NA,NA,RITE AID 274,1700 Murray Ave,Pittsburgh,PA,15217,ALLEGHENY,NA,NA,NA,40.438061,-79.92305,agency,NA,NA,1,0,0,0,0,0,0,no type;no phone;no date/time info,NA
197,USDA,PA.xlsx,NA,NA,Rite Aid 1944,900 Mt Royal Blvd,Pittsburgh,PA,15223,ALLEGHENY,NA,NA,NA,40.515926,-79.959068,agency,NA,NA,1,0,0,0,0,0,0,no type;no phone;no date/time info,NA
198,USDA,PA.xlsx,NA,NA,RITE AID 1370,725 Lysle Blvd,McKeesport,PA,15132,ALLEGHENY,NA,NA,NA,40.3522,-79.857765,agency,NA,NA,1,0,0,0,0,0,0,no type;no phone;no date/time info,NA
199,USDA,PA.xlsx,NA,NA,Rite Aid 10949,5410 Keeport Dr,Pittsburgh,PA,15236,ALLEGHENY,NA,NA,NA,40.338249,-79.979202,agency,NA,NA,1,0,0,0,0,0,0,no type;no phone;no date/time info,NA
200,USDA,PA.xlsx,NA,NA,Ying Mart Inc T/A Uni-Mart,1926 Brownsville Rd,Pittsburgh,PA,15210,ALLEGHENY,NA,NA,NA,40.395294,-79.986877,agency,NA,NA,1,0,0,0,0,0,0,no type;no phone;no date/time info,NA
201,USDA,PA.xlsx,NA,NA,Uni-Mart,1181 Romine Ave,McKeesport,PA,15133,ALLEGHENY,NA,NA,NA,40.342293,-79.87133,agency,NA,NA,1,0,0,0,0,0,0,no type;no phone;no date/time info,NA
202,USDA,PA.xlsx,NA,NA,CVS Pharmacy 4103,355 LINCOLN AVE,PITTSBURGH,PA,15202,ALLEGHENY,NA,NA,NA,40.493916,-80.052246,agency,NA,NA,1,0,0,0,0,0,0,no type;no phone;no date/time info,NA
203,USDA,PA.xlsx,NA,NA,Walgreens 1034,112 W Steuben St,Crafton,PA,15205,ALLEGHENY,NA,NA,NA,40.438969,-80.072548,agency,NA,NA,1,0,0,0,0,0,0,no type;no phone;no date/time info,NA
204,USDA,PA.xlsx,NA,NA,Rite Aid 10942,410 Cooke Ln,Pittsburgh,PA,15234,ALLEGHENY,NA,NA,NA,40.370369,-80.032204,agency,NA,NA,1,0,0,0,0,0,0,no type;no phone;no date/time info,NA
205,USDA,PA.xlsx,NA,NA,Uni-Mart,852 5th Ave,Coraopolis,PA,15108,ALLEGHENY,NA,NA,NA,40.518505,-80.16713,agency,NA,NA,1,0,0,0,0,0,0,no type;no phone;no date/time info,NA
206,USDA,PA.xlsx,NA,NA,Rite Aid 10956,1121 Bower Hill Rd,Pittsburgh,PA,15243,ALLEGHENY,NA,NA,NA,40.375484,-80.069183,agency,NA,NA,1,0,0,0,0,0,0,no type;no phone;no date/time info,NA
207,USDA,PA.xlsx,NA,NA,A & M MARKET,5224 Penn Ave,Pittsburgh,PA,15224,ALLEGHENY,NA,NA,NA,40.464508,-79.93898,agency,NA,NA,1,0,0,0,0,0,0,no type;no phone;no date/time info,NA
208,USDA,PA.xlsx,NA,NA,ROCHESTER ROAD SHOP AND SAVE,84 Rochester Rd,Pittsburgh,PA,15229,ALLEGHENY,NA,NA,NA,40.521076,-80.026154,agency,NA,NA,1,0,0,0,0,0,0,no type;no phone;no date/time info,NA
209,USDA,PA.xlsx,NA,NA,Dollar General #8549,425 Perry Hwy,West View,PA,15229,ALLEGHENY,NA,NA,NA,40.519135,-80.03228,agency,NA,NA,1,0,0,0,0,0,0,no type;no phone;no date/time info,NA
210,USDA,PA.xlsx,NA,NA,"Super Stop Convenience Store, Inc.",430 Kenmawr Ave,Rankin,PA,15104,ALLEGHENY,NA,NA,NA,40.41177,-79.876472,agency,NA,NA,1,0,0,0,0,0,0,no type;no phone;no date/time info,NA
211,USDA,PA.xlsx,NA,NA,Getgo 3487,801 Mount Royal Blvd,Pittsburgh,PA,15223,ALLEGHENY,NA,NA,NA,40.514282,-79.959183,agency,NA,NA,1,0,0,0,0,0,0,no type;no phone;no date/time info,NA
212,USDA,PA.xlsx,NA,NA,Getgo 3488,5603 Babcock Blvd,Pittsburgh,PA,15237,ALLEGHENY,NA,NA,NA,40.54697,-80.028976,agency,NA,NA,1,0,0,0,0,0,0,no type;no phone;no date/time info,NA
213,USDA,PA.xlsx,NA,NA,Get Go 3476,800 Allegheny River Blvd,Verona,PA,15147,ALLEGHENY,NA,NA,NA,40.506878,-79.842865,agency,NA,NA,1,0,0,0,0,0,0,no type;no phone;no date/time info,NA
214,USDA,PA.xlsx,NA,NA,Getgo 3616,3601 Saw Mill Run Blvd,Pittsburgh,PA,15227,ALLEGHENY,NA,NA,NA,40.372643,-79.981911,agency,NA,NA,1,0,0,0,0,0,0,no type;no phone;no date/time info,NA
215,USDA,PA.xlsx,NA,NA,Target Store 1253,360 E WATERFORD DR,Homestead,PA,15120,ALLEGHENY,NA,NA,NA,40.403133,-79.906471,agency,NA,NA,1,0,0,0,0,0,0,no type;no phone;no date/time info,NA
216,USDA,PA.xlsx,NA,NA,Target Store 1217,600 Chauvet Dr,Pittsburgh,PA,15275,ALLEGHENY,NA,NA,NA,40.447014,-80.182732,agency,NA,NA,1,0,0,0,0,0,0,no type;no phone;no date/time info,NA
217,USDA,PA.xlsx,NA,NA,Target Store 1218,9805 MCKNIGHT RD 2,Pittsburgh,PA,15237,ALLEGHENY,NA,NA,NA,40.585663,-80.036606,agency,NA,NA,1,0,0,0,0,0,0,no type;no phone;no date/time info,NA
218,USDA,PA.xlsx,NA,NA,Target Store 1219,4004 Monroeville Blvd,Monroeville,PA,15146,ALLEGHENY,NA,NA,NA,40.435696,-79.770859,agency,NA,NA,1,0,0,0,0,0,0,no type;no phone;no date/time info,NA
219,USDA,PA.xlsx,NA,NA,Dollar General 10203,315 Cochran Rd,Pittsburgh,PA,15228,ALLEGHENY,NA,NA,NA,40.381538,-80.052536,agency,NA,NA,1,0,0,0,0,0,0,no type;no phone;no date/time info,NA
220,USDA,PA.xlsx,NA,NA,Dollar General #8103,75 Noble Ave,Crafton,PA,15205,ALLEGHENY,NA,NA,NA,40.433815,-80.066353,agency,NA,NA,1,0,0,0,0,0,0,no type;no phone;no date/time info,NA
221,USDA,PA.xlsx,NA,NA,Dollar General 2643,500 Pine Hollow Rd. A,McKees Rocks,PA,15136,ALLEGHENY,NA,NA,NA,40.469936,-80.076576,agency,NA,NA,1,0,0,0,0,0,0,no type;no phone;no date/time info,NA
222,USDA,PA.xlsx,NA,NA,KUHN'S MARKET,745 W. Ingomar Road,Ingomar,PA,15127,ALLEGHENY,NA,NA,NA,40.581478,-80.055283,agency,NA,NA,1,0,0,0,0,0,0,no type;no phone;no date/time info,NA
223,USDA,PA.xlsx,NA,NA,Dollar General 10277,1695 McFarland Rd,Pittsburgh,PA,15216,ALLEGHENY,NA,NA,NA,40.395996,-80.046486,agency,NA,NA,1,0,0,0,0,0,0,no type;no phone;no date/time info,NA
224,USDA,PA.xlsx,NA,NA,RITE AID 1589,6375 Library Rd,South Park,PA,15129,ALLEGHENY,NA,NA,NA,40.289986,-80.027809,agency,NA,NA,1,0,0,0,0,0,0,no type;no phone;no date/time info,NA
225,USDA,PA.xlsx,NA,NA,RITE AID 3571,103 W Allegheny Rd,Imperial,PA,15126,ALLEGHENY,NA,NA,NA,40.441845,-80.239136,agency,NA,NA,1,0,0,0,0,0,0,no type;no phone;no date/time info,NA
226,USDA,PA.xlsx,NA,NA,LA GROCERY WEST INDIAN AMERICAN,511 Larimer Ave,Pittsburgh,PA,15206,ALLEGHENY,NA,NA,NA,40.465477,-79.914131,agency,NA,NA,1,0,0,0,0,0,0,no type;no phone;no date/time info,NA
227,USDA,PA.xlsx,NA,NA,RITE AID 1925,210 9th St,Glassport,PA,15045,ALLEGHENY,NA,NA,NA,40.320995,-79.892296,agency,NA,NA,1,0,0,0,0,0,0,no type;no phone;no date/time info,NA
228,USDA,PA.xlsx,NA,NA,RITE AID 2482,300 Market St,Elizabeth,PA,15037,ALLEGHENY,NA,NA,NA,40.272511,-79.88633,agency,NA,NA,1,0,0,0,0,0,0,no type;no phone;no date/time info,NA
229,USDA,PA.xlsx,NA,NA,DOLLAR TREE 142,1759 S Braddock Ave,Pittsburgh,PA,15218,ALLEGHENY,NA,NA,NA,40.424519,-79.887764,agency,NA,NA,1,0,0,0,0,0,0,no type;no phone;no date/time info,NA
230,USDA,PA.xlsx,NA,NA,DOLLAR TREE 258,12 Federal Dr,Pittsburgh,PA,15235,ALLEGHENY,NA,NA,NA,40.464207,-79.82666,agency,NA,NA,1,0,0,0,0,0,0,no type;no phone;no date/time info,NA
231,USDA,PA.xlsx,NA,NA,Getgo 3128,5381 Library Rd,Bethel Park,PA,15102,ALLEGHENY,NA,NA,NA,40.327724,-80.024467,agency,NA,NA,1,0,0,0,0,0,0,no type;no phone;no date/time info,NA
232,USDA,PA.xlsx,NA,NA,DOLLAR TREE 2103,1030 W View Park Dr,Pittsburgh,PA,15229,ALLEGHENY,NA,NA,NA,40.517517,-80.037987,agency,NA,NA,1,0,0,0,0,0,0,no type;no phone;no date/time info,NA
233,USDA,PA.xlsx,NA,NA,DOLLAR EAGLE DISCOUNTS,1552 Beechview Ave,Pittsburgh,PA,15216,ALLEGHENY,NA,NA,NA,40.411846,-80.024895,agency,NA,NA,1,0,0,0,0,0,0,no type;no phone;no date/time info,NA
234,USDA,PA.xlsx,NA,NA,CVS PHARMACY 7611,4849 William Flynn Hwy,Allison Park,PA,15101,ALLEGHENY,NA,NA,NA,40.599445,-79.947502,agency,NA,NA,1,0,0,0,0,0,0,no type;no phone;no date/time info,NA
235,USDA,PA.xlsx,NA,NA,CVS PHARMACY INC 3999,401 Chestnut St,Carnegie,PA,15106,ALLEGHENY,NA,NA,NA,40.41008,-80.082382,agency,NA,NA,1,0,0,0,0,0,0,no type;no phone;no date/time info,NA
236,USDA,PA.xlsx,NA,NA,CVS PHARMACY INC 4002,70 W Steuben St,Pittsburgh,PA,15205,ALLEGHENY,NA,NA,NA,40.438564,-80.07032,agency,NA,NA,1,0,0,0,0,0,0,no type;no phone;no date/time info,NA
237,USDA,PA.xlsx,NA,NA,WALGREENS 09345,10707 Frankstown Rd,Pittsburgh,PA,15235,ALLEGHENY,NA,NA,NA,40.460594,-79.84214,agency,NA,NA,1,0,0,0,0,0,0,no type;no phone;no date/time info,NA
238,USDA,PA.xlsx,NA,NA,Sheetz 379,9002 University Blvd,Moon Township,PA,15108,ALLEGHENY,NA,NA,NA,40.503254,-80.222305,agency,NA,NA,1,0,0,0,0,0,0,no type;no phone;no date/time info,NA
239,USDA,PA.xlsx,NA,NA,CASTLE SHANNON SHOP N SAVE,799 Castle Shannon Blvd,Pittsburgh,PA,15234,ALLEGHENY,NA,NA,NA,40.368637,-80.028931,agency,NA,NA,1,0,0,0,0,0,0,no type;no phone;no date/time info,NA
240,USDA,PA.xlsx,NA,NA,IMPERIAL SHOP N SAVE,600 Market Place Dr,Oakdale,PA,15071,ALLEGHENY,NA,NA,NA,40.440285,-80.239944,agency,NA,NA,1,0,0,0,0,0,0,no type;no phone;no date/time info,NA
241,USDA,PA.xlsx,NA,NA,Walmart 3838,2010 Village Center Dr,Tarentum,PA,15084,ALLEGHENY,NA,NA,NA,40.562939,-79.803284,agency,NA,NA,1,0,0,0,0,0,0,no type;no phone;no date/time info,NA
242,USDA,PA.xlsx,NA,NA,KUHNS MARKET,4801 McKnight Rd,Pittsburgh,PA,15237,ALLEGHENY,NA,NA,NA,40.528229,-80.007042,agency,NA,NA,1,0,0,0,0,0,0,no type;no phone;no date/time info,NA
243,USDA,PA.xlsx,NA,NA,Kiev International Food,4223 Murray Ave,Pittsburgh,PA,15217,ALLEGHENY,NA,NA,NA,40.422482,-79.928818,agency,NA,NA,1,0,0,0,0,0,0,no type;no phone;no date/time info,NA
244,USDA,PA.xlsx,NA,NA,Century Square Shop N Save,2381 Mountain View Dr,West Mifflin,PA,15122,ALLEGHENY,NA,NA,NA,40.346218,-79.943558,agency,NA,NA,1,0,0,0,0,0,0,no type;no phone;no date/time info,NA
245,USDA,PA.xlsx,NA,NA,Dollar Tree 0203,1155 Washington Pike Ste 49,Bridgeville,PA,15017,ALLEGHENY,NA,NA,NA,40.368584,-80.102608,agency,NA,NA,1,0,0,0,0,0,0,no type;no phone;no date/time info,NA
246,USDA,PA.xlsx,NA,NA,DOLLAR TREE 1275,110 Walmart Dr,N Versailles,PA,15137,ALLEGHENY,NA,NA,NA,40.385948,-79.822449,agency,NA,NA,1,0,0,0,0,0,0,no type;no phone;no date/time info,NA
247,USDA,PA.xlsx,NA,NA,GLENSHAW SHOP N SAVE,917 Butler St,Pittsburgh,PA,15223,ALLEGHENY,NA,NA,NA,40.511703,-79.948013,agency,NA,NA,1,0,0,0,0,0,0,no type;no phone;no date/time info,NA
248,USDA,PA.xlsx,NA,NA,Sheetz 376,1000 Clairton Blvd,Pittsburgh,PA,15236,ALLEGHENY,NA,NA,NA,40.320313,-79.941917,agency,NA,NA,1,0,0,0,0,0,0,no type;no phone;no date/time info,NA
249,USDA,PA.xlsx,NA,NA,Noblestown Rd. Shop N Save,2103 Noblestown Rd,Pittsburgh,PA,15205,ALLEGHENY,NA,NA,NA,40.432098,-80.052467,agency,NA,NA,1,0,0,0,0,0,0,no type;no phone;no date/time info,NA
250,USDA,PA.xlsx,NA,NA,SALIMS MIDDLE EASTERN FOODS,4705 Centre Ave,Pittsburgh,PA,15213,ALLEGHENY,NA,NA,NA,40.452717,-79.949356,agency,NA,NA,1,0,0,0,0,0,0,no type;no phone;no date/time info,NA
251,USDA,PA.xlsx,NA,NA,TARGET STORES 2077,288 Mt Nebo Pointe Rd,Pittsburgh,PA,15237,ALLEGHENY,NA,NA,NA,40.535103,-80.067467,agency,NA,NA,1,0,0,0,0,0,0,no type;no phone;no date/time info,NA
252,USDA,PA.xlsx,NA,NA,Mish Farms Meat Market Inc.,80 Oak Rd,Gibsonia,PA,15044,ALLEGHENY,NA,NA,NA,40.622093,-79.900826,agency,NA,NA,1,0,0,0,0,0,0,no type;no phone;no date/time info,NA
253,USDA,PA.xlsx,NA,NA,Heidelberg Shop N Save,2100 Washington Pike,Carnegie,PA,15106,ALLEGHENY,NA,NA,NA,40.386105,-80.092674,agency,NA,NA,1,0,0,0,0,0,0,no type;no phone;no date/time info,NA
254,USDA,PA.xlsx,NA,NA,New Youngs Oriental Market,5813 Forward Ave,Pittsburgh,PA,15217,ALLEGHENY,NA,NA,NA,40.429745,-79.923035,agency,NA,NA,1,0,0,0,0,0,0,no type;no phone;no date/time info,NA
255,USDA,PA.xlsx,NA,NA,HAPPY MINI MART,512 E Pittsburgh McKeesport Blvd,N Versailles,PA,15137,ALLEGHENY,NA,NA,NA,40.36937,-79.830437,agency,NA,NA,1,0,0,0,0,0,0,no type;no phone;no date/time info,NA
256,USDA,PA.xlsx,NA,NA,European Mkt and Grill,4140 Saw Mill Run Blvd,Pittsburgh,PA,15227,ALLEGHENY,NA,NA,NA,40.366405,-79.984512,agency,NA,NA,1,0,0,0,0,0,0,no type;no phone;no date/time info,NA
257,USDA,PA.xlsx,NA,NA,Getgo 3106,408 Penn Ave,Wilkinsburg,PA,15221,ALLEGHENY,NA,NA,NA,40.44521,-79.889519,agency,NA,NA,1,0,0,0,0,0,0,no type;no phone;no date/time info,NA
258,USDA,PA.xlsx,NA,NA,CVS PHARMACY INC 4369,4610 Centre Ave,Pittsburgh,PA,15213,ALLEGHENY,NA,NA,NA,40.451984,-79.951614,agency,NA,NA,1,0,0,0,0,0,0,no type;no phone;no date/time info,NA
259,USDA,PA.xlsx,NA,NA,Dollar General 10426,995 Greensburg Pike,E Pittsburgh,PA,15112,ALLEGHENY,NA,NA,NA,40.416763,-79.839432,agency,NA,NA,1,0,0,0,0,0,0,no type;no phone;no date/time info,NA
260,USDA,PA.xlsx,NA,NA,CoGo's 811,314 Scenery Dr,Elizabeth,PA,15037,ALLEGHENY,NA,NA,NA,40.277592,-79.837364,agency,NA,NA,1,0,0,0,0,0,0,no type;no phone;no date/time info,NA
261,USDA,PA.xlsx,NA,NA,CoGo's 820,2880 Brownsville Rd,South Park,PA,15129,ALLEGHENY,NA,NA,NA,40.289303,-79.996994,agency,NA,NA,1,0,0,0,0,0,0,no type;no phone;no date/time info,NA
262,USDA,PA.xlsx,NA,NA,CoGo's 329,1050 Brinton Rd,Pittsburgh,PA,15221,ALLEGHENY,NA,NA,NA,40.426346,-79.871681,agency,NA,NA,1,0,0,0,0,0,0,no type;no phone;no date/time info,NA
263,USDA,PA.xlsx,NA,NA,WALGREENS 09674,133 W 8th Ave,Homestead,PA,15120,ALLEGHENY,NA,NA,NA,40.405575,-79.912804,agency,NA,NA,1,0,0,0,0,0,0,no type;no phone;no date/time info,NA
264,USDA,PA.xlsx,NA,NA,WALGREENS 09281,5956 Penn Cir S Ste 1,Pittsburgh,PA,15206,ALLEGHENY,NA,NA,NA,40.459324,-79.926811,agency,NA,NA,1,0,0,0,0,0,0,no type;no phone;no date/time info,NA
265,USDA,PA.xlsx,NA,NA,R&M VARIETY STORE,1739 Pennsylvania Ave,West Mifflin,PA,15122,ALLEGHENY,NA,NA,NA,40.362057,-79.861015,agency,NA,NA,1,0,0,0,0,0,0,no type;no phone;no date/time info,NA
266,USDA,PA.xlsx,NA,NA,Walgreens 9675,6201 Saltsburg Rd,Pittsburgh,PA,15235,ALLEGHENY,NA,NA,NA,40.48502,-79.817833,agency,NA,NA,1,0,0,0,0,0,0,no type;no phone;no date/time info,NA
267,USDA,PA.xlsx,NA,NA,DOLLAR TREE 0228,1360 Park Manor Blvd,Pittsburgh,PA,15205,ALLEGHENY,NA,NA,NA,40.451958,-80.163704,agency,NA,NA,1,0,0,0,0,0,0,no type;no phone;no date/time info,NA
268,USDA,PA.xlsx,NA,NA,Olympia Shop N Save,4313 Walnut St,McKeesport,PA,15132,ALLEGHENY,NA,NA,NA,40.321171,-79.836456,agency,NA,NA,1,0,0,0,0,0,0,no type;no phone;no date/time info,NA
269,USDA,PA.xlsx,NA,NA,Aldi 56,2348 Ardmore Blvd,Pittsburgh,PA,15221,ALLEGHENY,NA,NA,NA,40.416534,-79.848167,agency,NA,NA,1,0,0,0,0,0,0,no type;no phone;no date/time info,NA
270,USDA,PA.xlsx,NA,NA,Quick Stop,3349 Liberty Ave,Pittsburgh,PA,15201,ALLEGHENY,NA,NA,NA,40.461678,-79.966484,agency,NA,NA,1,0,0,0,0,0,0,no type;no phone;no date/time info,NA
271,USDA,PA.xlsx,NA,NA,Trader Joe's 638,6343 Penn Ave,Pittsburgh,PA,15206,ALLEGHENY,NA,NA,NA,40.458904,-79.919426,agency,NA,NA,1,0,0,0,0,0,0,no type;no phone;no date/time info,NA
272,USDA,PA.xlsx,NA,NA,Target 2201,4801 McKnight Rd Ste 3,Pittsburgh,PA,15237,ALLEGHENY,NA,NA,NA,40.528229,-80.007042,agency,NA,NA,1,0,0,0,0,0,0,no type;no phone;no date/time info,NA
273,USDA,PA.xlsx,NA,NA,Gordon Food Service Store LLC,510 Clairton Blvd,Pittsburgh,PA,15236,ALLEGHENY,NA,NA,NA,40.333809,-79.946472,agency,NA,NA,1,0,0,0,0,0,0,no type;no phone;no date/time info,NA
274,USDA,PA.xlsx,NA,NA,Gordon Food Service Store LLC,3620 William Penn Hwy,Monroeville,PA,15146,ALLEGHENY,NA,NA,NA,40.432182,-79.801254,agency,NA,NA,1,0,0,0,0,0,0,no type;no phone;no date/time info,NA
275,USDA,PA.xlsx,NA,NA,RITE AID 3412,1800 Morningside Ave,Pittsburgh,PA,15206,ALLEGHENY,NA,NA,NA,40.486668,-79.926949,agency,NA,NA,1,0,0,0,0,0,0,no type;no phone;no date/time info,NA
276,USDA,PA.xlsx,NA,NA,Wilkinsburg Save A Lot,725 Ross Ave,Wilkinsburg,PA,15221,ALLEGHENY,NA,NA,NA,40.442696,-79.88443,agency,NA,NA,1,0,0,0,0,0,0,no type;no phone;no date/time info,NA
277,USDA,PA.xlsx,NA,NA,WALGREENS 09803,324 Hulton Rd,Oakmont,PA,15139,ALLEGHENY,NA,NA,NA,40.525734,-79.841568,agency,NA,NA,1,0,0,0,0,0,0,no type;no phone;no date/time info,NA
278,USDA,PA.xlsx,NA,NA,South Park Sunoco,5660 Brownsville Rd,Pittsburgh,PA,15236,ALLEGHENY,NA,NA,NA,40.330959,-79.987129,agency,NA,NA,1,0,0,0,0,0,0,no type;no phone;no date/time info,NA
279,USDA,PA.xlsx,NA,NA,Dollar General 10875,5032 William Penn Hwy,Monroeville,PA,15146,ALLEGHENY,NA,NA,NA,40.428741,-79.707176,agency,NA,NA,1,0,0,0,0,0,0,no type;no phone;no date/time info,NA
280,USDA,PA.xlsx,NA,NA,North Versailles Save A Lot,355 Lincoln Hwy,N Versailles,PA,15137,ALLEGHENY,NA,NA,NA,40.381916,-79.818733,agency,NA,NA,1,0,0,0,0,0,0,no type;no phone;no date/time info,NA
281,USDA,PA.xlsx,NA,NA,CoGo's 1808,1001 Brookline Blvd,Pittsburgh,PA,15226,ALLEGHENY,NA,NA,NA,40.392017,-80.01741,agency,NA,NA,1,0,0,0,0,0,0,no type;no phone;no date/time info,NA
282,USDA,PA.xlsx,NA,NA,Sunoco - A Plus 7501 7501,30 Center St,East Pittsburgh,PA,15112,ALLEGHENY,NA,NA,NA,40.396324,-79.846573,agency,NA,NA,1,0,0,0,0,0,0,no type;no phone;no date/time info,NA
283,USDA,PA.xlsx,NA,NA,Giant Eagle 5103,2611 Freeport Rd,Pittsburgh,PA,15238,ALLEGHENY,NA,NA,NA,40.537529,-79.836693,agency,NA,NA,1,0,0,0,0,0,0,no type;no phone;no date/time info,NA
284,USDA,PA.xlsx,NA,NA,Rite Aid 4419,1529 Freeport Rd,Natrona Heights,PA,15065,ALLEGHENY,NA,NA,NA,40.62067,-79.729126,agency,NA,NA,1,0,0,0,0,0,0,no type;no phone;no date/time info,NA
285,USDA,PA.xlsx,NA,NA,A & E Deli,105 Brownsville Rd,Pittsburgh,PA,15210,ALLEGHENY,NA,NA,NA,40.417347,-79.986526,agency,NA,NA,1,0,0,0,0,0,0,no type;no phone;no date/time info,NA
286,USDA,PA.xlsx,NA,NA,Strip District Meats,2121 Penn Ave,Pittsburgh,PA,15222,ALLEGHENY,NA,NA,NA,40.452065,-79.98262,agency,NA,NA,1,0,0,0,0,0,0,no type;no phone;no date/time info,NA
287,USDA,PA.xlsx,NA,NA,Ednas Market & Deli,529 Mount Pleasant Rd,Pittsburgh,PA,15214,ALLEGHENY,NA,NA,NA,40.47776,-80.000168,agency,NA,NA,1,0,0,0,0,0,0,no type;no phone;no date/time info,NA
288,USDA,PA.xlsx,NA,NA,Target Stores 2262,550 Grandview Crossing Dr,Gibsonia,PA,15044,ALLEGHENY,NA,NA,NA,40.641586,-79.939644,agency,NA,NA,1,0,0,0,0,0,0,no type;no phone;no date/time info,NA
289,USDA,PA.xlsx,NA,NA,Stanton Negley Drug Company,804 N Negley Ave,Pittsburgh,PA,15206,ALLEGHENY,NA,NA,NA,40.471687,-79.926163,agency,NA,NA,1,0,0,0,0,0,0,no type;no phone;no date/time info,NA
290,USDA,PA.xlsx,NA,NA,Broadway Dairy Mart,412 Broadway Ave,McKees Rocks,PA,15136,ALLEGHENY,NA,NA,NA,40.469074,-80.068832,agency,NA,NA,1,0,0,0,0,0,0,no type;no phone;no date/time info,NA
291,USDA,PA.xlsx,NA,NA,GetGo 3172,1081 Freeport Rd,Pittsburgh,PA,15238,ALLEGHENY,NA,NA,NA,40.487457,-79.883537,agency,NA,NA,1,0,0,0,0,0,0,no type;no phone;no date/time info,NA
292,USDA,PA.xlsx,NA,NA,GetGo 3691,4099 Grandview Dr,Gibsonia,PA,15044,ALLEGHENY,NA,NA,NA,40.642238999999996,-79.937866,agency,NA,NA,1,0,0,0,0,0,0,no type;no phone;no date/time info,NA
293,USDA,PA.xlsx,NA,NA,Walgreens 09043,1701 William Flynn Hwy,Glenshaw,PA,15116,ALLEGHENY,NA,NA,NA,40.538826,-79.962555,agency,NA,NA,1,0,0,0,0,0,0,no type;no phone;no date/time info,NA
294,USDA,PA.xlsx,NA,NA,Rite Aid 7924,2270 Noblestown Rd,Pittsburgh,PA,15205,ALLEGHENY,NA,NA,NA,40.428047,-80.053696,agency,NA,NA,1,0,0,0,0,0,0,no type;no phone;no date/time info,NA
295,USDA,PA.xlsx,NA,NA,Penn Aiken Dairy,5401 Penn Ave,Pittsburgh,PA,15206,ALLEGHENY,NA,NA,NA,40.464718,-79.936203,agency,NA,NA,1,0,0,0,0,0,0,no type;no phone;no date/time info,NA
296,USDA,PA.xlsx,NA,NA,Blue Eagle Market,726 Broadway Ave,MC Kees Rocks,PA,15136,ALLEGHENY,NA,NA,NA,40.472816,-80.074203,agency,NA,NA,1,0,0,0,0,0,0,no type;no phone;no date/time info,NA
297,USDA,PA.xlsx,NA,NA,Walgreens 09736,4885 McKnight Rd Ste 7,Pittsburgh,PA,15237,ALLEGHENY,NA,NA,NA,40.529381,-80.008751,agency,NA,NA,1,0,0,0,0,0,0,no type;no phone;no date/time info,NA
298,USDA,PA.xlsx,NA,NA,Walgreens 10282,30 Pine Creek Rd,Wexford,PA,15090,ALLEGHENY,NA,NA,NA,40.586784,-80.043983,agency,NA,NA,1,0,0,0,0,0,0,no type;no phone;no date/time info,NA
299,USDA,PA.xlsx,NA,NA,Gordon Food Service Store LLC MP 136,1 Urbano Way,Pittsburgh,PA,15205,ALLEGHENY,NA,NA,NA,40.457901,-80.166237,agency,NA,NA,1,0,0,0,0,0,0,no type;no phone;no date/time info,NA
300,USDA,PA.xlsx,NA,NA,Aldi 69,8000 McKnight Rd,Pittsburgh,PA,15237,ALLEGHENY,NA,NA,NA,40.550568,-80.01918,agency,NA,NA,1,0,0,0,0,0,0,no type;no phone;no date/time info,NA
301,USDA,PA.xlsx,NA,NA,In & Out Corner Market,300 Helen St,MC Kees Rocks,PA,15136,ALLEGHENY,NA,NA,NA,40.473999,-80.057259,agency,NA,NA,1,0,0,0,0,0,0,no type;no phone;no date/time info,NA
302,USDA,PA.xlsx,NA,NA,GIBSONIA GIANT EAGLE,400 Northtowne Sq,Gibsonia,PA,15044,ALLEGHENY,NA,NA,NA,40.635731,-79.941368,agency,NA,NA,1,0,0,0,0,0,0,no type;no phone;no date/time info,NA
303,USDA,PA.xlsx,NA,NA,Walmart 3738,100 Highlands Mall,Natrona Heights,PA,15065,ALLEGHENY,NA,NA,NA,40.646206,-79.712196,agency,NA,NA,1,0,0,0,0,0,0,no type;no phone;no date/time info,NA
304,USDA,PA.xlsx,NA,NA,Unimart,748 Brownsville Rd,Pittsburgh,PA,15210,ALLEGHENY,NA,NA,NA,40.408554,-79.991226,agency,NA,NA,1,0,0,0,0,0,0,no type;no phone;no date/time info,NA
305,USDA,PA.xlsx,NA,NA,Target Stores 2385,2661 Freeport Rd,Pittsburgh,PA,15238,ALLEGHENY,NA,NA,NA,40.537399,-79.837234,agency,NA,NA,1,0,0,0,0,0,0,no type;no phone;no date/time info,NA
306,USDA,PA.xlsx,NA,NA,Dollar Tree 236,240 Mount Nebo Pointe Rd,Pittsburgh,PA,15237,ALLEGHENY,NA,NA,NA,40.535011,-80.064651,agency,NA,NA,1,0,0,0,0,0,0,no type;no phone;no date/time info,NA
307,USDA,PA.xlsx,NA,NA,Dollar Tree 1831,400 Walmart Dr # B1,Gibsonia,PA,15044,ALLEGHENY,NA,NA,NA,40.62225,-79.944115,agency,NA,NA,1,0,0,0,0,0,0,no type;no phone;no date/time info,NA
308,USDA,PA.xlsx,NA,NA,Kuhn s Market,700 Beulah Rd,Turtle Creek,PA,15145,ALLEGHENY,NA,NA,NA,40.426727,-79.835388,agency,NA,NA,1,0,0,0,0,0,0,no type;no phone;no date/time info,NA
309,USDA,PA.xlsx,NA,NA,Dollar Tree 218,1099 Mountain View Dr,West Mifflin,PA,15122,ALLEGHENY,NA,NA,NA,40.3461,-79.946579,agency,NA,NA,1,0,0,0,0,0,0,no type;no phone;no date/time info,NA
310,USDA,PA.xlsx,NA,NA,Dollar Tree 3810,28 Highlands Mall,Natrona Heights,PA,15065,ALLEGHENY,NA,NA,NA,40.646248,-79.71022,agency,NA,NA,1,0,0,0,0,0,0,no type;no phone;no date/time info,NA
311,USDA,PA.xlsx,NA,NA,Walgreens 10917,6906 University Blvd,Coraopolis,PA,15108,ALLEGHENY,NA,NA,NA,40.517277,-80.220886,agency,NA,NA,1,0,0,0,0,0,0,no type;no phone;no date/time info,NA
312,USDA,PA.xlsx,NA,NA,New Big Toms Corner Store,1300 Woodland Ave,Pittsburgh,PA,15212,ALLEGHENY,NA,NA,NA,40.469124,-80.030113,agency,NA,NA,1,0,0,0,0,0,0,no type;no phone;no date/time info,NA
313,USDA,PA.xlsx,NA,NA,BP Food Mart,231 5th Ave,McKeesport,PA,15132,ALLEGHENY,NA,NA,NA,40.350956,-79.865456,agency,NA,NA,1,0,0,0,0,0,0,no type;no phone;no date/time info,NA
314,USDA,PA.xlsx,NA,NA,Dollar Tree 4019,100 Allegheny River Blvd,Verona,PA,15147,ALLEGHENY,NA,NA,NA,40.50045,-79.843262,agency,NA,NA,1,0,0,0,0,0,0,no type;no phone;no date/time info,NA
315,USDA,PA.xlsx,NA,NA,Bailie Food Mart,2316 Bailey Ave,McKeesport,PA,15132,ALLEGHENY,NA,NA,NA,40.341465,-79.849228,agency,NA,NA,1,0,0,0,0,0,0,no type;no phone;no date/time info,NA
316,USDA,PA.xlsx,NA,NA,Walgreens 09950,2055 Washington Pke,Carnegie,PA,15106,ALLEGHENY,NA,NA,NA,40.387852,-80.090454,agency,NA,NA,1,0,0,0,0,0,0,no type;no phone;no date/time info,NA
317,USDA,PA.xlsx,NA,NA,Kolos International Food Store,114 E Main St,Carnegie,PA,15106,ALLEGHENY,NA,NA,NA,40.407578,-80.086418,agency,NA,NA,1,0,0,0,0,0,0,no type;no phone;no date/time info,NA
318,USDA,PA.xlsx,NA,NA,Sunoco 7485,4779 Liberty Ave,Pittsburgh,PA,15224,ALLEGHENY,NA,NA,NA,40.460827,-79.947472,agency,NA,NA,1,0,0,0,0,0,0,no type;no phone;no date/time info,NA
319,USDA,PA.xlsx,NA,NA,Sunoco 7508,1001 Washington Pike,Bridgeville,PA,15017,ALLEGHENY,NA,NA,NA,40.366184,-80.106964,agency,NA,NA,1,0,0,0,0,0,0,no type;no phone;no date/time info,NA
320,USDA,PA.xlsx,NA,NA,Sunoco 7517,3299 Saw Mill Run Blvd,Pittsburgh,PA,15227,ALLEGHENY,NA,NA,NA,40.375759,-79.983582,agency,NA,NA,1,0,0,0,0,0,0,no type;no phone;no date/time info,NA
321,USDA,PA.xlsx,NA,NA,Fa s Market,623 Jones Ave,Braddock,PA,15104,ALLEGHENY,NA,NA,NA,40.403996,-79.862175,agency,NA,NA,1,0,0,0,0,0,0,no type;no phone;no date/time info,NA
322,USDA,PA.xlsx,NA,NA,Sam's Club 4952,2000 Village Center Dr,Tarentum,PA,15084,ALLEGHENY,NA,NA,NA,40.566074,-79.802132,agency,NA,NA,1,0,0,0,0,0,0,no type;no phone;no date/time info,NA
323,USDA,PA.xlsx,NA,NA,Sam's Club 6575,249 Summit Park Dr,Pittsburgh,PA,15275,ALLEGHENY,NA,NA,NA,40.448364,-80.177429,agency,NA,NA,1,0,0,0,0,0,0,no type;no phone;no date/time info,NA
324,USDA,PA.xlsx,NA,NA,Sam's Club 6677,3621 William Penn Hwy,Monroeville,PA,15146,ALLEGHENY,NA,NA,NA,40.432884,-79.799576,agency,NA,NA,1,0,0,0,0,0,0,no type;no phone;no date/time info,NA
325,USDA,PA.xlsx,NA,NA,Sam's Club 6678,289 Nebo Point Dr,Pittsburgh,PA,15237,ALLEGHENY,NA,NA,NA,40.535046,-80.067459,agency,NA,NA,1,0,0,0,0,0,0,no type;no phone;no date/time info,NA
326,USDA,PA.xlsx,NA,NA,Sam's Club 6679,2251 Century Dr,West Mifflin,PA,15122,ALLEGHENY,NA,NA,NA,40.344086,-79.94738,agency,NA,NA,1,0,0,0,0,0,0,no type;no phone;no date/time info,NA
327,USDA,PA.xlsx,NA,NA,Giant Eagle 43,155 Towne Centre Dr,Wexford,PA,15090,ALLEGHENY,NA,NA,NA,40.631577,-80.05455,agency,NA,NA,1,0,0,0,0,0,0,no type;no phone;no date/time info,NA
328,USDA,PA.xlsx,NA,NA,Walgreens 10345,7628 Penn Ave,Pittsburgh,PA,15221,ALLEGHENY,NA,NA,NA,40.447014,-79.894867,agency,NA,NA,1,0,0,0,0,0,0,no type;no phone;no date/time info,NA
329,USDA,PA.xlsx,NA,NA,Trail View,209 Industry Rd,Buena Vista,PA,15018,ALLEGHENY,NA,NA,NA,40.272404,-79.79776,agency,NA,NA,1,0,0,0,0,0,0,no type;no phone;no date/time info,NA
330,USDA,PA.xlsx,NA,NA,Aldi 73,114 McKees Rocks Plz,MC Kees Rocks,PA,15136,ALLEGHENY,NA,NA,NA,40.464664,-80.057556,agency,NA,NA,1,0,0,0,0,0,0,no type;no phone;no date/time info,NA
331,USDA,PA.xlsx,NA,NA,Market Outlet,1809 Penn Ave,Pittsburgh,PA,15222,ALLEGHENY,NA,NA,NA,40.450592,-79.984711,agency,NA,NA,1,0,0,0,0,0,0,no type;no phone;no date/time info,NA
332,USDA,PA.xlsx,NA,NA,Dollar General 11536,620 7th St,Clairton,PA,15025,ALLEGHENY,NA,NA,NA,40.293056,-79.888832,agency,NA,NA,1,0,0,0,0,0,0,no type;no phone;no date/time info,NA
333,USDA,PA.xlsx,NA,NA,Dollar Tree 4084,1712 Mount Royal Blvd,Glenshaw,PA,15116,ALLEGHENY,NA,NA,NA,40.524982,-79.962189,agency,NA,NA,1,0,0,0,0,0,0,no type;no phone;no date/time info,NA
334,USDA,PA.xlsx,NA,NA,Family Dollar 1982,6320 Shakespeare St,Pittsburgh,PA,15206,ALLEGHENY,NA,NA,NA,40.459026,-79.920929,agency,NA,NA,1,0,0,0,0,0,0,no type;no phone;no date/time info,NA
335,USDA,PA.xlsx,NA,NA,Family Dollar 2467,1868 Homeville Rd,West Mifflin,PA,15122,ALLEGHENY,NA,NA,NA,40.393948,-79.88868,agency,NA,NA,1,0,0,0,0,0,0,no type;no phone;no date/time info,NA
336,USDA,PA.xlsx,NA,NA,Frankstown Shell,6701 Frankstown Ave,Pittsburgh,PA,15208,ALLEGHENY,NA,NA,NA,40.458607,-79.907608,agency,NA,NA,1,0,0,0,0,0,0,no type;no phone;no date/time info,NA
337,USDA,PA.xlsx,NA,NA,Walgreens 09187,1741 Washington Rd,Pittsburgh,PA,15241,ALLEGHENY,NA,NA,NA,40.347286,-80.05442,agency,NA,NA,1,0,0,0,0,0,0,no type;no phone;no date/time info,NA
338,USDA,PA.xlsx,NA,NA,Walgreens 09188,4 Old Clairton Rd,Pittsburgh,PA,15236,ALLEGHENY,NA,NA,NA,40.340656,-79.964645,agency,NA,NA,1,0,0,0,0,0,0,no type;no phone;no date/time info,NA
339,USDA,PA.xlsx,NA,NA,Homestead Food Mart,238 E 8th Ave,Homestead,PA,15120,ALLEGHENY,NA,NA,NA,40.407314,-79.910217,agency,NA,NA,1,0,0,0,0,0,0,no type;no phone;no date/time info,NA
340,USDA,PA.xlsx,NA,NA,7-Eleven 188,321 Camp Hollow Rd,West Mifflin,PA,15122,ALLEGHENY,NA,NA,NA,40.349525,-79.92704,agency,NA,NA,1,0,0,0,0,0,0,no type;no phone;no date/time info,NA
341,USDA,PA.xlsx,NA,NA,Target Stores 1270,1717 Lebanon Church Rd,Pittsburgh,PA,15236,ALLEGHENY,NA,NA,NA,40.34779,-79.95163,agency,NA,NA,1,0,0,0,0,0,0,no type;no phone;no date/time info,NA
342,USDA,PA.xlsx,NA,NA,Family Dollar 4675,27 Duquesne Blvd,Duquesne,PA,15110,ALLEGHENY,NA,NA,NA,40.373367,-79.84465,agency,NA,NA,1,0,0,0,0,0,0,no type;no phone;no date/time info,NA
343,USDA,PA.xlsx,NA,NA,Family Dollar 4774,533 Miller Ave,Clairton,PA,15025,ALLEGHENY,NA,NA,NA,40.293968,-79.883018,agency,NA,NA,1,0,0,0,0,0,0,no type;no phone;no date/time info,NA
344,USDA,PA.xlsx,NA,NA,Family Dollar 4962,1768 Golden Mile Hwy,Monroeville,PA,15146,ALLEGHENY,NA,NA,NA,40.443695,-79.713478,agency,NA,NA,1,0,0,0,0,0,0,no type;no phone;no date/time info,NA
345,USDA,PA.xlsx,NA,NA,Family Dollar 5224,340 Curry Hollow Rd A,Pittsburgh,PA,15236,ALLEGHENY,NA,NA,NA,40.335934,-79.974571,agency,NA,NA,1,0,0,0,0,0,0,no type;no phone;no date/time info,NA
346,USDA,PA.xlsx,NA,NA,Family Dollar 5250,2020 Wharton St,Pittsburgh,PA,15203,ALLEGHENY,NA,NA,NA,40.430344,-79.977142,agency,NA,NA,1,0,0,0,0,0,0,no type;no phone;no date/time info,NA
347,USDA,PA.xlsx,NA,NA,Family Dollar 5275,450 56th St B,Pittsburgh,PA,15201,ALLEGHENY,NA,NA,NA,40.483925,-79.947632,agency,NA,NA,1,0,0,0,0,0,0,no type;no phone;no date/time info,NA
348,USDA,PA.xlsx,NA,NA,Family Dollar 5518,607 Lincoln Ave,East Liberty,PA,15206,ALLEGHENY,NA,NA,NA,40.461727,-79.907661,agency,NA,NA,1,0,0,0,0,0,0,no type;no phone;no date/time info,NA
349,USDA,PA.xlsx,NA,NA,Family Dollar 5940,715 E 8th Ave,Homestead,PA,15120,ALLEGHENY,NA,NA,NA,40.409252,-79.90081,agency,NA,NA,1,0,0,0,0,0,0,no type;no phone;no date/time info,NA
350,USDA,PA.xlsx,NA,NA,Family Dollar 7104,2020 Spring Garden Ave,Pittsburgh,PA,15212,ALLEGHENY,NA,NA,NA,40.469975,-79.98597,agency,NA,NA,1,0,0,0,0,0,0,no type;no phone;no date/time info,NA
351,USDA,PA.xlsx,NA,NA,Family Dollar 7199,1917 Centre Ave,Pittsburgh,PA,15219,ALLEGHENY,NA,NA,NA,40.443523,-79.980499,agency,NA,NA,1,0,0,0,0,0,0,no type;no phone;no date/time info,NA
352,USDA,PA.xlsx,NA,NA,Family Dollar 775,152 McKees Rocks Plz,MC Kees Rocks,PA,15136,ALLEGHENY,NA,NA,NA,40.464981,-80.056587,agency,NA,NA,1,0,0,0,0,0,0,no type;no phone;no date/time info,NA
353,USDA,PA.xlsx,NA,NA,Family Dollar 7618,1201 Foster Ave,Pittsburgh,PA,15205,ALLEGHENY,NA,NA,NA,40.440334,-80.068893,agency,NA,NA,1,0,0,0,0,0,0,no type;no phone;no date/time info,NA
354,USDA,PA.xlsx,NA,NA,Family Dollar 824,1500 Yost Blvd,Pittsburgh,PA,15221,ALLEGHENY,NA,NA,NA,40.409634,-79.856102,agency,NA,NA,1,0,0,0,0,0,0,no type;no phone;no date/time info,NA
355,USDA,PA.xlsx,NA,NA,Family Dollar 1631,130 Lysle Blvd,McKeesport,PA,15132,ALLEGHENY,NA,NA,NA,40.351147,-79.867661,agency,NA,NA,1,0,0,0,0,0,0,no type;no phone;no date/time info,NA
356,USDA,PA.xlsx,NA,NA,Family Dollar 1769,355 Lincoln Hwy Ste 8,North Versailles,PA,15137,ALLEGHENY,NA,NA,NA,40.381916,-79.818733,agency,NA,NA,1,0,0,0,0,0,0,no type;no phone;no date/time info,NA
357,USDA,PA.xlsx,NA,NA,Family Dollar 2116,240 Hays Ave,Pittsburgh,PA,15210,ALLEGHENY,NA,NA,NA,40.414268,-79.987778,agency,NA,NA,1,0,0,0,0,0,0,no type;no phone;no date/time info,NA
358,USDA,PA.xlsx,NA,NA,Family Dollar 2396,909 Main St,Sharpsburg,PA,15215,ALLEGHENY,NA,NA,NA,40.494541,-79.933266,agency,NA,NA,1,0,0,0,0,0,0,no type;no phone;no date/time info,NA
359,USDA,PA.xlsx,NA,NA,Family Dollar 3182,123 Lincoln Ave,Millvale,PA,15209,ALLEGHENY,NA,NA,NA,40.478672,-79.968918,agency,NA,NA,1,0,0,0,0,0,0,no type;no phone;no date/time info,NA
360,USDA,PA.xlsx,NA,NA,Family Dollar 3340,14 Creighton Russellton Rd,Russellton,PA,15076,ALLEGHENY,NA,NA,NA,40.617245,-79.832809,agency,NA,NA,1,0,0,0,0,0,0,no type;no phone;no date/time info,NA
361,USDA,PA.xlsx,NA,NA,Family Dollar 3675,7627 Penn Ave,Wilkinsburg,PA,15221,ALLEGHENY,NA,NA,NA,40.446781,-79.893982,agency,NA,NA,1,0,0,0,0,0,0,no type;no phone;no date/time info,NA
362,USDA,PA.xlsx,NA,NA,Family Dollar 4708,300 Broadway St,Carnegie,PA,15106,ALLEGHENY,NA,NA,NA,40.408497,-80.085793,agency,NA,NA,1,0,0,0,0,0,0,no type;no phone;no date/time info,NA
363,USDA,PA.xlsx,NA,NA,Family Dollar 6137,5160 Penn Ave,Pittsburgh,PA,15224,ALLEGHENY,NA,NA,NA,40.464664,-79.940575,agency,NA,NA,1,0,0,0,0,0,0,no type;no phone;no date/time info,NA
364,USDA,PA.xlsx,NA,NA,Family Dollar 6347,401 6th St,Braddock,PA,15104,ALLEGHENY,NA,NA,NA,40.403336,-79.868629,agency,NA,NA,1,0,0,0,0,0,0,no type;no phone;no date/time info,NA
365,USDA,PA.xlsx,NA,NA,Family Dollar 6554,2347 5th Ave,McKeesport,PA,15132,ALLEGHENY,NA,NA,NA,40.354141,-79.836624,agency,NA,NA,1,0,0,0,0,0,0,no type;no phone;no date/time info,NA
366,USDA,PA.xlsx,NA,NA,Family Dollar 6598,9010 Frankstown Rd,Pittsburgh,PA,15235,ALLEGHENY,NA,NA,NA,40.461075,-79.866173,agency,NA,NA,1,0,0,0,0,0,0,no type;no phone;no date/time info,NA
367,USDA,PA.xlsx,NA,NA,Family Dollar 7123,3107 Liberty Way,McKeesport,PA,15133,ALLEGHENY,NA,NA,NA,40.324242,-79.856895,agency,NA,NA,1,0,0,0,0,0,0,no type;no phone;no date/time info,NA
368,USDA,PA.xlsx,NA,NA,Schwartz Supermarket Store,3235 Brighton Rd,Pittsburgh,PA,15212,ALLEGHENY,NA,NA,NA,40.476128,-80.031624,agency,NA,NA,1,0,0,0,0,0,0,no type;no phone;no date/time info,NA
369,USDA,PA.xlsx,NA,NA,Eden's Market,99 Alfred St,Pittsburgh,PA,15228,ALLEGHENY,NA,NA,NA,40.380306,-80.043053,agency,NA,NA,1,0,0,0,0,0,0,no type;no phone;no date/time info,NA
370,USDA,PA.xlsx,NA,NA,J & S Food Mart,625 W Grant Ave,Duquesne,PA,15110,ALLEGHENY,NA,NA,NA,40.372013,-79.85157,agency,NA,NA,1,0,0,0,0,0,0,no type;no phone;no date/time info,NA
371,USDA,PA.xlsx,NA,NA,GetGo 3489,2401 Ferguson Rd,Allison Park,PA,15101,ALLEGHENY,NA,NA,NA,40.555573,-79.971672,agency,NA,NA,1,0,0,0,0,0,0,no type;no phone;no date/time info,NA
372,USDA,PA.xlsx,NA,NA,CVS Pharmacy 258,5703 Steubenville Pike,MC Kees Rocks,PA,15136,ALLEGHENY,NA,NA,NA,40.452034,-80.133972,agency,NA,NA,1,0,0,0,0,0,0,no type;no phone;no date/time info,NA
373,USDA,PA.xlsx,NA,NA,Dollar Tree 618,5253 Library Rd,Bethel Park,PA,15102,ALLEGHENY,NA,NA,NA,40.331806,-80.02282,agency,NA,NA,1,0,0,0,0,0,0,no type;no phone;no date/time info,NA
374,USDA,PA.xlsx,NA,NA,Rite Aid 10919,4534 Broadway Blvd,Monroeville,PA,15146,ALLEGHENY,NA,NA,NA,40.390221,-79.766037,agency,NA,NA,1,0,0,0,0,0,0,no type;no phone;no date/time info,NA
375,USDA,PA.xlsx,NA,NA,Giant Eagle 47,100 Settlers Ridge Center Dr,Pittsburgh,PA,15205,ALLEGHENY,NA,NA,NA,40.441887,-80.152657,agency,NA,NA,1,0,0,0,0,0,0,no type;no phone;no date/time info,NA
376,USDA,PA.xlsx,NA,NA,Dollar Tree 1012,324 Towne Square Way,Brentwood,PA,15227,ALLEGHENY,NA,NA,NA,40.367634,-79.982201,agency,NA,NA,1,0,0,0,0,0,0,no type;no phone;no date/time info,NA
377,USDA,PA.xlsx,NA,NA,Dollar Tree 4222,1020 Village Center Dr,Tarentum,PA,15084,ALLEGHENY,NA,NA,NA,40.568443,-79.80262,agency,NA,NA,1,0,0,0,0,0,0,no type;no phone;no date/time info,NA
378,USDA,PA.xlsx,NA,NA,Sunoco 6968,600 Rodi Rd,Pittsburgh,PA,15235,ALLEGHENY,NA,NA,NA,40.449108,-79.827255,agency,NA,NA,1,0,0,0,0,0,0,no type;no phone;no date/time info,NA
379,USDA,PA.xlsx,NA,NA,Sunoco 7139,1020 Mount Royal Blvd,Pittsburgh,PA,15223,ALLEGHENY,NA,NA,NA,40.516953,-79.958954,agency,NA,NA,1,0,0,0,0,0,0,no type;no phone;no date/time info,NA
380,USDA,PA.xlsx,NA,NA,Sunoco 7144,195 N Craig St,Pittsburgh,PA,15213,ALLEGHENY,NA,NA,NA,40.449574,-79.950645,agency,NA,NA,1,0,0,0,0,0,0,no type;no phone;no date/time info,NA
381,USDA,PA.xlsx,NA,NA,Costco Wholesale 0332,202 Costco Dr,Pittsburgh,PA,15205,ALLEGHENY,NA,NA,NA,40.458073,-80.166626,agency,NA,NA,1,0,0,0,0,0,0,no type;no phone;no date/time info,NA
382,USDA,PA.xlsx,NA,NA,Costco Wholesale 0649,501 Waterfront Dr W,West Homestead,PA,15120,ALLEGHENY,NA,NA,NA,40.403896,-79.920181,agency,NA,NA,1,0,0,0,0,0,0,no type;no phone;no date/time info,NA
383,USDA,PA.xlsx,NA,NA,7-Elelven 165,601 Penn Ave,Pittsburgh,PA,15222,ALLEGHENY,NA,NA,NA,40.442791,-80.002144,agency,NA,NA,1,0,0,0,0,0,0,no type;no phone;no date/time info,NA
384,USDA,PA.xlsx,NA,NA,TSP 224,4010 Penn Ave,Pittsburgh,PA,15224,ALLEGHENY,NA,NA,NA,40.465183,-79.957565,agency,NA,NA,1,0,0,0,0,0,0,no type;no phone;no date/time info,NA
385,USDA,PA.xlsx,NA,NA,TSP 223,6680 Frankstown Ave,Pittsburgh,PA,15206,ALLEGHENY,NA,NA,NA,40.458702,-79.90831,agency,NA,NA,1,0,0,0,0,0,0,no type;no phone;no date/time info,NA
386,USDA,PA.xlsx,NA,NA,TSP 219,3500 Forbes Ave,Pittsburgh,PA,15213,ALLEGHENY,NA,NA,NA,40.439941,-79.959129,agency,NA,NA,1,0,0,0,0,0,0,no type;no phone;no date/time info,NA
387,USDA,PA.xlsx,NA,NA,TSP 221,100 E 7th Ave,Tarentum,PA,15084,ALLEGHENY,NA,NA,NA,40.601936,-79.756981,agency,NA,NA,1,0,0,0,0,0,0,no type;no phone;no date/time info,NA
388,USDA,PA.xlsx,NA,NA,Rite Aid 11916,4770 McKnight Rd Ste A,Pittsburgh,PA,15237,ALLEGHENY,NA,NA,NA,40.523308,-80.005333,agency,NA,NA,1,0,0,0,0,0,0,no type;no phone;no date/time info,NA
389,USDA,PA.xlsx,NA,NA,Turtle Creek Isaly's Diner,107 Penn Plz,Turtle Creek,PA,15145,ALLEGHENY,NA,NA,NA,40.405674,-79.826363,agency,NA,NA,1,0,0,0,0,0,0,no type;no phone;no date/time info,NA
390,USDA,PA.xlsx,NA,NA,Uni Mart,298 Knoedler Rd,Pittsburgh,PA,15236,ALLEGHENY,NA,NA,NA,40.342033,-79.981583,agency,NA,NA,1,0,0,0,0,0,0,no type;no phone;no date/time info,NA
391,USDA,PA.xlsx,NA,NA,Uni Mart,1601 Lowrie St,Pittsburgh,PA,15212,ALLEGHENY,NA,NA,NA,40.462803,-79.983238,agency,NA,NA,1,0,0,0,0,0,0,no type;no phone;no date/time info,NA
392,USDA,PA.xlsx,NA,NA,Verona Shell,4901 Allegheny River Blvd,Verona,PA,15147,ALLEGHENY,NA,NA,NA,40.485207,-79.856926,agency,NA,NA,1,0,0,0,0,0,0,no type;no phone;no date/time info,NA
393,USDA,PA.xlsx,NA,NA,Dollar Tree 4287,47 Walsh Rd,Pittsburgh,PA,15205,ALLEGHENY,NA,NA,NA,40.439602,-80.07106,agency,NA,NA,1,0,0,0,0,0,0,no type;no phone;no date/time info,NA
394,USDA,PA.xlsx,NA,NA,Las Palmas,700 Brookline Blvd,Pittsburgh,PA,15226,ALLEGHENY,NA,NA,NA,40.394806,-80.021523,agency,NA,NA,1,0,0,0,0,0,0,no type;no phone;no date/time info,NA
395,USDA,PA.xlsx,NA,NA,Rite Aid 07825,201 Devine Dr,Wexford,PA,15090,ALLEGHENY,NA,NA,NA,40.617828,-80.090355,agency,NA,NA,1,0,0,0,0,0,0,no type;no phone;no date/time info,NA
396,USDA,PA.xlsx,NA,NA,Rite Aid 07832,4155 Ewalt Rd,Gibsonia,PA,15044,ALLEGHENY,NA,NA,NA,40.625927,-79.942825,agency,NA,NA,1,0,0,0,0,0,0,no type;no phone;no date/time info,NA
397,USDA,PA.xlsx,NA,NA,Rite Aid 07843,3700 Walnut St,McKeesport,PA,15132,ALLEGHENY,NA,NA,NA,40.326763,-79.83992,agency,NA,NA,1,0,0,0,0,0,0,no type;no phone;no date/time info,NA
398,USDA,PA.xlsx,NA,NA,Rite Aid 10904,4960 William Flynn Hwy Ste 10,Allison Park,PA,15101,ALLEGHENY,NA,NA,NA,40.603886,-79.947044,agency,NA,NA,1,0,0,0,0,0,0,no type;no phone;no date/time info,NA
399,USDA,PA.xlsx,NA,NA,Rite Aid 10905,1701 Duncan Ave,Allison Park,PA,15101,ALLEGHENY,NA,NA,NA,40.566422,-79.998596,agency,NA,NA,1,0,0,0,0,0,0,no type;no phone;no date/time info,NA
400,USDA,PA.xlsx,NA,NA,Rite Aid 10906,5235 Library Rd,Bethel Park,PA,15102,ALLEGHENY,NA,NA,NA,40.333031,-80.023766,agency,NA,NA,1,0,0,0,0,0,0,no type;no phone;no date/time info,NA
401,USDA,PA.xlsx,NA,NA,Rite Aid 10908,5990 University Blvd Ste 30,Coraopolis,PA,15108,ALLEGHENY,NA,NA,NA,40.519936,-80.217804,agency,NA,NA,1,0,0,0,0,0,0,no type;no phone;no date/time info,NA
402,USDA,PA.xlsx,NA,NA,Rite Aid 10911,2001 Lincoln Way,White Oak,PA,15131,ALLEGHENY,NA,NA,NA,40.337482,-79.808701,agency,NA,NA,1,0,0,0,0,0,0,no type;no phone;no date/time info,NA
403,USDA,PA.xlsx,NA,NA,Rite Aid 10915,109 Allegheny River Blvd,Oakmont,PA,15139,ALLEGHENY,NA,NA,NA,40.512444,-79.843475,agency,NA,NA,1,0,0,0,0,0,0,no type;no phone;no date/time info,NA
404,USDA,PA.xlsx,NA,NA,Rite Aid 10916,517 Beaver St,Sewickley,PA,15143,ALLEGHENY,NA,NA,NA,40.539928,-80.179947,agency,NA,NA,1,0,0,0,0,0,0,no type;no phone;no date/time info,NA
405,USDA,PA.xlsx,NA,NA,Rite Aid 10917,4011 William Penn Hwy,Monroeville,PA,15146,ALLEGHENY,NA,NA,NA,40.438446,-79.772324,agency,NA,NA,1,0,0,0,0,0,0,no type;no phone;no date/time info,NA
406,USDA,PA.xlsx,NA,NA,Rite Aid 10933,1956 Greentree Rd,Pittsburgh,PA,15220,ALLEGHENY,NA,NA,NA,40.394588,-80.066292,agency,NA,NA,1,0,0,0,0,0,0,no type;no phone;no date/time info,NA
407,USDA,PA.xlsx,NA,NA,Rite Aid 10945,3434 William Penn Hwy,Pittsburgh,PA,15235,ALLEGHENY,NA,NA,NA,40.430054,-79.81237,agency,NA,NA,1,0,0,0,0,0,0,no type;no phone;no date/time info,NA
408,USDA,PA.xlsx,NA,NA,Rite Aid 10947,7345 Saltsburg Rd,Penn Hills,PA,15235,ALLEGHENY,NA,NA,NA,40.477882,-79.786003,agency,NA,NA,1,0,0,0,0,0,0,no type;no phone;no date/time info,NA
409,USDA,PA.xlsx,NA,NA,Rite Aid 10950,568 Caste Vlg,Pittsburgh,PA,15236,ALLEGHENY,NA,NA,NA,40.358257,-80.00309,agency,NA,NA,1,0,0,0,0,0,0,no type;no phone;no date/time info,NA
410,USDA,PA.xlsx,NA,NA,Rite Aid 10953,1130 Perry Hwy Ste 35,Pittsburgh,PA,15237,ALLEGHENY,NA,NA,NA,40.547474,-80.036621,agency,NA,NA,1,0,0,0,0,0,0,no type;no phone;no date/time info,NA
411,USDA,PA.xlsx,NA,NA,Rite Aid 10954,1125 Freeport Rd,Pittsburgh,PA,15238,ALLEGHENY,NA,NA,NA,40.487637,-79.882141,agency,NA,NA,1,0,0,0,0,0,0,no type;no phone;no date/time info,NA
412,USDA,PA.xlsx,NA,NA,Rite Aid 10955,1804 Golden Mile Hwy,Pittsburgh,PA,15239,ALLEGHENY,NA,NA,NA,40.446487,-79.713905,agency,NA,NA,1,0,0,0,0,0,0,no type;no phone;no date/time info,NA
413,USDA,PA.xlsx,NA,NA,Manpsand Spice Corner,2101 Greentree Rd Ste B119,Pittsburgh,PA,15220,ALLEGHENY,NA,NA,NA,40.391792,-80.069527,agency,NA,NA,1,0,0,0,0,0,0,no type;no phone;no date/time info,NA
414,USDA,PA.xlsx,NA,NA,union Mart,3400 Versailles Ave,McKeesport,PA,15132,ALLEGHENY,NA,NA,NA,40.344875,-79.837479,agency,NA,NA,1,0,0,0,0,0,0,no type;no phone;no date/time info,NA
415,USDA,PA.xlsx,NA,NA,Lotus Food,1649 Penn Ave,Pittsburgh,PA,15222,ALLEGHENY,NA,NA,NA,40.449585,-79.98632,agency,NA,NA,1,0,0,0,0,0,0,no type;no phone;no date/time info,NA
416,USDA,PA.xlsx,NA,NA,CVS Pharmacy 2333,5242 Clairton Blvd,Pittsburgh,PA,15236,ALLEGHENY,NA,NA,NA,40.343586,-79.970428,agency,NA,NA,1,0,0,0,0,0,0,no type;no phone;no date/time info,NA
417,USDA,PA.xlsx,NA,NA,CVS Pharmacy 2447,5190 Library Rd,Bethel Park,PA,15102,ALLEGHENY,NA,NA,NA,40.334,-80.024139,agency,NA,NA,1,0,0,0,0,0,0,no type;no phone;no date/time info,NA
418,USDA,PA.xlsx,NA,NA,CVS Pharmacy 2449,11240 Perry Hwy,Wexford,PA,15090,ALLEGHENY,NA,NA,NA,40.621548,-80.054352,agency,NA,NA,1,0,0,0,0,0,0,no type;no phone;no date/time info,NA
419,USDA,PA.xlsx,NA,NA,CVS Pharmacy 3189,510 Brookline Blvd,Pittsburgh,PA,15226,ALLEGHENY,NA,NA,NA,40.396126,-80.023483,agency,NA,NA,1,0,0,0,0,0,0,no type;no phone;no date/time info,NA
420,USDA,PA.xlsx,NA,NA,CVS Pharmacy 4045,4692 Old William Penn Hwy,Monroeville,PA,15146,ALLEGHENY,NA,NA,NA,40.439358,-79.740822,agency,NA,NA,1,0,0,0,0,0,0,no type;no phone;no date/time info,NA
421,USDA,PA.xlsx,NA,NA,Bryant Street Market,5901 Bryant Street,Pittsburgh,PA,15206,ALLEGHENY,NA,NA,NA,40.475685,-79.919601,agency,NA,NA,1,0,0,0,0,0,0,no type;no phone;no date/time info,NA
422,USDA,PA.xlsx,NA,NA,CVS Pharmacy 5094,328 Cochran Rd,Pittsburgh,PA,15228,ALLEGHENY,NA,NA,NA,40.382473,-80.052292,agency,NA,NA,1,0,0,0,0,0,0,no type;no phone;no date/time info,NA
423,USDA,PA.xlsx,NA,NA,Curry Hollow Sunoco,340 Curry Hollow Rd,Pittsburgh,PA,15236,ALLEGHENY,NA,NA,NA,40.335934,-79.974571,agency,NA,NA,1,0,0,0,0,0,0,no type;no phone;no date/time info,NA
424,USDA,PA.xlsx,NA,NA,Wagners Market,4978 Middle Rd,Gibsonia,PA,15044,ALLEGHENY,NA,NA,NA,40.60532,-79.926468,agency,NA,NA,1,0,0,0,0,0,0,no type;no phone;no date/time info,NA
425,USDA,PA.xlsx,NA,NA,The Medicine Shoppe Pharmacy,5020 Centre Ave Fl 2,Pittsburgh,PA,15213,ALLEGHENY,NA,NA,NA,40.454372,-79.943634,agency,NA,NA,1,0,0,0,0,0,0,no type;no phone;no date/time info,NA
426,USDA,PA.xlsx,NA,NA,Dollar General 12185,3750 Saw Mill Run Blvd,Pittsburgh,PA,15227,ALLEGHENY,NA,NA,NA,40.37122,-79.982178,agency,NA,NA,1,0,0,0,0,0,0,no type;no phone;no date/time info,NA
427,USDA,PA.xlsx,NA,NA,Rocks Express,700 Frederick St,McKees Rocks,PA,15136,ALLEGHENY,NA,NA,NA,40.472115,-80.065102,agency,NA,NA,1,0,0,0,0,0,0,no type;no phone;no date/time info,NA
428,USDA,PA.xlsx,NA,NA,United Food Mart,3112 Chartiers Ave,Pittsburgh,PA,15204,ALLEGHENY,NA,NA,NA,40.453579,-80.061501,agency,NA,NA,1,0,0,0,0,0,0,no type;no phone;no date/time info,NA
429,USDA,PA.xlsx,NA,NA,Aldi 68,4578 William Flynn Hwy,Allison Park,PA,15101,ALLEGHENY,NA,NA,NA,40.588921,-79.949097,agency,NA,NA,1,0,0,0,0,0,0,no type;no phone;no date/time info,NA
430,USDA,PA.xlsx,NA,NA,Patel Brothers,4145 William Penn Hwy Ste 5,Monroeville,PA,15146,ALLEGHENY,NA,NA,NA,40.438869,-79.766396,agency,NA,NA,1,0,0,0,0,0,0,no type;no phone;no date/time info,NA
431,USDA,PA.xlsx,NA,NA,Family Dollar 8379,821 Chartiers Ave,McKees Rocks,PA,15136,ALLEGHENY,NA,NA,NA,40.465809,-80.06498,agency,NA,NA,1,0,0,0,0,0,0,no type;no phone;no date/time info,NA
432,USDA,PA.xlsx,NA,NA,CVS 5890,3893 William Penn Hwy,Monroeville,PA,15146,ALLEGHENY,NA,NA,NA,40.437435,-79.778694,agency,NA,NA,1,0,0,0,0,0,0,no type;no phone;no date/time info,NA
433,USDA,PA.xlsx,NA,NA,Sunoco 7279,3505 Library Rd,Pittsburgh,PA,15234,ALLEGHENY,NA,NA,NA,40.366516,-80.014542,agency,NA,NA,1,0,0,0,0,0,0,no type;no phone;no date/time info,NA
434,USDA,PA.xlsx,NA,NA,Save-a-lot,9 Duquesne Plz,Duquesne,PA,15110,ALLEGHENY,NA,NA,NA,40.373634,-79.845924,agency,NA,NA,1,0,0,0,0,0,0,no type;no phone;no date/time info,NA
435,USDA,PA.xlsx,NA,NA,Leonard Labriola's Italian Store,112 Northgate Dr,Warrendale,PA,15086,ALLEGHENY,NA,NA,NA,40.650681,-80.07856,agency,NA,NA,1,0,0,0,0,0,0,no type;no phone;no date/time info,NA
436,USDA,PA.xlsx,NA,NA,Dollar General 12542,1714 Laketon Rd,Wilkinsburg,PA,15221,ALLEGHENY,NA,NA,NA,40.449074,-79.867088,agency,NA,NA,1,0,0,0,0,0,0,no type;no phone;no date/time info,NA
437,USDA,PA.xlsx,NA,NA,Cogo's 496,721 Island Ave,McKees Rocks,PA,15136,ALLEGHENY,NA,NA,NA,40.472603,-80.061897,agency,NA,NA,1,0,0,0,0,0,0,no type;no phone;no date/time info,NA
438,USDA,PA.xlsx,NA,NA,The Hotspot Of Glassport,601 Monongahela Ave,Glassport,PA,15045,ALLEGHENY,NA,NA,NA,40.325947,-79.892403,agency,NA,NA,1,0,0,0,0,0,0,no type;no phone;no date/time info,NA
439,USDA,PA.xlsx,NA,NA,Fuel On,5724 Ellsworth Ave,Pittsburgh,PA,15232,ALLEGHENY,NA,NA,NA,40.455196,-79.931664,agency,NA,NA,1,0,0,0,0,0,0,no type;no phone;no date/time info,NA
440,USDA,PA.xlsx,NA,NA,Dollar Tree 4501,4313 Walnut St Ste 10,McKeesport,PA,15132,ALLEGHENY,NA,NA,NA,40.321171,-79.836456,agency,NA,NA,1,0,0,0,0,0,0,no type;no phone;no date/time info,NA
441,USDA,PA.xlsx,NA,NA,Aldi 72,3089 Sussex Ave,Pittsburgh,PA,15226,ALLEGHENY,NA,NA,NA,40.383556,-80.015427,agency,NA,NA,1,0,0,0,0,0,0,no type;no phone;no date/time info,NA
442,USDA,PA.xlsx,NA,NA,Family Dollar 8406,1108 Milltown Unity Rd,Verona,PA,15147,ALLEGHENY,NA,NA,NA,40.498695,-79.790024,agency,NA,NA,1,0,0,0,0,0,0,no type;no phone;no date/time info,NA
443,USDA,PA.xlsx,NA,NA,Dollar Tree 4522,2350 Noblestown Rd,Pittsburgh,PA,15205,ALLEGHENY,NA,NA,NA,40.427067,-80.05558,agency,NA,NA,1,0,0,0,0,0,0,no type;no phone;no date/time info,NA
444,USDA,PA.xlsx,NA,NA,Speedy Tobacco Mart,1602 5th Ave,Coraopolis,PA,15108,ALLEGHENY,NA,NA,NA,40.513393,-80.153542,agency,NA,NA,1,0,0,0,0,0,0,no type;no phone;no date/time info,NA
445,USDA,PA.xlsx,NA,NA,Sunoco ARLINTON,1643 Arlington Ave,Pittsburgh,PA,15210,ALLEGHENY,NA,NA,NA,40.417816,-79.986694,agency,NA,NA,1,0,0,0,0,0,0,no type;no phone;no date/time info,NA
446,USDA,PA.xlsx,NA,NA,GetGo 3641,3029 Washington Pike,Bridgeville,PA,15017,ALLEGHENY,NA,NA,NA,40.353493,-80.114944,agency,NA,NA,1,0,0,0,0,0,0,no type;no phone;no date/time info,NA
447,USDA,PA.xlsx,NA,NA,Shah Sunoco,903 Lincoln Hwy,North Versailles,PA,15137,ALLEGHENY,NA,NA,NA,40.378574,-79.804764,agency,NA,NA,1,0,0,0,0,0,0,no type;no phone;no date/time info,NA
448,USDA,PA.xlsx,NA,NA,Fourth Street Market,529 4th St,Braddock,PA,15104,ALLEGHENY,NA,NA,NA,40.407204,-79.869064,agency,NA,NA,1,0,0,0,0,0,0,no type;no phone;no date/time info,NA
449,USDA,PA.xlsx,NA,NA,Westview Shell,411 Perry Hwy,Pittsburgh,PA,15229,ALLEGHENY,NA,NA,NA,40.518543,-80.031883,agency,NA,NA,1,0,0,0,0,0,0,no type;no phone;no date/time info,NA
450,USDA,PA.xlsx,NA,NA,Giant Eagle 18,1671 Butler Plank Rd,Glenshaw,PA,15116,ALLEGHENY,NA,NA,NA,40.537659,-79.963448,agency,NA,NA,1,0,0,0,0,0,0,no type;no phone;no date/time info,NA
451,USDA,PA.xlsx,NA,NA,D S Food Mart Inc,929 Union Ave,McKeesport,PA,15132,ALLEGHENY,NA,NA,NA,40.346752,-79.854698,agency,NA,NA,1,0,0,0,0,0,0,no type;no phone;no date/time info,NA
452,USDA,PA.xlsx,NA,NA,Las Palmas 2,326 Atwood St,Pittsburgh,PA,15213,ALLEGHENY,NA,NA,NA,40.439068,-79.95517,agency,NA,NA,1,0,0,0,0,0,0,no type;no phone;no date/time info,NA
453,USDA,PA.xlsx,NA,NA,Oriental Market,4768 McKnight Rd,Pittsburgh,PA,15237,ALLEGHENY,NA,NA,NA,40.523071,-80.005333,agency,NA,NA,1,0,0,0,0,0,0,no type;no phone;no date/time info,NA
454,USDA,PA.xlsx,NA,NA,Stop & Shop Convenience,2110 Ardmore Blvd,Pittsburgh,PA,15221,ALLEGHENY,NA,NA,NA,40.419338,-79.849854,agency,NA,NA,1,0,0,0,0,0,0,no type;no phone;no date/time info,NA
455,USDA,PA.xlsx,NA,NA,Uni Mart,2321 Worton Blvd,West Mifflin,PA,15122,ALLEGHENY,NA,NA,NA,40.360252,-79.87178,agency,NA,NA,1,0,0,0,0,0,0,no type;no phone;no date/time info,NA
456,USDA,PA.xlsx,NA,NA,Sheetz 459,2175 Hulton Rd,Verona,PA,15147,ALLEGHENY,NA,NA,NA,40.526405,-79.816048,agency,NA,NA,1,0,0,0,0,0,0,no type;no phone;no date/time info,NA
457,USDA,PA.xlsx,NA,NA,BFS Foods 64,3984 Monroeville Blvd,Monroeville,PA,15146,ALLEGHENY,NA,NA,NA,40.436333,-79.772949,agency,NA,NA,1,0,0,0,0,0,0,no type;no phone;no date/time info,NA
458,USDA,PA.xlsx,NA,NA,Giant Eagle 68,5990 University Blvd,Coraopolis,PA,15108,ALLEGHENY,NA,NA,NA,40.519936,-80.217804,agency,NA,NA,1,0,0,0,0,0,0,no type;no phone;no date/time info,NA
459,USDA,PA.xlsx,NA,NA,Aldi 47,239 Clairton Blvd,West Mifflin,PA,15122,ALLEGHENY,NA,NA,NA,40.337536,-79.937469,agency,NA,NA,1,0,0,0,0,0,0,no type;no phone;no date/time info,NA
460,USDA,PA.xlsx,NA,NA,Target 2757,6231 Penn Ave,Pittsburgh,PA,15206,ALLEGHENY,NA,NA,NA,40.460236,-79.92141,agency,NA,NA,1,0,0,0,0,0,0,no type;no phone;no date/time info,NA
461,USDA,PA.xlsx,NA,NA,7- Eleven  170 F 170,429 Wood St,Pittsburgh,PA,15222,ALLEGHENY,NA,NA,NA,40.440178,-80.000771,agency,NA,NA,1,0,0,0,0,0,0,no type;no phone;no date/time info,NA
462,USDA,PA.xlsx,NA,NA,Subzi Mandi,3103 Banksville Rd,Pittsburgh,PA,15216,ALLEGHENY,NA,NA,NA,40.40023,-80.043716,agency,NA,NA,1,0,0,0,0,0,0,no type;no phone;no date/time info,NA
463,USDA,PA.xlsx,NA,NA,Exxon,1405 N State St,Clairton,PA,15025,ALLEGHENY,NA,NA,NA,40.317894,-79.898903,agency,NA,NA,1,0,0,0,0,0,0,no type;no phone;no date/time info,NA
464,USDA,PA.xlsx,NA,NA,Sheetz 468,3457 William Penn Hwy,Pittsburgh,PA,15235,ALLEGHENY,NA,NA,NA,40.429951,-79.810387,agency,NA,NA,1,0,0,0,0,0,0,no type;no phone;no date/time info,NA
465,USDA,PA.xlsx,NA,NA,Circle K 4235,200 Market Place Dr,Imperial,PA,15126,ALLEGHENY,NA,NA,NA,40.484314,-80.351875,agency,NA,NA,1,0,0,0,0,0,0,no type;no phone;no date/time info,NA
466,USDA,PA.xlsx,NA,NA,GetGo 3280,1700 William Flynn Hwy,Glenshaw,PA,15116,ALLEGHENY,NA,NA,NA,40.538803,-79.962486,agency,NA,NA,1,0,0,0,0,0,0,no type;no phone;no date/time info,NA
467,USDA,PA.xlsx,NA,NA,The Elliotts Town Market,928 Chartiers Ave,Pittsburgh,PA,15220,ALLEGHENY,NA,NA,NA,40.443832,-80.040421,agency,NA,NA,1,0,0,0,0,0,0,no type;no phone;no date/time info,NA
468,USDA,PA.xlsx,NA,NA,Jos Coffee Shop,3100 Versailles Ave,McKeesport,PA,15131,ALLEGHENY,NA,NA,NA,40.345139,-79.84082,agency,NA,NA,1,0,0,0,0,0,0,no type;no phone;no date/time info,NA
