id,source_org,source_file,original_id,type,name,address,city,state,zip_code,county,location_description,phone,url,latitude,longitude,latlng_source,date_from,date_to,SNAP,WIC,FMNP,fresh_produce,food_bucks,free_distribution,open_to_spec_group,data_issues
1,The Food Trust,Additional Food Bucks sites.xlsx,NA,NA,Shop 'n Save,336 8th St,New Kensington,PA,15068,NA,NA,NA,NA,40.563835,-79.767461,NA,NA,NA,1,NA,1,NA,1,0,NA,NA
2,The Food Trust,Additional Food Bucks sites.xlsx,NA,NA,Dylamato's Market,5414 Second Avenue,Pittsburgh,PA,15207,NA,NA,NA,NA,40.402331,-79.9416538,NA,NA,NA,1,NA,1,NA,1,0,NA,NA
3,The Food Trust,Additional Food Bucks sites.xlsx,NA,NA,Main Street Farmers Market,139 S Main St,Washington,PA,15301,NA,NA,NA,NA,40.1688309,-80.2454369,NA,NA,NA,1,NA,1,NA,1,0,NA,NA
4,Allegheny County Health Department,Allegheny_County_Farmers_Markets_Locations_2019.csv,NA,farmer's market,Ambridge Farmer's Market,624 Park Road,Ambridge,PA,15003,Allegheny,"St. Mary's Church parking lot, near Do It Best; Thursday 4:00 PM-7:00 PM",NA,NA,40.586729,-80.229576,Allegheny County Health Department,June 1,November 30,1,1,1,1,1,0,NA,NA
5,Allegheny County Health Department,Allegheny_County_Farmers_Markets_Locations_2019.csv,NA,farmer's market,Aspinwall Flea Market,217 Commerical Avenue,Aspinwall,PA,15215,Allegheny,Municipal parking lot; Sunday 7:00 AM-1:00 PM,NA,NA,40.490575,-79.90430500000001,Allegheny County Health Department,June 1,November 30,1,1,1,1,1,0,NA,NA
6,Allegheny County Health Department,Allegheny_County_Farmers_Markets_Locations_2019.csv,NA,farmer's market,Bachman's Greenhouse and Nursery,2905 Freeport Road,Natrona Heights,PA,15065,Allegheny,Daily 8:00 AM-7:00 PM,NA,NA,40.640015000000005,-79.711384,Allegheny County Health Department,June 1,October 31,1,1,1,1,1,0,NA,NA
7,Allegheny County Health Department,Allegheny_County_Farmers_Markets_Locations_2019.csv,NA,farmer's market,Bachman's Greenhouse and Nursery,Route 908 & Ekastown Road,Natrona Heights,PA,15065,Allegheny,Daily 10:00 AM-6:00 PM,NA,NA,40.667206,-79.730284,Allegheny County Health Department,July 1,October 31,1,1,1,1,1,0,NA,NA
8,Allegheny County Health Department,Allegheny_County_Farmers_Markets_Locations_2019.csv,NA,farmer's market,Beccari's Farm Market,5095 Thoms Run Road,Oakdale,PA,15071,Allegheny,Tuesday-Friday 12:00 PM-5:00 PM and Saturday-Sunday 12:00 PM-4:00 PM,NA,NA,40.373965000000005,-80.133129,Allegheny County Health Department,June 1,October 31,1,1,1,1,1,0,NA,NA
9,Allegheny County Health Department,Allegheny_County_Farmers_Markets_Locations_2019.csv,NA,farmer's market,Bedner's Farm,1520 Bower Hill Road,Pittsburgh,PA,15220,Allegheny,Daily 9:00 AM-6:00 PM,NA,NA,40.361146000000005,-80.089128,Allegheny County Health Department,June 1,October 31,1,1,1,1,1,0,NA,NA
10,Allegheny County Health Department,Allegheny_County_Farmers_Markets_Locations_2019.csv,NA,farmer's market,Beechview Fresh Access,Broadway Avenue & Hampshire Avenue,Pittsburgh,PA,15216,Allegheny,Thursday 4:00 PM-7:00 PM,NA,NA,40.410567,-80.02467299999999,Allegheny County Health Department,June 20,September 12,1,1,1,1,1,0,NA,NA
11,Allegheny County Health Department,Allegheny_County_Farmers_Markets_Locations_2019.csv,NA,farmer's market,Bellevue Farmer's Market,34 N. Balph Avenue,Pittsburgh,PA,15202,Allegheny,Bayne Park; Wednesday 3:00 PM-7:00 PM,NA,NA,40.496526,-80.054299,Allegheny County Health Department,June 1,October 31,1,1,1,1,1,0,NA,NA
12,Allegheny County Health Department,Allegheny_County_Farmers_Markets_Locations_2019.csv,NA,farmer's market,Bethel Park Farmer's Market,Corrigan Drive,Bethel Park,PA,15102,Allegheny,South Park VIP parking lot; Tuesday 3:00 PM-7:00 PM,NA,NA,40.319687,-80.00854100000001,Allegheny County Health Department,June 1,September 30,1,1,1,1,1,0,NA,NA
13,Allegheny County Health Department,Allegheny_County_Farmers_Markets_Locations_2019.csv,NA,farmer's market,Blackberry Meadows Farm,7115 Ridge Road,Natrona Heights,PA,15065,Allegheny,Wednesday 11:00 AM-7:00 PM,NA,NA,40.657587,-79.747334,Allegheny County Health Department,June 1,October 31,1,1,1,1,1,0,NA,NA
14,Allegheny County Health Department,Allegheny_County_Farmers_Markets_Locations_2019.csv,NA,farmer's market,Bloomfield Farmer's Market,5050 Liberty Avenue,Pittsburgh,PA,15224,Allegheny,Saturday 9:00 AM-1:00 PM,NA,NA,40.459003,-79.94449300000001,Allegheny County Health Department,June 1,November 30,1,1,1,1,1,0,NA,NA
15,Allegheny County Health Department,Allegheny_County_Farmers_Markets_Locations_2019.csv,NA,farmer's market,Braddock Farm Stand,6th Street & Braddock Avenue,Braddock,PA,15104,Allegheny,Saturday 10:00 AM-2:00 PM,NA,NA,40.403283,-79.868588,Allegheny County Health Department,June 1,October 31,1,1,1,1,1,0,NA,NA
16,Allegheny County Health Department,Allegheny_County_Farmers_Markets_Locations_2019.csv,NA,farmer's market,Bridge's Farm,7108 Leechburg Road,New Kenington,PA,15068,Allegheny,Monday-Saturday 9:00 AM-6:00 PM and Sunday 9:00 AM-5:00 PM,NA,NA,40.517658000000004,-79.764416,Allegheny County Health Department,June 1,November 30,1,1,1,1,1,0,NA,NA
17,Allegheny County Health Department,Allegheny_County_Farmers_Markets_Locations_2019.csv,NA,farmer's market,Carrick Farmer's Market,1529 Brownsville Road,Pittsburgh,PA,15210,Allegheny,Wednesday 3:00 PM-7:00 PM,NA,NA,40.400141,-79.988968,Allegheny County Health Department,June 1,November 30,1,1,1,1,1,0,NA,NA
18,Allegheny County Health Department,Allegheny_County_Farmers_Markets_Locations_2019.csv,NA,farmer's market,Clairton Green Grocer,533 Miller Avenue,Clairton,PA,15025,Allegheny,Family Dollar parking lot; Wednesday 3:00 PM-4:00 PM,NA,NA,40.294044,-79.883259,Allegheny County Health Department,January 1,December 31,1,1,1,1,1,0,NA,NA
19,Allegheny County Health Department,Allegheny_County_Farmers_Markets_Locations_2019.csv,NA,farmer's market,Coraopolis Farmer's Market,1211 5th Avenue,Coraopolis,PA,15108,Allegheny,Presbyterian Church; Monday 3:30 PM-6:30 PM,NA,NA,40.516388,-80.16104399999999,Allegheny County Health Department,July 1,September 30,1,1,1,1,1,0,NA,NA
20,Allegheny County Health Department,Allegheny_County_Farmers_Markets_Locations_2019.csv,NA,farmer's market,DeCarlo's Market,560 McKeesport Road,Elizabeth,PA,15037,Allegheny,Monday-Saturday 8:00 AM-6:00 PM,NA,NA,40.278533,-79.875457,Allegheny County Health Department,June 1,November 30,1,1,1,1,1,0,NA,NA
21,Allegheny County Health Department,Allegheny_County_Farmers_Markets_Locations_2019.csv,NA,farmer's market,Dillner Family Farm,4140 Sandy Hill Road,Gibsonia,PA,15044,Allegheny,Monday-Friday 10:00 AM-6:00 PM and Saturday-Sunday 9:00 AM-5:00 PM,NA,NA,40.669553,-79.921152,Allegheny County Health Department,June 1,November 30,1,1,1,1,1,0,NA,NA
22,Allegheny County Health Department,Allegheny_County_Farmers_Markets_Locations_2019.csv,NA,farmer's market,Douds Floyd Farm,405 Pleasant Drive,Aliquippa,PA,15001,Allegheny,Monday-Saturday 11:00 AM-6:00 PM,NA,NA,40.653395,-80.33369,Allegheny County Health Department,August 1,September 30,1,1,1,1,1,0,NA,NA
23,Allegheny County Health Department,Allegheny_County_Farmers_Markets_Locations_2019.csv,NA,farmer's market,Duda's Farm Stand,1029 Lebanon Road,West Mifflin,PA,15122,Allegheny,Monday-Friday 10:00 AM-5:30 PM and Saturday-Sunday 10:00 AM-4:00 PM,NA,NA,40.36009,-79.93272900000001,Allegheny County Health Department,June 1,November 30,1,1,1,1,1,0,NA,NA
24,Allegheny County Health Department,Allegheny_County_Farmers_Markets_Locations_2019.csv,NA,farmer's market,Duda's Farm Stand,Hayden Boulevard,Elizabeth,PA,15037,Allegheny,Monday-Friday 9:00 AM-5:30 PM and Saturday-Sunday 9:30 AM-4:30 PM,NA,NA,40.258934000000004,-79.878584,Allegheny County Health Department,June 1,November 30,1,1,1,1,1,0,NA,NA
25,Allegheny County Health Department,Allegheny_County_Farmers_Markets_Locations_2019.csv,NA,farmer's market,Duquesne Green Grocer,1 N. Linden Street,Duquesne,PA,15110,Allegheny,Greater Pittsburgh Community Food Bank; Thursday 3:00 PM-4:00 PM,NA,NA,40.37579,-79.842718,Allegheny County Health Department,January 1,December 31,1,1,1,1,1,0,NA,NA
26,Allegheny County Health Department,Allegheny_County_Farmers_Markets_Locations_2019.csv,NA,farmer's market,East Hills Green Grocer,2291 Wilner Drive,Pittsburgh,PA,15221,Allegheny,East Hills Community Center; Friday 1:00 PM-2:00 PM,NA,NA,40.454251,-79.869969,Allegheny County Health Department,January 1,December 31,1,1,1,1,1,0,NA,NA
27,Allegheny County Health Department,Allegheny_County_Farmers_Markets_Locations_2019.csv,NA,farmer's market,East Liberty Farmer's Market,N. Euclid Avenue,Pittsburgh,PA,15206,Allegheny,Garland Parklet lot next to firehouse; Monday 3:00 PM-7:00 PM,NA,NA,40.471654,-79.92214799999999,Allegheny County Health Department,June 1,November 30,1,1,1,1,1,0,NA,NA
28,Allegheny County Health Department,Allegheny_County_Farmers_Markets_Locations_2019.csv,NA,farmer's market,Eichner's Farm Market,285 Richard Road,Wexford,PA,15090,Allegheny,Monday-Friday 9:00 AM-6:00 PM and Saturday-Sunday 9:00 AM-5:00 PM,NA,NA,40.607845000000005,-80.060142,Allegheny County Health Department,June 1,November 30,1,1,1,1,1,0,NA,NA
29,Allegheny County Health Department,Allegheny_County_Farmers_Markets_Locations_2019.csv,NA,farmer's market,Elizabeth Farmer's Market,Water Street,Elizabeth,PA,15037,Allegheny,"2nd Saturday of the month, 9:00 AM-1:00 PM",NA,NA,40.272309,-79.888919,Allegheny County Health Department,June 1,October 31,1,1,1,1,1,0,NA,NA
30,Allegheny County Health Department,Allegheny_County_Farmers_Markets_Locations_2019.csv,NA,farmer's market,Etna Farmer's Market,437 Butler Street,Pittsburgh,PA,15223,Allegheny,Thursday 3:00 PM-6:30 PM,NA,NA,40.499688,-79.944058,Allegheny County Health Department,June 1,October 31,1,1,1,1,1,0,NA,NA
31,Allegheny County Health Department,Allegheny_County_Farmers_Markets_Locations_2019.csv,NA,farmer's market,Farmer's Co-Op of East Liberty,344 N. Sheridan Avenue,Pittsburgh,PA,15206,Allegheny,Next to Home Depot; Saturday 5:00 AM-12:00 PM,NA,NA,40.464359,-79.921285,Allegheny County Health Department,January 1,December 31,1,1,1,1,1,0,NA,NA
32,Allegheny County Health Department,Allegheny_County_Farmers_Markets_Locations_2019.csv,NA,farmer's market,Forest Hills Farmer's Market,Ardmore Boulevard,Pittsburgh,PA,15221,Allegheny,Forest Hills Presbyterian Church; Friday 4:00 PM-7:00 PM,NA,NA,40.427339,-79.86283900000001,Allegheny County Health Department,June 1,October 31,1,1,1,1,1,0,NA,NA
33,Allegheny County Health Department,Allegheny_County_Farmers_Markets_Locations_2019.csv,NA,farmer's market,Fox Chapel Farmer's Market,423 Fox Chapel Road,Pittsburgh,PA,15238,Allegheny,Shadyside Academy; Wednesday 3:00 PM-6:30 PM,NA,NA,40.522005,-79.886905,Allegheny County Health Department,June 1,November 30,1,1,1,1,1,0,NA,NA
34,Allegheny County Health Department,Allegheny_County_Farmers_Markets_Locations_2019.csv,NA,farmer's market,Friel's Farm Market,390 Friel Road,Baden,PA,15005,Allegheny,Daily 11:00 AM-6:00 PM,NA,NA,40.631948,-80.156065,Allegheny County Health Department,July 1,October 31,1,1,1,1,1,0,NA,NA
35,Allegheny County Health Department,Allegheny_County_Farmers_Markets_Locations_2019.csv,NA,farmer's market,Glassport Green Grocer,440 Monongahela Avenue,Glassport,PA,15045,Allegheny,Glassport Honor Roll Park; Wednesday 4:30 PM-6:30 PM,NA,NA,40.327806,-79.892689,Allegheny County Health Department,January 1,December 31,1,1,1,1,1,0,NA,NA
36,Allegheny County Health Department,Allegheny_County_Farmers_Markets_Locations_2019.csv,NA,farmer's market,Green Tree Farmer's Market,10 W. Manila Avenue,Pittsburgh,PA,15220,Allegheny,Green Tree Park; Thursday 4:00 PM-7:00 PM,NA,NA,40.418771,-80.04704699999999,Allegheny County Health Department,June 1,October 31,1,1,1,1,1,0,NA,NA
37,Allegheny County Health Department,Allegheny_County_Farmers_Markets_Locations_2019.csv,NA,farmer's market,Harvest Valley Farm,6003 Cunningham Road,Gibsonia,PA,15044,Allegheny,Monday-Friday  10:00 AM-6:00 PM,NA,NA,40.663915,-79.93494399999999,Allegheny County Health Department,NA,NA,1,1,1,1,1,0,NA,date_from missing;date_to missing;
38,Allegheny County Health Department,Allegheny_County_Farmers_Markets_Locations_2019.csv,NA,farmer's market,Holy Cross Farmer's Market,123 Gilkeson Road,Pittsburgh,PA,15228,Allegheny,Monday 4:00 PM-7:00 PM,NA,NA,40.355484000000004,-80.053081,Allegheny County Health Department,June 1,October 31,1,1,1,1,1,0,NA,NA
39,Allegheny County Health Department,Allegheny_County_Farmers_Markets_Locations_2019.csv,NA,farmer's market,Homewood Fresh Access,7139 Frankstown Avenue,Pittsburgh,PA,15208,Allegheny,Last Saturday of the month 3:00 PM-7:00 PM,NA,NA,40.457852,-79.89771999999999,Allegheny County Health Department,July 1,October 31,1,1,1,1,1,0,NA,NA
40,Allegheny County Health Department,Allegheny_County_Farmers_Markets_Locations_2019.csv,NA,farmer's market,Homewood Green Grocer,7227 Hamilton Avenue,Pittsburgh,PA,15208,Allegheny,Alma Illery Medical Center; Friday 11:30 AM-12:30 PM,NA,NA,40.4546,-79.89621700000001,Allegheny County Health Department,January 1,December 31,1,1,1,1,1,0,NA,NA
41,Allegheny County Health Department,Allegheny_County_Farmers_Markets_Locations_2019.csv,NA,farmer's market,Homewood Backyard Market,7139 Frankstown Avenue,Pittsburgh,PA,15208,Allegheny,Wednesday 3:00 PM-5:30 PM,NA,NA,40.457852,-79.89771999999999,Allegheny County Health Department,July 1,July 31,1,1,1,1,1,0,NA,NA
42,Allegheny County Health Department,Allegheny_County_Farmers_Markets_Locations_2019.csv,NA,farmer's market,Janoski's Farm Market,1714 Route 30,Clinton,PA,15026,Allegheny,Daily 9:00 AM-6:00 PM,NA,NA,40.492125,-80.331248,Allegheny County Health Department,June 1,November 30,1,1,1,1,1,0,NA,NA
43,Allegheny County Health Department,Allegheny_County_Farmers_Markets_Locations_2019.csv,NA,farmer's market,Jodikinos Farm Stand,2488 Route 18,Clinton,PA,15026,Allegheny,Daily 9:00 AM-6:00 PM,NA,NA,40.540033,-80.419116,Allegheny County Health Department,June 1,November 30,1,1,1,1,1,0,NA,NA
44,Allegheny County Health Department,Allegheny_County_Farmers_Markets_Locations_2019.csv,NA,farmer's market,Larimer Farm Stand,413 Larimer Avenue,Pittsburgh,PA,15206,Allegheny,Larimer Community Garden & Urban Farm; 4th Sunday of the month 3:00 PM-7:00 PM,NA,NA,40.465052,-79.915181,Allegheny County Health Department,June 23,November 24,1,1,1,1,1,0,NA,NA
45,Allegheny County Health Department,Allegheny_County_Farmers_Markets_Locations_2019.csv,NA,farmer's market,Late Bloomers Garden Club Farmer's Market,1840 Ardmore Boulevard,Pittsburgh,PA,15221,Allegheny,Friday 4:00 PM-7:00 PM,NA,NA,40.424984,-79.861141,Allegheny County Health Department,June 1,October 31,1,1,1,1,1,0,NA,NA
46,Allegheny County Health Department,Allegheny_County_Farmers_Markets_Locations_2019.csv,NA,farmer's market,Lawrenceville Farmer's Market,250 40th Street,Pittsburgh,PA,15201,Allegheny,Arsenal Park (near 40th St. entrance); Tuesday 4:00 PM-7:00 PM,NA,NA,40.467695,-79.96079499999999,Allegheny County Health Department,June 1,October 31,1,1,1,1,1,0,NA,NA
47,Allegheny County Health Department,Allegheny_County_Farmers_Markets_Locations_2019.csv,NA,farmer's market,Mallisee Farm,Saltsburg Road at Willow Village,Pittsburgh,PA,15239,Allegheny,Daily 11:00 AM-5:00 PM,NA,NA,40.475162,-79.77177900000001,Allegheny County Health Department,July 1,September 30,1,1,1,1,1,0,NA,NA
48,Allegheny County Health Department,Allegheny_County_Farmers_Markets_Locations_2019.csv,NA,farmer's market,Market Square Farmer's Market,Market Square,Pittsburgh,PA,15222,Allegheny,Thursday 10:00 AM-2:00 PM,NA,NA,40.441025,-80.002645,Allegheny County Health Department,June 1,October 31,1,1,1,1,1,0,NA,NA
49,Allegheny County Health Department,Allegheny_County_Farmers_Markets_Locations_2019.csv,NA,farmer's market,Mazurs Greenhouse and Farm,3333 Babcock Boulevard,Pittsburgh,PA,15237,Allegheny,Mazurs Autobody; Daily 10:00 AM-4:00 PM,NA,NA,40.533761,-80.019284,Allegheny County Health Department,June 1,October 31,1,1,1,1,1,0,NA,NA
50,Allegheny County Health Department,Allegheny_County_Farmers_Markets_Locations_2019.csv,NA,farmer's market,McConnell's Hill Farm,294 New Bethlehem Church Road,Aliquippa,PA,15001,Allegheny,Monday-Saturday 10:00 AM-6:00 PM and Sunday 10 AM-4 PM,NA,NA,40.534606,-80.29174499999999,Allegheny County Health Department,July 1,October 31,1,1,1,1,1,0,NA,NA
51,Allegheny County Health Department,Allegheny_County_Farmers_Markets_Locations_2019.csv,NA,farmer's market,McKees Rocks Green Grocer,1100 Chartiers Avenue,McKees Rocks,PA,15136,Allegheny,5 Generation Bakers; Tuesday 12:00 PM-1:00 PM,NA,NA,40.46563,-80.06818,Allegheny County Health Department,January 1,December 31,1,1,1,1,1,0,NA,NA
52,Allegheny County Health Department,Allegheny_County_Farmers_Markets_Locations_2019.csv,NA,farmer's market,Mellon Square Farmer's Market,529 Smithfield Street,Pittsburgh,PA,15222,Allegheny,Friday 10:30 AM-1:30 PM,NA,NA,40.440903000000006,-79.998276,Allegheny County Health Department,June 1,October 31,1,1,1,1,1,0,NA,NA
53,Allegheny County Health Department,Allegheny_County_Farmers_Markets_Locations_2019.csv,NA,farmer's market,Millvale Green Grocer,518 Grant Avenue,Pittsburgh,PA,15209,Allegheny,GAP Park; Tuesday 4:30 PM-5:30 PM,NA,NA,40.480754,-79.974368,Allegheny County Health Department,January 1,December 31,1,1,1,1,1,0,NA,NA
54,Allegheny County Health Department,Allegheny_County_Farmers_Markets_Locations_2019.csv,NA,farmer's market,Misera Farms,Butler Logan Road,Tarentum,PA,15084,Allegheny,Saturday-Sunday 11:00 AM-4:00 PM,NA,NA,40.579492,-79.797134,Allegheny County Health Department,June 1,October 31,1,1,1,1,1,0,NA,NA
55,Allegheny County Health Department,Allegheny_County_Farmers_Markets_Locations_2019.csv,NA,farmer's market,Monroeville Lion's Farmer's Market,2399 Tillbrook Road,Monroeville,PA,15146,Allegheny,Monroeville Community Park; Saturday 9:00 AM-12:30 PM,NA,NA,40.418341999999996,-79.76398499999999,Allegheny County Health Department,June 1,November 30,1,1,1,1,1,0,NA,NA
56,Allegheny County Health Department,Allegheny_County_Farmers_Markets_Locations_2019.csv,NA,farmer's market,Moon Township Farmer's Market,1000 Beaver Grade Road,Moon Township,PA,15108,Allegheny,Municipal Building; Wednesday 3:00 PM-6:00 PM,NA,NA,40.504587,-80.208135,Allegheny County Health Department,June 1,September 30,1,1,1,1,1,0,NA,NA
57,Allegheny County Health Department,Allegheny_County_Farmers_Markets_Locations_2019.csv,NA,farmer's market,Mt. Hope Farmer's Market,12106 Frankstown Road,Pittsburgh,PA,15235,Allegheny,Wednesday 2:00 PM-6:00 PM,NA,NA,40.470772,-79.82047800000001,Allegheny County Health Department,June 1,September 30,1,1,1,1,1,0,NA,NA
58,Allegheny County Health Department,Allegheny_County_Farmers_Markets_Locations_2019.csv,NA,farmer's market,Mt. Lebanon Lions Farmer's Market,975 Washington Road,Pittsburgh,PA,15228,Allegheny,United Lutheran Church parking lot; Wednesday 4:00 PM-7:00 PM,NA,NA,40.37376,-80.04813100000001,Allegheny County Health Department,June 1,October 31,1,1,1,1,1,0,NA,NA
59,Allegheny County Health Department,Allegheny_County_Farmers_Markets_Locations_2019.csv,NA,farmer's market,Mt. Lebanon Upton Farmer's Market,710 Washington Road,Pittsburgh,PA,15228,Allegheny,Saturday 9:00 AM-12:00 PM,NA,NA,40.379964,-80.045191,Allegheny County Health Department,June 1,November 30,1,1,1,1,1,0,NA,NA
60,Allegheny County Health Department,Allegheny_County_Farmers_Markets_Locations_2019.csv,NA,farmer's market,Mt. Oliver/Knoxville Green Grocer,Brownsville Road at Hays Avenue,Pittsburgh,PA,15210,Allegheny,Clock Tower; Thursday 11:00 AM-12:00 PM,NA,NA,40.414217,-79.987975,Allegheny County Health Department,January 1,December 31,1,1,1,1,1,0,NA,NA
61,Allegheny County Health Department,Allegheny_County_Farmers_Markets_Locations_2019.csv,NA,farmer's market,New Sheffield Farmer's Market,2816 Brodhead Road,Aliquippa,PA,15001,Allegheny,Wednesday 3:30 PM-6:30 PM,NA,NA,40.615515,-80.28545799999999,Allegheny County Health Department,June 1,November 30,1,1,1,1,1,0,NA,NA
62,Allegheny County Health Department,Allegheny_County_Farmers_Markets_Locations_2019.csv,NA,farmer's market,Northside Farmer's Market,801 Union Place,Pittsburgh,PA,15212,Allegheny,Allegheny Commons East Park; Friday 3:00 PM-7:00 PM,NA,NA,40.454513,-80.002965,Allegheny County Health Department,June 1,November 30,1,1,1,1,1,0,NA,NA
63,Allegheny County Health Department,Allegheny_County_Farmers_Markets_Locations_2019.csv,NA,farmer's market,Oakland Farmer's Market,4100 Forbes Avenue,Pittsburgh,PA,15213,Allegheny,Schenley Plaza; Friday 2:00 PM-6:00 PM,NA,NA,40.443386,-79.952135,Allegheny County Health Department,July 1,October 31,1,1,1,1,1,0,NA,NA
64,Allegheny County Health Department,Allegheny_County_Farmers_Markets_Locations_2019.csv,NA,farmer's market,Olde World Produce,1206 Route 51,Jefferson Hills,PA,15025,Allegheny,Ciccanti's Ristorante parking lot; Daily 9:30 AM-5:00 PM,NA,NA,40.31224,-79.938562,Allegheny County Health Department,July 1,September 30,1,1,1,1,1,0,NA,NA
65,Allegheny County Health Department,Allegheny_County_Farmers_Markets_Locations_2019.csv,NA,farmer's market,Original Farmer's Market,151 Parks Road,Cuddy,PA,15031,Allegheny,"Monday, Wednesday, and Friday 5:30 PM-9:00 PM",NA,NA,40.339917,-80.171283,Allegheny County Health Department,June 1,November 30,1,1,1,1,1,0,NA,NA
66,Allegheny County Health Department,Allegheny_County_Farmers_Markets_Locations_2019.csv,NA,farmer's market,Pennsylvania Market Building,108 18th Street,Pittsburgh,PA,15222,Allegheny,Saturday 8:00 AM-4:00 PM,NA,NA,40.450759000000005,-79.985309,Allegheny County Health Department,June 1,November 30,1,1,1,1,1,0,NA,NA
67,Allegheny County Health Department,Allegheny_County_Farmers_Markets_Locations_2019.csv,NA,farmer's market,Ross Township Farmer's Market,920 Perry Highway,Pittsburgh,PA,15237,Allegheny,St. John's Church ; Wednesday 3:00 PM-7:00 PM,NA,NA,40.533395,-80.03564,Allegheny County Health Department,June 1,October 31,1,1,1,1,1,0,NA,NA
68,Allegheny County Health Department,Allegheny_County_Farmers_Markets_Locations_2019.csv,NA,farmer's market,Schiefelbein Farm Stand,3323 Route 151,Aliquippa,PA,15001,Allegheny,Daily 11:00 AM-7:00 PM with  5:00 PM closing in November,NA,NA,40.545145,-80.306042,Allegheny County Health Department,June 1,November 30,1,1,1,1,1,0,NA,NA
69,Allegheny County Health Department,Allegheny_County_Farmers_Markets_Locations_2019.csv,NA,farmer's market,Sewickley Farmer's Market,200 Walnut Street,Sewickley,PA,15143,Allegheny,St. James Catholic Church parking lot; Saturday 9:00 AM-1:00 PM,NA,NA,40.537606,-80.184696,Allegheny County Health Department,June 1,November 30,1,1,1,1,1,0,NA,NA
70,Allegheny County Health Department,Allegheny_County_Farmers_Markets_Locations_2019.csv,NA,farmer's market,Sharpsburg Green Grocer,1212 Main Street,Pittsburgh,PA,15215,Allegheny,Sharpsburg Community Library; Monday 3:30 PM-4:30 PM,NA,NA,40.494457000000004,-79.930212,Allegheny County Health Department,January 1,December 31,1,1,1,1,1,0,NA,NA
71,Allegheny County Health Department,Allegheny_County_Farmers_Markets_Locations_2019.csv,NA,farmer's market,Shenot Farm Market,3754 Wexford Run Road,Wexford,PA,15090,Allegheny,Daily 9:00 AM-6:00 PM,NA,NA,40.627021,-80.07968000000001,Allegheny County Health Department,June 1,November 30,1,1,1,1,1,0,NA,NA
72,Allegheny County Health Department,Allegheny_County_Farmers_Markets_Locations_2019.csv,NA,farmer's market,Sheraden Green Grocer,720 Sherwood Avenue,Pittsburgh,PA,15204,Allegheny,Sheraden Library; Tuesday 1:30 PM-2:30 PM,NA,NA,40.455202,-80.056557,Allegheny County Health Department,January 1,December 31,1,1,1,1,1,0,NA,NA
73,Allegheny County Health Department,Allegheny_County_Farmers_Markets_Locations_2019.csv,NA,farmer's market,Shiloh Farm Stand,Thomas Boulevard & Homewood Avenue,Pittsburgh,PA,15208,Allegheny,Thursday 3:00 PM-6:00 PM,NA,NA,40.451184000000005,-79.9899089,Allegheny County Health Department,June 1,October 31,1,1,1,1,1,0,NA,NA
74,Allegheny County Health Department,Allegheny_County_Farmers_Markets_Locations_2019.csv,NA,farmer's market,Simmons Farm Market,170 Simmons Road,McMurray,PA,15317,Allegheny,Daily 9:00 AM-6:00 PM,NA,NA,40.270055,-80.082325,Allegheny County Health Department,June 1,November 30,1,1,1,1,1,0,NA,NA
75,Allegheny County Health Department,Allegheny_County_Farmers_Markets_Locations_2019.csv,NA,farmer's market,Simmons Farm Market,2861 Washington Road,McMurray,PA,15317,Allegheny,Daily 9:00 AM-7:00 PM,NA,NA,40.300759,-80.098302,Allegheny County Health Department,June 1,November 30,1,1,1,1,1,0,NA,NA
76,Allegheny County Health Department,Allegheny_County_Farmers_Markets_Locations_2019.csv,NA,farmer's market,Soergel Orchards,2573 Brandt School Road,Wexford,PA,15090,Allegheny,Monday-Friday 8:00 AM-7:30 PM and Saturday-Sunday 8:00 AM-6:00 PM,NA,NA,40.614598,-80.092754,Allegheny County Health Department,January 1,December 31,1,1,1,1,1,0,NA,NA
77,Allegheny County Health Department,Allegheny_County_Farmers_Markets_Locations_2019.csv,NA,farmer's market,Southside Farmer's Market,18th Street & East Carson Street,Pittsburgh,PA,15203,Allegheny,Parking lot; Tuesday 3:00 PM-7:00 PM,NA,NA,40.428468,-79.98029100000001,Allegheny County Health Department,June 1,November 30,1,1,1,1,1,0,NA,NA
78,Allegheny County Health Department,Allegheny_County_Farmers_Markets_Locations_2019.csv,NA,farmer's market,Spring Hill Green Grocer,125 Rhine Place,Pittsburgh,PA,15212,Allegheny,Three Rivers Manor; Monday 2:00 PM-3:00 PM,NA,NA,40.467138,-79.993135,Allegheny County Health Department,January 1,December 31,1,1,1,1,1,0,NA,NA
79,Allegheny County Health Department,Allegheny_County_Farmers_Markets_Locations_2019.csv,NA,farmer's market,Squirrel Hill Farmer's Market,5737 Beacon Street,Pittsburgh,PA,15217,Allegheny,Pittsburgh Parking Authority parking lot; Sunday  9:00 AM-1:00 PM,NA,NA,40.434744,-79.924142,Allegheny County Health Department,June 1,November 30,1,1,1,1,1,0,NA,NA
80,Allegheny County Health Department,Allegheny_County_Farmers_Markets_Locations_2019.csv,NA,farmer's market,Steel Plaza Farmer's Market,8 Grant Street,Pittsburgh,PA,15222,Allegheny,Steel Plaza; Friday 10:00 AM-2:00 PM,NA,NA,40.441041,-79.99534399999999,Allegheny County Health Department,June 1,October 31,1,1,1,1,1,0,NA,NA
81,Allegheny County Health Department,Allegheny_County_Farmers_Markets_Locations_2019.csv,NA,farmer's market,Swissvale Fresh Access,2036 Noble Street,Pittsburgh,PA,15218,Allegheny,Municipal parking lot; Saturday 9:00 AM-1:00 PM,NA,NA,40.420912,-79.885924,Allegheny County Health Department,June 1,October 31,1,1,1,1,1,0,NA,NA
82,Allegheny County Health Department,Allegheny_County_Farmers_Markets_Locations_2019.csv,NA,farmer's market,Tarentum Farmer's Market,913 Lock Street,Tarentum,PA,15084,Allegheny,Wednesday 9:00 AM-1:00 PM,NA,NA,40.604353,-79.756658,Allegheny County Health Department,June 1,October 31,1,1,1,1,1,0,NA,NA
83,Allegheny County Health Department,Allegheny_County_Farmers_Markets_Locations_2019.csv,NA,farmer's market,The Block @ Northway,8103 McKnight Road,Pittsburgh,PA,15237,Allegheny,Northway Mall; Friday 3:00 PM-7:00 PM,NA,NA,40.558382,-80.023612,Allegheny County Health Department,June 1,October 31,1,1,1,1,1,0,NA,NA
84,Allegheny County Health Department,Allegheny_County_Farmers_Markets_Locations_2019.csv,NA,farmer's market,Tractor Supply Farmer's Market,4015 Freeport Road,Natrona Heights,PA,15065,Allegheny,Highlands Mall; Friday 3:00 PM-6:00 PM,NA,NA,40.646918,-79.710027,Allegheny County Health Department,June 1,October 31,1,1,1,1,1,0,NA,NA
85,Allegheny County Health Department,Allegheny_County_Farmers_Markets_Locations_2019.csv,NA,farmer's market,Trax Farms,528 Trax Road,Finleyville,PA,15332,Allegheny,Monday-Friday 9:00 AM-8:00 PM and Saturday-Sunday 9:00 AM-6:00 PM,NA,NA,40.276656,-80.032011,Allegheny County Health Department,June 1,November 30,1,1,1,1,1,0,NA,NA
86,Allegheny County Health Department,Allegheny_County_Farmers_Markets_Locations_2019.csv,NA,farmer's market,Triple B Farms,823 Berry Lane,Monongahela,PA,15063,Allegheny,Monday-Friday 9:00 AM-6:00 PM and Saturday-Sunday 9:00 AM-5:00 PM,NA,NA,40.226375,-79.946364,Allegheny County Health Department,June 1,October 31,1,1,1,1,1,0,NA,NA
87,Allegheny County Health Department,Allegheny_County_Farmers_Markets_Locations_2019.csv,NA,farmer's market,Upper St. Clair Lions Farmer's Market,2040 Washington Road,Pittsburgh,PA,15241,Allegheny,Westminster Presbyterian Church; Thursday 4:00 PM-7:00 PM,NA,NA,40.339976,-80.065555,Allegheny County Health Department,June 1,September 30,1,1,1,1,1,0,NA,NA
88,Allegheny County Health Department,Allegheny_County_Farmers_Markets_Locations_2019.csv,NA,farmer's market,Valley View Farm Stand,601 N. Aiken Avenue,Pittsburgh,PA,15206,Allegheny,Wednesday 3:00 PM-7:00 PM,NA,NA,40.47095,-79.932796,Allegheny County Health Department,June 1,October 31,1,1,1,1,1,0,NA,NA
89,Allegheny County Health Department,Allegheny_County_Farmers_Markets_Locations_2019.csv,NA,farmer's market,Verona Farmer's Market,736 East Railroad Avenue,Verona,PA,15147,Allegheny,Thursday 2:00 PM-7:00 PM,NA,NA,40.506048,-79.844477,Allegheny County Health Department,June 1,November 30,1,1,1,1,1,0,NA,NA
90,Allegheny County Health Department,Allegheny_County_Farmers_Markets_Locations_2019.csv,NA,farmer's market,West Homestead Farmer's Market,456 W. 8th Avenue,Homestead,PA,15120,Allegheny,Thursday 3:00 PM-7:00 PM,NA,NA,40.401228,-79.917314,Allegheny County Health Department,June 1,October 31,1,1,1,1,1,0,NA,NA
91,Allegheny County Health Department,Allegheny_County_Farmers_Markets_Locations_2019.csv,NA,farmer's market,Wexford Farms,550 Warrendale Road,Wexford,PA,15090,Allegheny,Daily 8:00 AM-4:00 PM,NA,NA,40.64763,-80.10012900000001,Allegheny County Health Department,June 1,October 31,1,1,1,1,1,0,NA,NA
92,Allegheny County Health Department,Allegheny_County_Farmers_Markets_Locations_2019.csv,NA,farmer's market,Wilkins Township Farmer's Market,333 Penn Center Boulevard,Pittsburgh,PA,15235,Allegheny,Route 22 Penn Center; Wednesday 3:00 PM-6:30 PM,NA,NA,40.427682,-79.811636,Allegheny County Health Department,June 1,October 31,1,1,1,1,1,0,NA,NA
93,Allegheny County Health Department,Allegheny_County_Farmers_Markets_Locations_2019.csv,NA,farmer's market,Wilkinsburg Farmer's Market,225 Penn Avenue,Pittsburgh,PA,15221,Allegheny,Life Care Hospital parking lot; Thursday 3:00 PM-6:30 PM,NA,NA,40.446769,-79.891807,Allegheny County Health Department,June 1,November 30,1,1,1,1,1,0,NA,NA
94,Allegheny County Health Department,Allegheny_County_Farmers_Markets_Locations_2019.csv,NA,farmer's market,Wilmerding Green Grocer,314 Commerce Street,Wilmerding,PA,15148,Allegheny,Wilmerding Apartments; Friday 2:30 PM-3:30 PM,NA,NA,40.392927,-79.807721,Allegheny County Health Department,January 1,December 31,1,1,1,1,1,0,NA,NA
95,Allegheny County Health Department,Allegheny_County_Farmers_Markets_Locations_2019.csv,NA,farmer's market,Woods Run Green Grocer,1201 Woods Run Avenue,Pittsburgh,PA,15212,Allegheny,Woods Run Library; Tuesday 3:00 PM-4:00 PM,NA,NA,40.476243,-80.030199,Allegheny County Health Department,January 1,December 31,1,1,1,1,1,0,NA,NA
96,WPRDC,Allegheny_County_WIC_Vendor_Locations.xlsx,3150892,NA,Community Market,1710 Pacific Avenue,Natrona Heights,PA,15065,NA,NA,NA,NA,40.62110699999999,-79.7241253,Google,NA,NA,0,1,1,0,0,0,NA,lat/long invalid;no date/time info;state assumed PA;missing type
97,WPRDC,Allegheny_County_WIC_Vendor_Locations.xlsx,3148048,NA,Community Market,1117 Mill Town Road,Verona,PA,15147,NA,NA,NA,NA,40.4986122,-79.79066759999999,Google,NA,NA,0,1,1,0,0,0,NA,lat/long invalid;no date/time info;state assumed PA;missing type
98,WPRDC,Allegheny_County_WIC_Vendor_Locations.xlsx,3083227,NA,Coraopolis Cash Market,1017 4th Avenue,Coraopolis,PA,15108,NA,NA,NA,NA,40.5183013,-80.16280359999999,Google,NA,NA,0,1,1,0,0,0,NA,lat/long invalid;no date/time info;state assumed PA;missing type
99,WPRDC,Allegheny_County_WIC_Vendor_Locations.xlsx,2693039,NA,Giant Eagle,5055 Library Road,Bethel Park,PA,15102,NA,NA,NA,NA,40.3374733,-80.0240616,Google,NA,NA,0,1,1,0,0,0,NA,lat/long invalid;no date/time info;state assumed PA;missing type
100,WPRDC,Allegheny_County_WIC_Vendor_Locations.xlsx,2805222,NA,Giant Eagle,254 Yost Boulevard,Braddock Hills,PA,15221,NA,NA,NA,NA,40.4145589,-79.85567,Google,NA,NA,0,1,1,0,0,0,NA,lat/long invalid;no date/time info;state assumed PA;missing type
101,WPRDC,Allegheny_County_WIC_Vendor_Locations.xlsx,3161264,NA,Giant Eagle,600 Towne Square Way,Brentwood,PA,15227,NA,NA,NA,NA,40.3657243,-79.98327069999999,Google,NA,NA,0,1,1,0,0,0,NA,lat/long invalid;no date/time info;state assumed PA;missing type
102,WPRDC,Allegheny_County_WIC_Vendor_Locations.xlsx,2654758,NA,Giant Eagle,132 Ben Avon Heights Road,Camp Horne,PA,15237,NA,NA,NA,NA,40.5216374,-80.0694309,Google,NA,NA,0,1,1,0,0,0,NA,lat/long invalid;no date/time info;state assumed PA;missing type
103,WPRDC,Allegheny_County_WIC_Vendor_Locations.xlsx,2665562,NA,Giant Eagle,5260 Grove Road,Caste Village,PA,15236,NA,NA,NA,NA,40.358691,-80.00139270000001,Google,NA,NA,0,1,1,0,0,0,NA,lat/long invalid;no date/time info;state assumed PA;missing type
104,WPRDC,Allegheny_County_WIC_Vendor_Locations.xlsx,3029807,NA,Giant Eagle,9901 Mountain View Drive,Century III,PA,15122,NA,NA,NA,NA,40.3396526,-79.9497457,Google,NA,NA,0,1,1,0,0,0,NA,lat/long invalid;no date/time info;state assumed PA;missing type
105,WPRDC,Allegheny_County_WIC_Vendor_Locations.xlsx,2827562,NA,Giant Eagle,6320 Shakespeare Street,East Liberty,PA,15206,NA,NA,NA,NA,40.4586113,-79.9207596,Google,NA,NA,0,1,1,0,0,0,NA,lat/long invalid;no date/time info;state assumed PA;missing type
106,WPRDC,Allegheny_County_WIC_Vendor_Locations.xlsx,80632,NA,Giant Eagle,1705 S. Braddock Avenue,Edgewood,PA,15218,NA,NA,NA,NA,40.4257165,-79.8865572,Google,NA,NA,0,1,1,0,0,0,NA,lat/long invalid;no date/time info;state assumed PA;missing type
107,WPRDC,Allegheny_County_WIC_Vendor_Locations.xlsx,3168164,NA,Giant Eagle,800 Mckeesport Road,Elizabeth,PA,15037,NA,NA,NA,NA,40.2799463,-79.87563740000002,Google,NA,NA,0,1,1,0,0,0,NA,lat/long invalid;no date/time info;state assumed PA;missing type
108,WPRDC,Allegheny_County_WIC_Vendor_Locations.xlsx,2845101,NA,Giant Eagle,910 Freeport Road,Fox Chapel,PA,15238,NA,NA,NA,NA,40.4885202,-79.893768,Google,NA,NA,0,1,1,0,0,0,NA,lat/long invalid;no date/time info;state assumed PA;missing type
109,WPRDC,Allegheny_County_WIC_Vendor_Locations.xlsx,3099409,NA,Giant Eagle,9001 Frankstown Road,Frankstown,PA,15235,NA,NA,NA,NA,40.4622839,-79.8652086,Google,NA,NA,0,1,1,0,0,0,NA,lat/long invalid;no date/time info;state assumed PA;missing type
110,WPRDC,Allegheny_County_WIC_Vendor_Locations.xlsx,3138681,NA,Giant Eagle,4250 Murray Avenue,Greenfield,PA,15217,NA,NA,NA,NA,40.4223167,-79.92950139999999,Google,NA,NA,0,1,1,0,0,0,NA,lat/long invalid;no date/time info;state assumed PA;missing type
111,WPRDC,Allegheny_County_WIC_Vendor_Locations.xlsx,2835432,NA,Giant Eagle,420 East Waterfront Drive,Homestead,PA,15120,NA,NA,NA,NA,40.410888,-79.9088628,Google,NA,NA,0,1,1,0,0,0,NA,lat/long invalid;no date/time info;state assumed PA;missing type
112,WPRDC,Allegheny_County_WIC_Vendor_Locations.xlsx,2701552,NA,Giant Eagle,1800 Mckees Rocks Road,Kennedy Twp.,PA,15136,NA,NA,NA,NA,40.4677498,-80.0976633,Google,NA,NA,0,1,1,0,0,0,NA,lat/long invalid;no date/time info;state assumed PA;missing type
113,WPRDC,Allegheny_County_WIC_Vendor_Locations.xlsx,3168084,NA,Giant Eagle,3812 O'Neil Boulevard,Mckeesport,PA,15132,NA,NA,NA,NA,40.3472464,-79.8311624,Google,NA,NA,0,1,1,0,0,0,NA,lat/long invalid;no date/time info;state assumed PA;missing type
114,WPRDC,Allegheny_County_WIC_Vendor_Locations.xlsx,3119721,NA,Giant Eagle,4680 Old William Penn Hwy.,Monroeville,PA,15146,NA,NA,NA,NA,40.4386696,-79.7412143,Google,NA,NA,0,1,1,0,0,0,NA,lat/long invalid;no date/time info;state assumed PA;missing type
115,WPRDC,Allegheny_County_WIC_Vendor_Locations.xlsx,2952691,NA,Giant Eagle,4010 Monroeville Boulevard,Monroeville Blvd.,PA,15146,NA,NA,NA,NA,40.4320293,-79.7727547,Google,NA,NA,0,1,1,0,0,0,NA,lat/long invalid;no date/time info;state assumed PA;missing type
116,WPRDC,Allegheny_County_WIC_Vendor_Locations.xlsx,3168226,NA,Giant Eagle,5990 University Boulevard,Moon Twp.,PA,15108,NA,NA,NA,NA,40.5212671,-80.21977749999999,Google,NA,NA,0,1,1,0,0,0,NA,lat/long invalid;no date/time info;state assumed PA;missing type
117,WPRDC,Allegheny_County_WIC_Vendor_Locations.xlsx,16296,NA,Giant Eagle,8050 McKnight Road,North Hills,PA,15237,NA,NA,NA,NA,40.5553093,-80.0183758,Google,NA,NA,0,1,1,0,0,0,NA,lat/long invalid;no date/time info;state assumed PA;missing type
118,WPRDC,Allegheny_County_WIC_Vendor_Locations.xlsx,38534,NA,Giant Eagle,318-320 Cedar Avenue,North Shore,PA,15212,NA,NA,NA,NA,40.4514581,-79.9996227,Google,NA,NA,0,1,1,0,0,0,NA,lat/long invalid;no date/time info;state assumed PA;missing type
119,WPRDC,Allegheny_County_WIC_Vendor_Locations.xlsx,3174633,NA,Giant Eagle,1701 Lincoln Highway,North Versailles,PA,15137,NA,NA,NA,NA,40.3720217,-79.7856798,Google,NA,NA,0,1,1,0,0,0,NA,lat/long invalid;no date/time info;state assumed PA;missing type
120,WPRDC,Allegheny_County_WIC_Vendor_Locations.xlsx,2752932,NA,Giant Eagle,4110 Brighton Road,Northside,PA,15212,NA,NA,NA,NA,40.48922900000001,-80.0442006,Google,NA,NA,0,1,1,0,0,0,NA,lat/long invalid;no date/time info;state assumed PA;missing type
121,WPRDC,Allegheny_County_WIC_Vendor_Locations.xlsx,2663456,NA,Giant Eagle,230 Rodi Road,Penn Hills,PA,15235,NA,NA,NA,NA,40.4623588,-79.8269187,Google,NA,NA,0,1,1,0,0,0,NA,lat/long invalid;no date/time info;state assumed PA;missing type
122,WPRDC,Allegheny_County_WIC_Vendor_Locations.xlsx,2770095,NA,Giant Eagle,9805 McKnight Road,Pine Creek,PA,15237,NA,NA,NA,NA,40.5846393,-80.04039379999999,Google,NA,NA,0,1,1,0,0,0,NA,lat/long invalid;no date/time info;state assumed PA;missing type
123,WPRDC,Allegheny_County_WIC_Vendor_Locations.xlsx,3158672,NA,Giant Eagle,155 Towne Centre Drive,Pine Township,PA,15090,NA,NA,NA,NA,40.63215539999999,-80.05431449999999,Google,NA,NA,0,1,1,0,0,0,NA,lat/long invalid;no date/time info;state assumed PA;missing type
124,WPRDC,Allegheny_County_WIC_Vendor_Locations.xlsx,3152683,NA,Giant Eagle,100 Settlers Ridge Center Dr.,Robinson Twp.,PA,15205,NA,NA,NA,NA,40.4417398,-80.1512245,Google,NA,NA,0,1,1,0,0,0,NA,lat/long invalid;no date/time info;state assumed PA;missing type
125,WPRDC,Allegheny_County_WIC_Vendor_Locations.xlsx,2760795,NA,Giant Eagle,5550 Centre Avenue,Shadyside,PA,15232,NA,NA,NA,NA,40.4564927,-79.93460549999999,Google,NA,NA,0,1,1,0,0,0,NA,lat/long invalid;no date/time info;state assumed PA;missing type
126,WPRDC,Allegheny_County_WIC_Vendor_Locations.xlsx,3155863,NA,Giant Eagle,1671 Butler Plank Road,Shaler,PA,15116,NA,NA,NA,NA,40.5378264,-79.9652576,Google,NA,NA,0,1,1,0,0,0,NA,lat/long invalid;no date/time info;state assumed PA;missing type
127,WPRDC,Allegheny_County_WIC_Vendor_Locations.xlsx,3168245,NA,Giant Eagle,3239 Washington Pike,South Fayette,PA,15017,NA,NA,NA,NA,40.3409669,-80.1189114,Google,NA,NA,0,1,1,0,0,0,NA,lat/long invalid;no date/time info;state assumed PA;missing type
128,WPRDC,Allegheny_County_WIC_Vendor_Locations.xlsx,2929702,NA,Giant Eagle,2021 Wharton Street,South Side,PA,15203,NA,NA,NA,NA,40.4311183,-79.97668379999999,Google,NA,NA,0,1,1,0,0,0,NA,lat/long invalid;no date/time info;state assumed PA;missing type
129,WPRDC,Allegheny_County_WIC_Vendor_Locations.xlsx,2977355,NA,Giant Eagle,1901 Murray Avenue,Squirrel Hill,PA,15217,NA,NA,NA,NA,40.4357338,-79.9225263,Google,NA,NA,0,1,1,0,0,0,NA,lat/long invalid;no date/time info;state assumed PA;missing type
130,WPRDC,Allegheny_County_WIC_Vendor_Locations.xlsx,2869549,NA,Giant Eagle,200 Allegheny River Boulevard,Verona,PA,15147,NA,NA,NA,NA,40.4991976,-79.84455489999999,Google,NA,NA,0,1,1,0,0,0,NA,lat/long invalid;no date/time info;state assumed PA;missing type
131,WPRDC,Allegheny_County_WIC_Vendor_Locations.xlsx,2914092,NA,Giant Eagle,7000 Oxford Drive,Village Square,PA,15102,NA,NA,NA,NA,40.3469341,-80.0471587,Google,NA,NA,0,1,1,0,0,0,NA,lat/long invalid;no date/time info;state assumed PA;missing type
132,WPRDC,Allegheny_County_WIC_Vendor_Locations.xlsx,2712572,NA,Giant Eagle,1717 Cochran Road,Virginia Manor,PA,15220,NA,NA,NA,NA,40.3927168,-80.06587259999999,Google,NA,NA,0,1,1,0,0,0,NA,lat/long invalid;no date/time info;state assumed PA;missing type
133,WPRDC,Allegheny_County_WIC_Vendor_Locations.xlsx,3141762,NA,Giant Eagle,1356 Hoffman Boulevard,West Mifflin,PA,15122,NA,NA,NA,NA,40.3843975,-79.8683695,Google,NA,NA,0,1,1,0,0,0,NA,lat/long invalid;no date/time info;state assumed PA;missing type
134,WPRDC,Allegheny_County_WIC_Vendor_Locations.xlsx,85222,NA,Giant Eagle,1029 West View Park Drive,West View,PA,15229,NA,NA,NA,NA,40.5168603,-80.0389965,Google,NA,NA,0,1,1,0,0,0,NA,lat/long invalid;no date/time info;state assumed PA;missing type
135,WPRDC,Allegheny_County_WIC_Vendor_Locations.xlsx,2976969,NA,Giant Eagle,2001 Lincoln Way,White Oak,PA,15131,NA,NA,NA,NA,40.3360149,-79.8050112,Google,NA,NA,0,1,1,0,0,0,NA,lat/long invalid;no date/time info;state assumed PA;missing type
136,WPRDC,Allegheny_County_WIC_Vendor_Locations.xlsx,3162107,NA,Giant Eagle Express,2611 Freeport Road,Harmar,PA,15238,NA,NA,NA,NA,40.5379144,-79.8388218,Google,NA,NA,0,1,1,0,0,0,NA,lat/long invalid;no date/time info;state assumed PA;missing type
137,WPRDC,Allegheny_County_WIC_Vendor_Locations.xlsx,3162338,NA,Gorkhali Store,2116 Brownsville Rd.,Mt. Oliver,PA,15210,NA,NA,NA,NA,40.3927002,-79.98714989999999,Google,NA,NA,0,1,1,0,0,0,NA,lat/long invalid;no date/time info;state assumed PA;missing type
138,WPRDC,Allegheny_County_WIC_Vendor_Locations.xlsx,2796169,NA,Himalaya Grocery,3621 Brownsville Road,Brentwood,PA,15227,NA,NA,NA,NA,40.3732925,-79.9752798,Google,NA,NA,0,1,1,0,0,0,NA,lat/long invalid;no date/time info;state assumed PA;missing type
139,WPRDC,Allegheny_County_WIC_Vendor_Locations.xlsx,3136218,NA,Kuhn's,661 Lincoln Avenue,Bellevue,PA,15202,NA,NA,NA,NA,40.4970473,-80.0602155,Google,NA,NA,0,1,1,0,0,0,NA,lat/long invalid;no date/time info;state assumed PA;missing type
140,WPRDC,Allegheny_County_WIC_Vendor_Locations.xlsx,78112,NA,Kuhn's,825 Beaver Grade Road,Moon Twp.,PA,15108,NA,NA,NA,NA,40.5170785,-80.2178028,Google,NA,NA,0,1,1,0,0,0,NA,lat/long invalid;no date/time info;state assumed PA;missing type
141,WPRDC,Allegheny_County_WIC_Vendor_Locations.xlsx,2782779,NA,Kuhn's,4801 McKnight Road,North Hills,PA,15237,NA,NA,NA,NA,40.525355,-80.0066087,Google,NA,NA,0,1,1,0,0,0,NA,lat/long invalid;no date/time info;state assumed PA;missing type
142,WPRDC,Allegheny_County_WIC_Vendor_Locations.xlsx,9200,NA,Kuhn's,1130 Highwood St.,North Side,PA,15212,NA,NA,NA,NA,40.46835249999999,-80.02668349999999,Google,NA,NA,0,1,1,0,0,0,NA,lat/long invalid;no date/time info;state assumed PA;missing type
143,WPRDC,Allegheny_County_WIC_Vendor_Locations.xlsx,84011,NA,Kuhn's,3125 Banksville Road,South Hills,PA,15216,NA,NA,NA,NA,40.3996765,-80.0434133,Google,NA,NA,0,1,1,0,0,0,NA,lat/long invalid;no date/time info;state assumed PA;missing type
144,WPRDC,Allegheny_County_WIC_Vendor_Locations.xlsx,1093082,NA,Kuhn's,700 Buelah Road,Turtle Creek,PA,15145,NA,NA,NA,NA,40.4270574,-79.8348281,Google,NA,NA,0,1,1,0,0,0,NA,lat/long invalid;no date/time info;state assumed PA;missing type
145,WPRDC,Allegheny_County_WIC_Vendor_Locations.xlsx,2901656,NA,Las Palmas IGA,1616 Broadway Ave.,Beechview,PA,15216,NA,NA,NA,NA,40.4101433,-80.02493500000001,Google,NA,NA,0,1,1,0,0,0,NA,lat/long invalid;no date/time info;state assumed PA;missing type
146,WPRDC,Allegheny_County_WIC_Vendor_Locations.xlsx,2804345,NA,Murray Avenue Kosher,1916 Murray Avenue,Squirrel Hill,PA,15217,NA,NA,NA,NA,40.435459,-79.9229692,Google,NA,NA,0,1,1,0,0,0,NA,lat/long invalid;no date/time info;state assumed PA;missing type
147,WPRDC,Allegheny_County_WIC_Vendor_Locations.xlsx,3175606,NA,Pittsburgh Commissary,79 Soldiers Lane,Moon Twp.,PA,15108,NA,NA,NA,NA,40.5018598,-80.2182393,Google,NA,NA,0,1,1,0,0,0,NA,lat/long invalid;no date/time info;state assumed PA;missing type
148,WPRDC,Allegheny_County_WIC_Vendor_Locations.xlsx,3040453,NA,Save A Lot,25 Foster Avenue,Crafton,PA,15205,NA,NA,NA,NA,40.4405073,-80.0689885,Google,NA,NA,0,1,1,0,0,0,NA,lat/long invalid;no date/time info;state assumed PA;missing type
149,WPRDC,Allegheny_County_WIC_Vendor_Locations.xlsx,3168198,NA,Sav-A-Lot,9 Duquesne Plaza,Duquesne,PA,15110,NA,NA,NA,NA,40.3745019,-79.84674299999999,Google,NA,NA,0,1,1,0,0,0,NA,lat/long invalid;no date/time info;state assumed PA;missing type
150,WPRDC,Allegheny_County_WIC_Vendor_Locations.xlsx,3166464,NA,Sav-A-Lot,355 Lincoln Highway,North Versailles,PA,15137,NA,NA,NA,NA,40.3848255,-79.821622,Google,NA,NA,0,1,1,0,0,0,NA,lat/long invalid;no date/time info;state assumed PA;missing type
151,WPRDC,Allegheny_County_WIC_Vendor_Locations.xlsx,3168180,NA,Sav-A-Lot,725 Ross Ave.,Wilkinsburg,PA,15221,NA,NA,NA,NA,40.4429612,-79.88439199999999,Google,NA,NA,0,1,1,0,0,0,NA,lat/long invalid;no date/time info;state assumed PA;missing type
152,WPRDC,Allegheny_County_WIC_Vendor_Locations.xlsx,2691661,NA,Shop N Save,5001 Library Road,Bethel Park,PA,15102,NA,NA,NA,NA,40.3412552,-80.0247054,Google,NA,NA,0,1,1,0,0,0,NA,lat/long invalid;no date/time info;state assumed PA;missing type
153,WPRDC,Allegheny_County_WIC_Vendor_Locations.xlsx,48814,NA,Shop N Save,1119 Brownsville Road,Brentwood,PA,15210,NA,NA,NA,NA,40.40486569999999,-79.98964029999999,Google,NA,NA,0,1,1,0,0,0,NA,lat/long invalid;no date/time info;state assumed PA;missing type
154,WPRDC,Allegheny_County_WIC_Vendor_Locations.xlsx,3015114,NA,Shop N Save,4647 Buttermilk Hollow Road,Buttermilk Hollow,PA,15122,NA,NA,NA,NA,40.3610236,-79.9068223,Google,NA,NA,0,1,1,0,0,0,NA,lat/long invalid;no date/time info;state assumed PA;missing type
155,WPRDC,Allegheny_County_WIC_Vendor_Locations.xlsx,2739635,NA,Shop N Save,799 Castle Shannon Blvd.,Castle Shannon,PA,15234,NA,NA,NA,NA,40.3691127,-80.02854889999999,Google,NA,NA,0,1,1,0,0,0,NA,lat/long invalid;no date/time info;state assumed PA;missing type
156,WPRDC,Allegheny_County_WIC_Vendor_Locations.xlsx,2896675,NA,Shop N Save,1850 Centre Ave.,Centre Ave,PA,15219,NA,NA,NA,NA,40.4421821,-79.98179429999999,Google,NA,NA,0,1,1,0,0,0,NA,lat/long invalid;no date/time info;state assumed PA;missing type
157,WPRDC,Allegheny_County_WIC_Vendor_Locations.xlsx,28396,NA,Shop N Save,2381 Mountain View Drive,Century Square,PA,15122,NA,NA,NA,NA,40.3448105,-79.9466705,Google,NA,NA,0,1,1,0,0,0,NA,lat/long invalid;no date/time info;state assumed PA;missing type
158,WPRDC,Allegheny_County_WIC_Vendor_Locations.xlsx,3168274,NA,Shop N Save Village,1886 Homeville Road,Duquesne Village,PA,15122,NA,NA,NA,NA,40.365251,-79.87326879999999,Google,NA,NA,0,1,1,0,0,0,NA,lat/long invalid;no date/time info;state assumed PA;missing type
159,WPRDC,Allegheny_County_WIC_Vendor_Locations.xlsx,3168229,NA,Shop N Save,917 Butler Street,Glenshaw,PA,15223,NA,NA,NA,NA,40.512009,-79.9499785,Google,NA,NA,0,1,1,0,0,0,NA,lat/long invalid;no date/time info;state assumed PA;missing type
160,WPRDC,Allegheny_County_WIC_Vendor_Locations.xlsx,3123920,NA,Shop N Save,4548 Broadway Boulevard,Haymaker Village,PA,15146,NA,NA,NA,NA,40.3892221,-79.7671735,Google,NA,NA,0,1,1,0,0,0,NA,lat/long invalid;no date/time info;state assumed PA;missing type
161,WPRDC,Allegheny_County_WIC_Vendor_Locations.xlsx,2791443,NA,Shop N Save,2100 Washington Pike,Heidelberg,PA,15106,NA,NA,NA,NA,40.3871382,-80.09406849999999,Google,NA,NA,0,1,1,0,0,0,NA,lat/long invalid;no date/time info;state assumed PA;missing type
162,WPRDC,Allegheny_County_WIC_Vendor_Locations.xlsx,3168120,NA,Shop N Save,2362 Golden Mile Highway,Holiday Park,PA,15239,NA,NA,NA,NA,40.462286400000004,-79.7047027,Google,NA,NA,0,1,1,0,0,0,NA,lat/long invalid;no date/time info;state assumed PA;missing type
163,WPRDC,Allegheny_County_WIC_Vendor_Locations.xlsx,3158901,NA,Shop N Save,600 Market Place Drive,Imperial,PA,15071,NA,NA,NA,NA,40.4403143,-80.2413286,Google,NA,NA,0,1,1,0,0,0,NA,lat/long invalid;no date/time info;state assumed PA;missing type
164,WPRDC,Allegheny_County_WIC_Vendor_Locations.xlsx,2805720,NA,Shop N Save,450 56th Street,Lawrenceville,PA,15201,NA,NA,NA,NA,40.4832347,-79.9485615,Google,NA,NA,0,1,1,0,0,0,NA,lat/long invalid;no date/time info;state assumed PA;missing type
165,WPRDC,Allegheny_County_WIC_Vendor_Locations.xlsx,2713949,NA,Shop N Save,815 Fifth Avenue,McKeesport,PA,15132,NA,NA,NA,NA,40.351935,-79.8560679,Google,NA,NA,0,1,1,0,0,0,NA,lat/long invalid;no date/time info;state assumed PA;missing type
166,WPRDC,Allegheny_County_WIC_Vendor_Locations.xlsx,2694562,NA,Shop N Save,125 Virginia Avenue,Mt. Washington,PA,15211,NA,NA,NA,NA,40.4294423,-80.0079447,Google,NA,NA,0,1,1,0,0,0,NA,lat/long invalid;no date/time info;state assumed PA;missing type
167,WPRDC,Allegheny_County_WIC_Vendor_Locations.xlsx,2994319,NA,Shop N Save,2103 Noblestown Road,Noblestown,PA,15205,NA,NA,NA,NA,40.4306955,-80.0519383,Google,NA,NA,0,1,1,0,0,0,NA,lat/long invalid;no date/time info;state assumed PA;missing type
168,WPRDC,Allegheny_County_WIC_Vendor_Locations.xlsx,2984266,NA,Shop N Save,4313 Walnut Street,Olympia,PA,15132,NA,NA,NA,NA,40.3216675,-79.8346639,Google,NA,NA,0,1,1,0,0,0,NA,lat/long invalid;no date/time info;state assumed PA;missing type
169,WPRDC,Allegheny_County_WIC_Vendor_Locations.xlsx,3007247,NA,Shop N Save,1130 Perry Highway,Pines Plaza,PA,15237,NA,NA,NA,NA,40.54856729999999,-80.0357607,Google,NA,NA,0,1,1,0,0,0,NA,lat/long invalid;no date/time info;state assumed PA;missing type
170,WPRDC,Allegheny_County_WIC_Vendor_Locations.xlsx,3054998,NA,Shop N Save,184 Rochester Road,Rochester Road,PA,15229,NA,NA,NA,NA,40.5198827,-80.0180795,Google,NA,NA,0,1,1,0,0,0,NA,lat/long invalid;no date/time info;state assumed PA;missing type
171,WPRDC,Allegheny_County_WIC_Vendor_Locations.xlsx,2844118,NA,Shop N Save,908 Little Deer Creek Valley Rd.,Russelton,PA,15076,NA,NA,NA,NA,40.6082302,-79.8331458,Google,NA,NA,0,1,1,0,0,0,NA,lat/long invalid;no date/time info;state assumed PA;missing type
172,WPRDC,Allegheny_County_WIC_Vendor_Locations.xlsx,2717654,NA,Shop N Save,1620 Babcock Blvd.,Shaler,PA,15209,NA,NA,NA,NA,40.4991215,-79.97897909999999,Google,NA,NA,0,1,1,0,0,0,NA,lat/long invalid;no date/time info;state assumed PA;missing type
173,WPRDC,Allegheny_County_WIC_Vendor_Locations.xlsx,2745608,NA,Shop N Save,3335 William Penn Highway,Wilkins Twp.,PA,15235,NA,NA,NA,NA,40.4328634,-79.81761039999999,Google,NA,NA,0,1,1,0,0,0,NA,lat/long invalid;no date/time info;state assumed PA;missing type
174,WPRDC,Allegheny_County_WIC_Vendor_Locations.xlsx,51225,NA,Shur Save,4401 Liberty Avenue,Bloomfield,PA,15224,NA,NA,NA,NA,40.4641807,-79.9522332,Google,NA,NA,0,1,1,0,0,0,NA,lat/long invalid;no date/time info;state assumed PA;missing type
175,WPRDC,Allegheny_County_WIC_Vendor_Locations.xlsx,2822613,NA,Target,6231 Penn Ave.,East Liberty,PA,15206,NA,NA,NA,NA,40.4609096,-79.9211941,Google,NA,NA,0,1,1,0,0,0,NA,lat/long invalid;no date/time info;state assumed PA;missing type
176,WPRDC,Allegheny_County_WIC_Vendor_Locations.xlsx,2773357,NA,Target,2661 Freeport Road,Harmarville,PA,15238,NA,NA,NA,NA,40.538314,-79.83653609999999,Google,NA,NA,0,1,1,0,0,0,NA,lat/long invalid;no date/time info;state assumed PA;missing type
177,WPRDC,Allegheny_County_WIC_Vendor_Locations.xlsx,2840342,NA,Target,360 East Waterfront Dr.,Homestead,PA,15120,NA,NA,NA,NA,40.4104359,-79.9099998,Google,NA,NA,0,1,1,0,0,0,NA,lat/long invalid;no date/time info;state assumed PA;missing type
178,WPRDC,Allegheny_County_WIC_Vendor_Locations.xlsx,2954381,NA,Target,4004 Monroeville Rd.,Monroeville,PA,15146,NA,NA,NA,NA,40.4245246,-79.7903887,Google,NA,NA,0,1,1,0,0,0,NA,lat/long invalid;no date/time info;state assumed PA;missing type
179,WPRDC,Allegheny_County_WIC_Vendor_Locations.xlsx,2776154,NA,Target,600 Chauvet Drive,Robinson,PA,15275,NA,NA,NA,NA,40.446427,-80.1834961,Google,NA,NA,0,1,1,0,0,0,NA,lat/long invalid;no date/time info;state assumed PA;missing type
180,WPRDC,Allegheny_County_WIC_Vendor_Locations.xlsx,91386,NA,Target,201 South Hills Village,South Hills Village,PA,15241,NA,NA,NA,NA,40.3423756,-80.0560528,Google,NA,NA,0,1,1,0,0,0,NA,lat/long invalid;no date/time info;state assumed PA;missing type
181,WPRDC,Allegheny_County_WIC_Vendor_Locations.xlsx,3148465,NA,Wal Mart,2200 Washington Pike,Carnegie,PA,15106,NA,NA,NA,NA,40.3868909,-80.0962669,Google,NA,NA,0,1,1,0,0,0,NA,lat/long invalid;no date/time info;state assumed PA;missing type
182,WPRDC,Allegheny_County_WIC_Vendor_Locations.xlsx,91410,NA,Wal Mart,4015 Freeport Road,Natrona Heights,PA,15065,NA,NA,NA,NA,40.6464068,-79.7114986,Google,NA,NA,0,1,1,0,0,0,NA,lat/long invalid;no date/time info;state assumed PA;missing type
183,WPRDC,Allegheny_County_WIC_Vendor_Locations.xlsx,2774136,NA,Wal Mart,250 Summit Park Drive,North Fayette,PA,15275,NA,NA,NA,NA,40.44695859999999,-80.17726220000002,Google,NA,NA,0,1,1,0,0,0,NA,lat/long invalid;no date/time info;state assumed PA;missing type
184,WPRDC,Allegheny_County_WIC_Vendor_Locations.xlsx,3159029,NA,Wal Mart,100 Wal Mart Drive,North Versailles,PA,15137,NA,NA,NA,NA,40.3869597,-79.8244217,Google,NA,NA,0,1,1,0,0,0,NA,lat/long invalid;no date/time info;state assumed PA;missing type
185,WPRDC,Allegheny_County_WIC_Vendor_Locations.xlsx,2890876,NA,Wal Mart,2010 Village Center Drive,Tarentum,PA,15084,NA,NA,NA,NA,40.5635848,-79.80380199999999,Google,NA,NA,0,1,1,0,0,0,NA,lat/long invalid;no date/time info;state assumed PA;missing type
186,WPRDC,Allegheny_County_WIC_Vendor_Locations.xlsx,3153451,NA,Wal Mart,2351 Century Drive,West Mifflin,PA,15122,NA,NA,NA,NA,40.3415049,-79.9462011,Google,NA,NA,0,1,1,0,0,0,NA,lat/long invalid;no date/time info;state assumed PA;missing type
187,WPRDC,growpghgardens201712_readin.xlsx,584,Grow PGH Garden,Angora Gardens,3 Muse Lane,White Oak,PA,15131,NA,NA,NA,https://www.growpittsburgh.org/directory/garden/angora-gardens-1,40.404686,-79.862095,agency,NA,NA,NA,NA,NA,NA,NA,NA,NA,no date/time;no county info
188,WPRDC,growpghgardens201712_readin.xlsx,586,Grow PGH Garden,Everybody's Garden,301 West Elizabeth Street,Pittsburgh,PA,15207,NA,NA,NA,https://www.growpittsburgh.org/directory/garden/everybodys-garden,40.406546,-79.945442,agency,NA,NA,NA,NA,NA,NA,NA,NA,NA,no date/time;no county info
189,WPRDC,growpghgardens201712_readin.xlsx,587,Grow PGH Garden,EvGard Extension,5108 Lytle St,Pittsburgh,PA,15207,NA,NA,NA,https://www.growpittsburgh.org/directory/garden/evgard-extension,40.406377,-79.945559,agency,NA,NA,NA,NA,NA,NA,NA,NA,NA,no date/time;no county info
190,WPRDC,growpghgardens201712_readin.xlsx,588,Grow PGH Garden,Glen Hazel Communiuty Garden,Johnston Avenue at Roselle Drive,Pittsburgh,PA,15207,NA,NA,NA,https://www.growpittsburgh.org/directory/garden/glen-hazel-communiuty-garden,40.40604,-79.931253,agency,NA,NA,NA,NA,NA,NA,NA,NA,NA,no date/time;no county info
191,WPRDC,growpghgardens201712_readin.xlsx,589,Grow PGH Garden,Grow Pittsburgh,6587 Hamilton Avenue #2W,Pittsburgh,PA,15206,NA,NA,NA,https://www.growpittsburgh.org/directory/garden/grow-pittsburgh,40.458481,-79.911381,agency,NA,NA,NA,NA,NA,NA,NA,NA,NA,no date/time;no county info
192,WPRDC,growpghgardens201712_readin.xlsx,590,Grow PGH Garden,Lawrenceville Organic Community Garden,"Allegheny Cemetery, 4734 Butler Street",Pittsburgh,PA,15201,NA,NA,NA,https://www.growpittsburgh.org/directory/garden/lawrenceville-organic-community-garden,40.477158,-79.956114,agency,NA,NA,NA,NA,NA,NA,NA,NA,NA,no date/time;no county info
193,WPRDC,growpghgardens201712_readin.xlsx,591,Grow PGH Garden,Masjid al Mu'min Madinah Garden,159 Winslow Street,Pittsburgh,PA,15206,NA,NA,NA,https://www.growpittsburgh.org/directory/garden/masjid-al-mumin-madinah-garden,40.46445,-79.911651,agency,NA,NA,NA,NA,NA,NA,NA,NA,NA,no date/time;no county info
194,WPRDC,growpghgardens201712_readin.xlsx,592,Grow PGH Garden,South Oakland Community Orchard,3213 Parkview Avenue,Pittsburgh,PA,15213,NA,NA,NA,https://www.growpittsburgh.org/directory/garden/south-oakland-community-orchard,40.429834,-79.953578,agency,NA,NA,NA,NA,NA,NA,NA,NA,NA,no date/time;no county info
195,WPRDC,growpghgardens201712_readin.xlsx,593,Grow PGH Garden,Thelma Lovette YMCA Garden,2114 Centre Avenue,Pittsburgh,PA,15219,NA,NA,NA,https://www.growpittsburgh.org/directory/garden/thelma-lovette-ymca-garden,40.444369,-79.978126,agency,NA,NA,NA,NA,NA,NA,NA,NA,NA,no date/time;no county info
196,WPRDC,growpghgardens201712_readin.xlsx,594,Grow PGH Garden,Wiggins Garden,Near 3026 Wiggins Street,Pittsburgh,PA,15219,NA,NA,NA,https://www.growpittsburgh.org/directory/garden/wiggins-garden,40.457618,-79.969499,agency,NA,NA,NA,NA,NA,NA,NA,NA,NA,no date/time;no county info
197,WPRDC,growpghgardens201712_readin.xlsx,663,Grow PGH Garden,The Samuel and Anna Mae Richardson Community Garden,5427 Willow Street,Bethel Park,PA,15102,NA,NA,NA,https://www.growpittsburgh.org/directory/garden/the-samuel-and-anna-mae-richardson-community-garden,40.323229,-80.0405,agency,NA,NA,NA,NA,NA,NA,NA,NA,NA,no date/time;no county info
198,WPRDC,growpghgardens201712_readin.xlsx,664,Grow PGH Garden,Coraopolis Community Garden,411 Broadway Avenue,Coraopolis,PA,15108,NA,NA,NA,https://www.growpittsburgh.org/directory/garden/coraopolis-community-garden,40.516753,-80.160618,agency,NA,NA,NA,NA,NA,NA,NA,NA,NA,no date/time;no county info
199,WPRDC,growpghgardens201712_readin.xlsx,665,Grow PGH Garden,Crafton Community Farm,117 West Steuben Street,Crafton,PA,15205,NA,NA,NA,https://www.growpittsburgh.org/directory/garden/crafton-community-farm,40.438964,-80.072817,agency,NA,NA,NA,NA,NA,NA,NA,NA,NA,no date/time;no county info
200,WPRDC,growpghgardens201712_readin.xlsx,666,Grow PGH Garden,Community Human Services Teaching Garden,370 Lawn Street,Pittsburgh,PA,15213,NA,NA,NA,https://www.growpittsburgh.org/directory/garden/community-human-services-teaching-garden,40.433691,-79.961356,agency,NA,NA,NA,NA,NA,NA,NA,NA,NA,no date/time;no county info
201,WPRDC,growpghgardens201712_readin.xlsx,667,Grow PGH Garden,Landslide Community Farm,3 Beelen Street,Pittsburgh,PA,15213,NA,NA,NA,https://www.growpittsburgh.org/directory/garden/landslide-community-farm,40.43816,-79.97244,agency,NA,NA,NA,NA,NA,NA,NA,NA,NA,no date/time;no county info
202,WPRDC,growpghgardens201712_readin.xlsx,668,Grow PGH Garden,Rosalinda Sauro Sirianni Memorial Garden,119 Davis Avenue,Bellevue,PA,15202,NA,NA,NA,https://www.growpittsburgh.org/directory/garden/rosalinda-sauro-sirianni-memorial-garden,40.48879,-80.049169,agency,NA,NA,NA,NA,NA,NA,NA,NA,NA,no date/time;no county info
203,WPRDC,growpghgardens201712_readin.xlsx,669,Grow PGH Garden,Second UP Garden,300 Hay Street,Pittsburgh,PA,15221,NA,NA,NA,https://www.growpittsburgh.org/directory/garden/second-up-garden,40.438825,-79.888431,agency,NA,NA,NA,NA,NA,NA,NA,NA,NA,no date/time;no county info
204,WPRDC,growpghgardens201712_readin.xlsx,670,Grow PGH Garden,Earl Brooks Community Garden,222 Robinson Street,Pittsburgh,PA,15213,NA,NA,NA,https://www.growpittsburgh.org/directory/garden/earl-brooks-community-garden,40.441165,-79.965404,agency,NA,NA,NA,NA,NA,NA,NA,NA,NA,no date/time;no county info
205,WPRDC,growpghgardens201712_readin.xlsx,671,Grow PGH Garden,Garfield Community Farm,527 Edlam Way,Pittsburgh,PA,15224,NA,NA,NA,https://www.growpittsburgh.org/directory/garden/garfield-community-farm-1,40.469378,-79.935125,agency,NA,NA,NA,NA,NA,NA,NA,NA,NA,no date/time;no county info
206,WPRDC,growpghgardens201712_readin.xlsx,672,Grow PGH Garden,Ballfield Farm,Crispen Street,Pittsburgh,PA,15214,NA,NA,NA,https://www.growpittsburgh.org/directory/garden/ballfield-farm,40.46849,-80.016561,agency,NA,NA,NA,NA,NA,NA,NA,NA,NA,no date/time;no county info
207,WPRDC,growpghgardens201712_readin.xlsx,673,Grow PGH Garden,Boxy Caufield Memorial Garden: Allegheny YMCA,600 West North Avenue,Pittsburgh,PA,15212,NA,NA,NA,https://www.growpittsburgh.org/directory/garden/boxy-caufield-memorial-garden-allegheny-ymca,40.454624,-80.012922,agency,NA,NA,NA,NA,NA,NA,NA,NA,NA,no date/time;no county info
208,WPRDC,growpghgardens201712_readin.xlsx,674,Grow PGH Garden,Hazelwood YMCA Community Garden,4713 Chatsworth Avenue,Pittsburgh,PA,15207,NA,NA,NA,https://www.growpittsburgh.org/directory/garden/hazelwood-ymca-community-garden,40.413082,-79.944132,agency,NA,NA,NA,NA,NA,NA,NA,NA,NA,no date/time;no county info
209,WPRDC,growpghgardens201712_readin.xlsx,675,Grow PGH Garden,Miss Mary's Garden: Homewood Brushton YMCA,7140 Bennett Street,Pittsburgh,PA,15208,NA,NA,NA,https://www.growpittsburgh.org/directory/garden/miss-marys-garden-homewood-brushton-ymca,40.456529,-79.898291,agency,NA,NA,NA,NA,NA,NA,NA,NA,NA,no date/time;no county info
210,WPRDC,growpghgardens201712_readin.xlsx,676,Grow PGH Garden,Sheridan Avenue Orchard,310 Sheridan Avenue,Pittsburgh,PA,15206,NA,NA,NA,https://www.growpittsburgh.org/directory/garden/sheridan-avenue-orchard,40.463474,-79.921924,agency,NA,NA,NA,NA,NA,NA,NA,NA,NA,no date/time;no county info
211,WPRDC,growpghgardens201712_readin.xlsx,677,Grow PGH Garden,Centre Ave YMCA Garden,2621 Centre Avenue,Pittsburgh,PA,15219,NA,NA,NA,https://www.growpittsburgh.org/directory/garden/centre-ave-ymca-garden-1,40.447201,-79.967894,agency,NA,NA,NA,NA,NA,NA,NA,NA,NA,no date/time;no county info
212,WPRDC,growpghgardens201712_readin.xlsx,678,Grow PGH Garden,Allison Park Elementary Community Garden,803 McGovern Road,Houston,PA,15342,NA,NA,NA,https://www.growpittsburgh.org/directory/garden/allison-park-elementary-community-garden-3,40.231664,-80.226758,agency,NA,NA,NA,NA,NA,NA,NA,NA,NA,no date/time;no county info
213,WPRDC,growpghgardens201712_readin.xlsx,679,Grow PGH Garden,Avonworth Middle School,258 Joseph's Lane,Pittsburgh,PA,15237,NA,NA,NA,https://www.growpittsburgh.org/directory/garden/avonworth-middle-school-3,40.532346,-80.078434,agency,NA,NA,NA,NA,NA,NA,NA,NA,NA,no date/time;no county info
214,WPRDC,growpghgardens201712_readin.xlsx,680,Grow PGH Garden,Borland Green Cooperative,5806 Black Street,Pittsburgh,PA,15206,NA,NA,NA,https://www.growpittsburgh.org/directory/garden/borland-green-cooperative-2,40.467393,-79.924427,agency,NA,NA,NA,NA,NA,NA,NA,NA,NA,no date/time;no county info
215,WPRDC,growpghgardens201712_readin.xlsx,681,Grow PGH Garden,Carnegie Elementary School,301 Franklin Avenue,Carnegie,PA,15106,NA,NA,NA,https://www.growpittsburgh.org/directory/garden/carnegie-elementary-school-2,40.401334,-80.081874,agency,NA,NA,NA,NA,NA,NA,NA,NA,NA,no date/time;no county info
216,WPRDC,growpghgardens201712_readin.xlsx,683,Grow PGH Garden,Clairton Education Center,501 Waddell Avenue,Clairton,PA,15025,NA,NA,NA,https://www.growpittsburgh.org/directory/garden/clairton-education-center-2,40.294148,-79.885294,agency,NA,NA,NA,NA,NA,NA,NA,NA,NA,no date/time;no county info
217,WPRDC,growpghgardens201712_readin.xlsx,684,Grow PGH Garden,Colfax Elementary,2332 Beechwood Boulevard,Pittsburgh,PA,15217,NA,NA,NA,https://www.growpittsburgh.org/directory/garden/colfax-elementary-2,40.433127,-79.915417,agency,NA,NA,NA,NA,NA,NA,NA,NA,NA,no date/time;no county info
218,WPRDC,growpghgardens201712_readin.xlsx,685,Grow PGH Garden,Community Day School of Pittsburgh,6424 Forward Avenue,Pittsburgh,PA,15217,NA,NA,NA,https://www.growpittsburgh.org/directory/garden/community-day-school-of-pittsburgh-2,40.427442,-79.917825,agency,NA,NA,NA,NA,NA,NA,NA,NA,NA,no date/time;no county info
219,WPRDC,growpghgardens201712_readin.xlsx,686,Grow PGH Garden,Dilworth Traditional Academy,6200 Stanton Avenue,Pittsburgh,PA,15206,NA,NA,NA,https://www.growpittsburgh.org/directory/garden/dilworth-traditional-academy-2,40.468805,-79.917808,agency,NA,NA,NA,NA,NA,NA,NA,NA,NA,no date/time;no county info
220,WPRDC,growpghgardens201712_readin.xlsx,687,Grow PGH Garden,Fort LeBoeuf Middle School,865 Cherry Street,Waterford,PA,16441,NA,NA,NA,https://www.growpittsburgh.org/directory/garden/fort-leboeuf-middle-school-2,41.951436,-79.986455,agency,NA,NA,NA,NA,NA,NA,NA,NA,NA,no date/time;no county info
221,WPRDC,growpghgardens201712_readin.xlsx,688,Grow PGH Garden,Greenock Elementary School,1101 Greenock Buena Vista Road,McKeesport,PA,15135,NA,NA,NA,https://www.growpittsburgh.org/directory/garden/greenock-elementary-school-2,40.311881,-79.8029,agency,NA,NA,NA,NA,NA,NA,NA,NA,NA,no date/time;no county info
222,WPRDC,growpghgardens201712_readin.xlsx,689,Grow PGH Garden,Iroquois Elementary School,4231 Morse Street,Erie,PA,16511,NA,NA,NA,https://www.growpittsburgh.org/directory/garden/iroquois-elementary-school-2,42.153881,-80.012094,agency,NA,NA,NA,NA,NA,NA,NA,NA,NA,no date/time;no county info
223,WPRDC,growpghgardens201712_readin.xlsx,690,Grow PGH Garden,MAMS Community Garden,800 Thurston Road,Meadville,PA,16335,NA,NA,NA,https://www.growpittsburgh.org/directory/garden/mams-community-garden-2,41.633276,-80.124376,agency,NA,NA,NA,NA,NA,NA,NA,NA,NA,no date/time;no county info
224,WPRDC,growpghgardens201712_readin.xlsx,691,Grow PGH Garden,Pittsburgh Arsenal,220 40th Street,Pittsburgh,PA,15201,NA,NA,NA,https://www.growpittsburgh.org/directory/garden/pittsburgh-arsenal-2,40.467734,-79.962522,agency,NA,NA,NA,NA,NA,NA,NA,NA,NA,no date/time;no county info
225,WPRDC,growpghgardens201712_readin.xlsx,692,Grow PGH Garden,Pittsburgh Langley,2940 Sheraden Boulevard,Pittsburgh,PA,15204,NA,NA,NA,https://www.growpittsburgh.org/directory/garden/pittsburgh-langley-2,40.453644,-80.054031,agency,NA,NA,NA,NA,NA,NA,NA,NA,NA,no date/time;no county info
226,WPRDC,growpghgardens201712_readin.xlsx,693,Grow PGH Garden,Pittsburgh Linden School Garden,725 S Linden Avenue,Pittsburgh,PA,15208,NA,NA,NA,https://www.growpittsburgh.org/directory/garden/pittsburgh-linden-school-garden-2,40.445514,-79.916283,agency,NA,NA,NA,NA,NA,NA,NA,NA,NA,no date/time;no county info
227,WPRDC,growpghgardens201712_readin.xlsx,694,Grow PGH Garden,Pittsburgh Miller African Centered Academy,2055 Bedford Avenue,Pittsburgh,PA,15219,NA,NA,NA,https://www.growpittsburgh.org/directory/garden/pittsburgh-miller-african-centered-academy-2,40.447077,-79.981061,agency,NA,NA,NA,NA,NA,NA,NA,NA,NA,no date/time;no county info
228,WPRDC,growpghgardens201712_readin.xlsx,695,Grow PGH Garden,Pittsburgh Montessori PreK 5,201 S Graham Street,Pittsburgh,PA,15206,NA,NA,NA,https://www.growpittsburgh.org/directory/garden/pittsburgh-montessori-prek-5-2,40.462489,-79.935596,agency,NA,NA,NA,NA,NA,NA,NA,NA,NA,no date/time;no county info
229,WPRDC,growpghgardens201712_readin.xlsx,696,Grow PGH Garden,Pittsburgh Science and Technology,107 Thackeray Avenue,Pittsburgh,PA,15260,NA,NA,NA,https://www.growpittsburgh.org/directory/garden/pittsburgh-science-and-technology-2,40.443627,-79.957411,agency,NA,NA,NA,NA,NA,NA,NA,NA,NA,no date/time;no county info
230,WPRDC,growpghgardens201712_readin.xlsx,697,Grow PGH Garden,Pittsburgh Urban Christian School,809 Center Street,Pittsburgh,PA,15221,NA,NA,NA,https://www.growpittsburgh.org/directory/garden/pittsburgh-urban-christian-school-2,40.441483,-79.882937,agency,NA,NA,NA,NA,NA,NA,NA,NA,NA,no date/time;no county info
231,WPRDC,growpghgardens201712_readin.xlsx,698,Grow PGH Garden,Propel Homestead,129 E 10th Avenue,Homestead,PA,15120,NA,NA,NA,https://www.growpittsburgh.org/directory/garden/propel-homestead-2,40.405408,-79.910342,agency,NA,NA,NA,NA,NA,NA,NA,NA,NA,no date/time;no county info
232,WPRDC,growpghgardens201712_readin.xlsx,699,Grow PGH Garden,SSA Farm at the Junior School,400 S. Braddock Avenue,Pittsburgh,PA,15221,NA,NA,NA,https://www.growpittsburgh.org/directory/garden/ssa-farm-at-the-junior-school-2,40.444237,-79.897476,agency,NA,NA,NA,NA,NA,NA,NA,NA,NA,no date/time;no county info
233,WPRDC,growpghgardens201712_readin.xlsx,700,Grow PGH Garden,SSA Farm at the Middle School,500 Squaw Run Road East,Pittsburgh,PA,15238,NA,NA,NA,https://www.growpittsburgh.org/directory/garden/ssa-farm-at-the-middle-school-2,40.52817,-79.880648,agency,NA,NA,NA,NA,NA,NA,NA,NA,NA,no date/time;no county info
234,WPRDC,growpghgardens201712_readin.xlsx,701,Grow PGH Garden,SSA Farm at the Senior School,423 Fox Chapel Road,Pittsburgh,PA,15238,NA,NA,NA,https://www.growpittsburgh.org/directory/garden/ssa-farm-at-the-senior-school-2,40.52247,-79.882689,agency,NA,NA,NA,NA,NA,NA,NA,NA,NA,no date/time;no county info
235,WPRDC,growpghgardens201712_readin.xlsx,702,Grow PGH Garden,St. Paul African Methodist Episcopal Church,414 Orchard Place,Pittsburgh,PA,15210,NA,NA,NA,https://www.growpittsburgh.org/directory/garden/st-paul-african-methodist-episcopal-church-2,40.41792,-79.995982,agency,NA,NA,NA,NA,NA,NA,NA,NA,NA,no date/time;no county info
236,WPRDC,growpghgardens201712_readin.xlsx,703,Grow PGH Garden,The Environmental Charter Lower School Edible Schoolyard,309 South Braddock Avenue,Pittsburgh,PA,15221,NA,NA,NA,https://www.growpittsburgh.org/directory/garden/the-environmental-charter-lower-school-edible-schoolyard-2,40.444922,-79.895715,agency,NA,NA,NA,NA,NA,NA,NA,NA,NA,no date/time;no county info
237,WPRDC,growpghgardens201712_readin.xlsx,704,Grow PGH Garden,The Environmental Charter Upper School Living Laboratory,829 Milton Street,Pittsburgh,PA,15218,NA,NA,NA,https://www.growpittsburgh.org/directory/garden/the-environmental-charter-upper-school-living-laboratory-2,40.436015,-79.89694,agency,NA,NA,NA,NA,NA,NA,NA,NA,NA,no date/time;no county info
238,WPRDC,growpghgardens201712_readin.xlsx,705,Grow PGH Garden,The Neighborhood Academy,709 N Aiken Avenue,Pittsburgh,PA,15206,NA,NA,NA,https://www.growpittsburgh.org/directory/garden/the-neighborhood-academy-2,40.472894,-79.932793,agency,NA,NA,NA,NA,NA,NA,NA,NA,NA,no date/time;no county info
239,WPRDC,growpghgardens201712_readin.xlsx,706,Grow PGH Garden,Urban League Charter School,327 N Negley Avenue,Pittsburgh,PA,15206,NA,NA,NA,https://www.growpittsburgh.org/directory/garden/urban-league-charter-school-2,40.466733,-79.929864,agency,NA,NA,NA,NA,NA,NA,NA,NA,NA,no date/time;no county info
240,WPRDC,growpghgardens201712_readin.xlsx,707,Grow PGH Garden,Waldorf School of Pittsburgh,201 S Winebiddle Street,Pittsburgh,PA,15224,NA,NA,NA,https://www.growpittsburgh.org/directory/garden/waldorf-school-of-pittsburgh-2,40.463958,-79.942294,agency,NA,NA,NA,NA,NA,NA,NA,NA,NA,no date/time;no county info
241,WPRDC,growpghgardens201712_readin.xlsx,708,Grow PGH Garden,West End Children's Center,42 Wabash Street,Pittsburgh,PA,15220,NA,NA,NA,https://www.growpittsburgh.org/directory/garden/west-end-childrens-center-2,40.440192,-80.03457,agency,NA,NA,NA,NA,NA,NA,NA,NA,NA,no date/time;no county info
242,WPRDC,growpghgardens201712_readin.xlsx,709,Grow PGH Garden,Frick Greenhouse,7227 Reynolds Street,Pittsburgh,PA,15208,NA,NA,NA,https://www.growpittsburgh.org/directory/garden/frick-greenhouse-1,40.447816,-79.901057,agency,NA,NA,NA,NA,NA,NA,NA,NA,NA,no date/time;no county info
243,WPRDC,growpghgardens201712_readin.xlsx,710,Grow PGH Garden,Shiloh Farm,7227 Thomas Boulevard,Pittsburgh,PA,15208,NA,NA,NA,https://www.growpittsburgh.org/directory/garden/shiloh-farm-1,40.450512,-79.898805,agency,NA,NA,NA,NA,NA,NA,NA,NA,NA,no date/time;no county info
244,WPRDC,growpghgardens201712_readin.xlsx,711,Grow PGH Garden,Garfield Community Farm,Cornwall St & Wicklow Street,Pittsburgh,PA,15224,NA,NA,NA,https://www.growpittsburgh.org/directory/garden/garfield-community-farm-2,40.46941,-79.934616,agency,NA,NA,NA,NA,NA,NA,NA,NA,NA,no date/time;no county info
245,WPRDC,growpghgardens201712_readin.xlsx,712,Grow PGH Garden,Bandi Schaum Garden,2315 Sidney Street,Pittsburgh,PA,15203,NA,NA,NA,https://www.growpittsburgh.org/directory/garden/bandi-schaum-garden,40.429303,-79.972425,agency,NA,NA,NA,NA,NA,NA,NA,NA,NA,no date/time;no county info
246,WPRDC,growpghgardens201712_readin.xlsx,713,Grow PGH Garden,East Field Cooperative Garden,5543 Black Street,Pittsburgh,PA,15206,NA,NA,NA,https://www.growpittsburgh.org/directory/garden/east-field-cooperative-garden,40.469404,-79.928441,agency,NA,NA,NA,NA,NA,NA,NA,NA,NA,no date/time;no county info
247,WPRDC,growpghgardens201712_readin.xlsx,715,Grow PGH Garden,Elliott Community Garden,706 Lorenz Avenue,Pittsburgh,PA,15220,NA,NA,NA,https://www.growpittsburgh.org/directory/garden/elliott-community-garden-1,40.44501,-80.039497,agency,NA,NA,NA,NA,NA,NA,NA,NA,NA,no date/time;no county info
248,WPRDC,growpghgardens201712_readin.xlsx,716,Grow PGH Garden,Fineview Community Garden,13 Carrie Street,Pittsburgh,PA,15212,NA,NA,NA,https://www.growpittsburgh.org/directory/garden/fineview-community-garden,40.461294,-80.002021,agency,NA,NA,NA,NA,NA,NA,NA,NA,NA,no date/time;no county info
249,WPRDC,growpghgardens201712_readin.xlsx,717,Grow PGH Garden,Frazier Farms Community Garden,3638 Frazier Street,Pittsburgh,PA,15213,NA,NA,NA,https://www.growpittsburgh.org/directory/garden/frazier-farms-community-garden,40.429735,-79.954579,agency,NA,NA,NA,NA,NA,NA,NA,NA,NA,no date/time;no county info
250,WPRDC,growpghgardens201712_readin.xlsx,718,Grow PGH Garden,Garden of Etna,9 Short Alley,Pittsburgh,PA,15223,NA,NA,NA,https://www.growpittsburgh.org/directory/garden/garden-of-etna,40.496077,-79.945871,agency,NA,NA,NA,NA,NA,NA,NA,NA,NA,no date/time;no county info
251,WPRDC,growpghgardens201712_readin.xlsx,719,Grow PGH Garden,Garden On Gearing,409-411 Gearing Avenue,Pittsburgh,PA,15210,NA,NA,NA,https://www.growpittsburgh.org/directory/garden/garden-on-gearing,40.418085,-80.00523,agency,NA,NA,NA,NA,NA,NA,NA,NA,NA,no date/time;no county info
252,WPRDC,growpghgardens201712_readin.xlsx,720,Grow PGH Garden,Glenn Avenue Community Garden,Glenn Avenue & Swissvale Avenue,Pittsburgh,PA,15221,NA,NA,NA,https://www.growpittsburgh.org/directory/garden/glenn-avenue-community-garden,40.444612,-79.875885,agency,NA,NA,NA,NA,NA,NA,NA,NA,NA,no date/time;no county info
253,WPRDC,growpghgardens201712_readin.xlsx,721,Grow PGH Garden,Harmar Street Community Garden,331 Harmar Street,Pittsburgh,PA,15219,NA,NA,NA,https://www.growpittsburgh.org/directory/garden/harmar-street-community-garden,40.457406,-79.967969,agency,NA,NA,NA,NA,NA,NA,NA,NA,NA,no date/time;no county info
254,WPRDC,growpghgardens201712_readin.xlsx,722,Grow PGH Garden,Highland Park Community Gardens,Stanton Avenue,Pittsburgh,PA,15206,NA,NA,NA,https://www.growpittsburgh.org/directory/garden/highland-park-community-gardens,40.472064,-79.913673,agency,NA,NA,NA,NA,NA,NA,NA,NA,NA,no date/time;no county info
255,WPRDC,growpghgardens201712_readin.xlsx,723,Grow PGH Garden,Kincaid Street Community Garden,5409 Kincaid Street,Pittsburgh,PA,15206,NA,NA,NA,https://www.growpittsburgh.org/directory/garden/kincaid-street-community-garden,40.466375,-79.934859,agency,NA,NA,NA,NA,NA,NA,NA,NA,NA,no date/time;no county info
256,WPRDC,growpghgardens201712_readin.xlsx,728,Grow PGH Garden,Kiwanis Community Garden,2801 Jenny Lind Street,McKeesport,PA,15132,NA,NA,NA,https://www.growpittsburgh.org/directory/garden/kiwanis-community-garden,40.339138,-79.844107,agency,NA,NA,NA,NA,NA,NA,NA,NA,NA,no date/time;no county info
257,WPRDC,growpghgardens201712_readin.xlsx,729,Grow PGH Garden,Larimer Community Garden,300 Larimer Avenue,Pittsburgh,PA,15206,NA,NA,NA,https://www.growpittsburgh.org/directory/garden/larimer-community-garden,40.46432,-79.91601,agency,NA,NA,NA,NA,NA,NA,NA,NA,NA,no date/time;no county info
258,WPRDC,growpghgardens201712_readin.xlsx,730,Grow PGH Garden,Lawrenceville Community Gardens,4200 Sherrod Street,Pittsburgh,PA,15201,NA,NA,NA,https://www.growpittsburgh.org/directory/garden/lawrenceville-community-gardens,40.467567,-79.956557,agency,NA,NA,NA,NA,NA,NA,NA,NA,NA,no date/time;no county info
259,WPRDC,growpghgardens201712_readin.xlsx,731,Grow PGH Garden,Martin Luther King Jr. Community Garden,219 Kirkpatrick Street,Pittsburgh,PA,15219,NA,NA,NA,https://www.growpittsburgh.org/directory/garden/martin-luther-king-jr-community-garden,40.440368,-79.983611,agency,NA,NA,NA,NA,NA,NA,NA,NA,NA,no date/time;no county info
260,WPRDC,growpghgardens201712_readin.xlsx,732,Grow PGH Garden,Morningside Community Garden,1924 Chislett St,Pittsburgh,PA,15206,NA,NA,NA,https://www.growpittsburgh.org/directory/garden/morningside-community-garden,40.486784,-79.923468,agency,NA,NA,NA,NA,NA,NA,NA,NA,NA,no date/time;no county info
261,WPRDC,growpghgardens201712_readin.xlsx,733,Grow PGH Garden,Mt. Oliver Borough Community Garden,Transverse Park,Mount Oliver,PA,15210,NA,NA,NA,https://www.growpittsburgh.org/directory/garden/mt-oliver-borough-community-garden,40.406719,-79.984659,agency,NA,NA,NA,NA,NA,NA,NA,NA,NA,no date/time;no county info
262,WPRDC,growpghgardens201712_readin.xlsx,734,Grow PGH Garden,Penn Hills Community Garden,1162 Jefferson Road,Penn Hills,PA,15235,NA,NA,NA,https://www.growpittsburgh.org/directory/garden/penn-hills-community-garden,40.447638,-79.798817,agency,NA,NA,NA,NA,NA,NA,NA,NA,NA,no date/time;no county info
263,WPRDC,growpghgardens201712_readin.xlsx,735,Grow PGH Garden,Stanton Heights Allegheny Cemetery Community Garden,Stanton Avenue,Pittsburgh,PA,15201,NA,NA,NA,https://www.growpittsburgh.org/directory/garden/stanton-heights-allegheny-cemetery-community-garden,40.473711,-79.961237,agency,NA,NA,NA,NA,NA,NA,NA,NA,NA,no date/time;no county info
264,WPRDC,growpghgardens201712_readin.xlsx,736,Grow PGH Garden,The Harry Orlando Memorial Community Garden,2205 5th Avenue,Pittsburgh,PA,15219,NA,NA,NA,https://www.growpittsburgh.org/directory/garden/the-harry-orlando-memorial-community-garden,40.438247,-79.973943,agency,NA,NA,NA,NA,NA,NA,NA,NA,NA,no date/time;no county info
265,WPRDC,growpghgardens201712_readin.xlsx,738,Grow PGH Garden,The Octopus Garden,133 S. Aiken Avenue,Pittsburgh,PA,15206,NA,NA,NA,https://www.growpittsburgh.org/directory/garden/the-octopus-garden,40.463591,-79.936771,agency,NA,NA,NA,NA,NA,NA,NA,NA,NA,no date/time;no county info
266,WPRDC,growpghgardens201712_readin.xlsx,739,Grow PGH Garden,Tustin Street Community Garden,2021 Tustin Street,Pittsburgh,PA,15219,NA,NA,NA,https://www.growpittsburgh.org/directory/garden/tustin-street-community-garden,40.436569,-79.977099,agency,NA,NA,NA,NA,NA,NA,NA,NA,NA,no date/time;no county info
267,USDA,PA.xlsx,NA,NA,CoGo's 1322,510 Station Street,BRIDGEVILLE,PA,15017,ALLEGHENY,NA,NA,NA,40.357666,-80.110374,agency,NA,NA,1,0,0,0,0,0,NA,no type;no phone;no date/time info
268,USDA,PA.xlsx,NA,NA,Market Fresh Meats,5 Crafton Sq,Pittsburgh,PA,15205,ALLEGHENY,NA,NA,NA,40.435497,-80.065086,agency,NA,NA,1,0,0,0,0,0,NA,no type;no phone;no date/time info
269,USDA,PA.xlsx,NA,NA,L E Corner Store,601 Lincoln Ave,East Liberty,PA,15206,ALLEGHENY,NA,NA,NA,40.461674,-79.90786,agency,NA,NA,1,0,0,0,0,0,NA,no type;no phone;no date/time info
270,USDA,PA.xlsx,NA,NA,Aldi 53,5159 Library Rd,Bethel Park,PA,15102,ALLEGHENY,NA,NA,NA,40.33485,-80.024025,agency,NA,NA,1,0,0,0,0,0,NA,no type;no phone;no date/time info
271,USDA,PA.xlsx,NA,NA,Isaly's 7020,537 E Ohio St,Pittsburgh,PA,15212,ALLEGHENY,NA,NA,NA,40.453705,-79.999367,agency,NA,NA,1,0,0,0,0,0,NA,no type;no phone;no date/time info
272,USDA,PA.xlsx,NA,NA,RITE AID 4682,100 William Marks Way,Munhall,PA,15120,ALLEGHENY,NA,NA,NA,40.409134,-79.901901,agency,NA,NA,1,0,0,0,0,0,NA,no type;no phone;no date/time info
273,USDA,PA.xlsx,NA,NA,RITE AID 0272,209 Atwood St,Pittsburgh,PA,15213,ALLEGHENY,NA,NA,NA,40.440754,-79.957176,agency,NA,NA,1,0,0,0,0,0,NA,no type;no phone;no date/time info
274,USDA,PA.xlsx,NA,NA,Rite Aid 1094,3210 Banksville Rd,Pittsburgh,PA,15216,ALLEGHENY,NA,NA,NA,40.399281,-80.044708,agency,NA,NA,1,0,0,0,0,0,NA,no type;no phone;no date/time info
275,USDA,PA.xlsx,NA,NA,RITE AID 4783,5100 Library Rd,Bethel Park,PA,15102,ALLEGHENY,NA,NA,NA,40.338581,-80.026169,agency,NA,NA,1,0,0,0,0,0,NA,no type;no phone;no date/time info
276,USDA,PA.xlsx,NA,NA,Rite Aid 4965,201 Grace St,Pittsburgh,PA,15211,ALLEGHENY,NA,NA,NA,40.430813,-80.010735,agency,NA,NA,1,0,0,0,0,0,NA,no type;no phone;no date/time info
277,USDA,PA.xlsx,NA,NA,RITE AID 0273,2300 Jane St,Pittsburgh,PA,15203,ALLEGHENY,NA,NA,NA,40.426464,-79.973183,agency,NA,NA,1,0,0,0,0,0,NA,no type;no phone;no date/time info
278,USDA,PA.xlsx,NA,NA,RITE AID 0268,5504 Walnut St,Pittsburgh,PA,15232,ALLEGHENY,NA,NA,NA,40.45118,-79.933617,agency,NA,NA,1,0,0,0,0,0,NA,no type;no phone;no date/time info
279,USDA,PA.xlsx,NA,NA,RITE AID 274,1700 Murray Ave,Pittsburgh,PA,15217,ALLEGHENY,NA,NA,NA,40.438061,-79.92305,agency,NA,NA,1,0,0,0,0,0,NA,no type;no phone;no date/time info
280,USDA,PA.xlsx,NA,NA,Rite Aid 1944,900 Mt Royal Blvd,Pittsburgh,PA,15223,ALLEGHENY,NA,NA,NA,40.515926,-79.959068,agency,NA,NA,1,0,0,0,0,0,NA,no type;no phone;no date/time info
281,USDA,PA.xlsx,NA,NA,RITE AID 1370,725 Lysle Blvd,McKeesport,PA,15132,ALLEGHENY,NA,NA,NA,40.3522,-79.857765,agency,NA,NA,1,0,0,0,0,0,NA,no type;no phone;no date/time info
282,USDA,PA.xlsx,NA,NA,Rite Aid 10949,5410 Keeport Dr,Pittsburgh,PA,15236,ALLEGHENY,NA,NA,NA,40.338249,-79.979202,agency,NA,NA,1,0,0,0,0,0,NA,no type;no phone;no date/time info
283,USDA,PA.xlsx,NA,NA,Ying Mart Inc T/A Uni-Mart,1926 Brownsville Rd,Pittsburgh,PA,15210,ALLEGHENY,NA,NA,NA,40.395294,-79.986877,agency,NA,NA,1,0,0,0,0,0,NA,no type;no phone;no date/time info
284,USDA,PA.xlsx,NA,NA,Uni-Mart,1181 Romine Ave,McKeesport,PA,15133,ALLEGHENY,NA,NA,NA,40.342293,-79.87133,agency,NA,NA,1,0,0,0,0,0,NA,no type;no phone;no date/time info
285,USDA,PA.xlsx,NA,NA,CVS Pharmacy 4103,355 LINCOLN AVE,PITTSBURGH,PA,15202,ALLEGHENY,NA,NA,NA,40.493916,-80.052246,agency,NA,NA,1,0,0,0,0,0,NA,no type;no phone;no date/time info
286,USDA,PA.xlsx,NA,NA,Walgreens 1034,112 W Steuben St,Crafton,PA,15205,ALLEGHENY,NA,NA,NA,40.438969,-80.072548,agency,NA,NA,1,0,0,0,0,0,NA,no type;no phone;no date/time info
287,USDA,PA.xlsx,NA,NA,Rite Aid 10942,410 Cooke Ln,Pittsburgh,PA,15234,ALLEGHENY,NA,NA,NA,40.370369,-80.032204,agency,NA,NA,1,0,0,0,0,0,NA,no type;no phone;no date/time info
288,USDA,PA.xlsx,NA,NA,Uni-Mart,852 5th Ave,Coraopolis,PA,15108,ALLEGHENY,NA,NA,NA,40.518505,-80.16713,agency,NA,NA,1,0,0,0,0,0,NA,no type;no phone;no date/time info
289,USDA,PA.xlsx,NA,NA,Rite Aid 10956,1121 Bower Hill Rd,Pittsburgh,PA,15243,ALLEGHENY,NA,NA,NA,40.375484,-80.069183,agency,NA,NA,1,0,0,0,0,0,NA,no type;no phone;no date/time info
290,USDA,PA.xlsx,NA,NA,A & M MARKET,5224 Penn Ave,Pittsburgh,PA,15224,ALLEGHENY,NA,NA,NA,40.464508,-79.93898,agency,NA,NA,1,0,0,0,0,0,NA,no type;no phone;no date/time info
291,USDA,PA.xlsx,NA,NA,ROCHESTER ROAD SHOP AND SAVE,84 Rochester Rd,Pittsburgh,PA,15229,ALLEGHENY,NA,NA,NA,40.521076,-80.026154,agency,NA,NA,1,0,0,0,0,0,NA,no type;no phone;no date/time info
292,USDA,PA.xlsx,NA,NA,Dollar General #8549,425 Perry Hwy,West View,PA,15229,ALLEGHENY,NA,NA,NA,40.519135,-80.03228,agency,NA,NA,1,0,0,0,0,0,NA,no type;no phone;no date/time info
293,USDA,PA.xlsx,NA,NA,"Super Stop Convenience Store, Inc.",430 Kenmawr Ave,Rankin,PA,15104,ALLEGHENY,NA,NA,NA,40.41177,-79.876472,agency,NA,NA,1,0,0,0,0,0,NA,no type;no phone;no date/time info
294,USDA,PA.xlsx,NA,NA,Getgo 3487,801 Mount Royal Blvd,Pittsburgh,PA,15223,ALLEGHENY,NA,NA,NA,40.514282,-79.959183,agency,NA,NA,1,0,0,0,0,0,NA,no type;no phone;no date/time info
295,USDA,PA.xlsx,NA,NA,Getgo 3488,5603 Babcock Blvd,Pittsburgh,PA,15237,ALLEGHENY,NA,NA,NA,40.54697,-80.028976,agency,NA,NA,1,0,0,0,0,0,NA,no type;no phone;no date/time info
296,USDA,PA.xlsx,NA,NA,Get Go 3476,800 Allegheny River Blvd,Verona,PA,15147,ALLEGHENY,NA,NA,NA,40.506878,-79.842865,agency,NA,NA,1,0,0,0,0,0,NA,no type;no phone;no date/time info
297,USDA,PA.xlsx,NA,NA,Getgo 3616,3601 Saw Mill Run Blvd,Pittsburgh,PA,15227,ALLEGHENY,NA,NA,NA,40.372643,-79.981911,agency,NA,NA,1,0,0,0,0,0,NA,no type;no phone;no date/time info
298,USDA,PA.xlsx,NA,NA,Target Store 1253,360 E WATERFORD DR,Homestead,PA,15120,ALLEGHENY,NA,NA,NA,40.403133,-79.906471,agency,NA,NA,1,0,0,0,0,0,NA,no type;no phone;no date/time info
299,USDA,PA.xlsx,NA,NA,Target Store 1217,600 Chauvet Dr,Pittsburgh,PA,15275,ALLEGHENY,NA,NA,NA,40.447014,-80.182732,agency,NA,NA,1,0,0,0,0,0,NA,no type;no phone;no date/time info
300,USDA,PA.xlsx,NA,NA,Target Store 1218,9805 MCKNIGHT RD 2,Pittsburgh,PA,15237,ALLEGHENY,NA,NA,NA,40.585663,-80.036606,agency,NA,NA,1,0,0,0,0,0,NA,no type;no phone;no date/time info
301,USDA,PA.xlsx,NA,NA,Target Store 1219,4004 Monroeville Blvd,Monroeville,PA,15146,ALLEGHENY,NA,NA,NA,40.435696,-79.770859,agency,NA,NA,1,0,0,0,0,0,NA,no type;no phone;no date/time info
302,USDA,PA.xlsx,NA,NA,Dollar General 10203,315 Cochran Rd,Pittsburgh,PA,15228,ALLEGHENY,NA,NA,NA,40.381538,-80.052536,agency,NA,NA,1,0,0,0,0,0,NA,no type;no phone;no date/time info
303,USDA,PA.xlsx,NA,NA,Dollar General #8103,75 Noble Ave,Crafton,PA,15205,ALLEGHENY,NA,NA,NA,40.433815,-80.066353,agency,NA,NA,1,0,0,0,0,0,NA,no type;no phone;no date/time info
304,USDA,PA.xlsx,NA,NA,Dollar General 2643,500 Pine Hollow Rd. A,McKees Rocks,PA,15136,ALLEGHENY,NA,NA,NA,40.469936,-80.076576,agency,NA,NA,1,0,0,0,0,0,NA,no type;no phone;no date/time info
305,USDA,PA.xlsx,NA,NA,KUHN'S MARKET,745 W. Ingomar Road,Ingomar,PA,15127,ALLEGHENY,NA,NA,NA,40.581478,-80.055283,agency,NA,NA,1,0,0,0,0,0,NA,no type;no phone;no date/time info
306,USDA,PA.xlsx,NA,NA,Dollar General 10277,1695 McFarland Rd,Pittsburgh,PA,15216,ALLEGHENY,NA,NA,NA,40.395996,-80.046486,agency,NA,NA,1,0,0,0,0,0,NA,no type;no phone;no date/time info
307,USDA,PA.xlsx,NA,NA,RITE AID 1589,6375 Library Rd,South Park,PA,15129,ALLEGHENY,NA,NA,NA,40.289986,-80.027809,agency,NA,NA,1,0,0,0,0,0,NA,no type;no phone;no date/time info
308,USDA,PA.xlsx,NA,NA,RITE AID 3571,103 W Allegheny Rd,Imperial,PA,15126,ALLEGHENY,NA,NA,NA,40.441845,-80.239136,agency,NA,NA,1,0,0,0,0,0,NA,no type;no phone;no date/time info
309,USDA,PA.xlsx,NA,NA,LA GROCERY WEST INDIAN AMERICAN,511 Larimer Ave,Pittsburgh,PA,15206,ALLEGHENY,NA,NA,NA,40.465477,-79.914131,agency,NA,NA,1,0,0,0,0,0,NA,no type;no phone;no date/time info
310,USDA,PA.xlsx,NA,NA,RITE AID 1925,210 9th St,Glassport,PA,15045,ALLEGHENY,NA,NA,NA,40.320995,-79.892296,agency,NA,NA,1,0,0,0,0,0,NA,no type;no phone;no date/time info
311,USDA,PA.xlsx,NA,NA,RITE AID 2482,300 Market St,Elizabeth,PA,15037,ALLEGHENY,NA,NA,NA,40.272511,-79.88633,agency,NA,NA,1,0,0,0,0,0,NA,no type;no phone;no date/time info
312,USDA,PA.xlsx,NA,NA,DOLLAR TREE 142,1759 S Braddock Ave,Pittsburgh,PA,15218,ALLEGHENY,NA,NA,NA,40.424519,-79.887764,agency,NA,NA,1,0,0,0,0,0,NA,no type;no phone;no date/time info
313,USDA,PA.xlsx,NA,NA,DOLLAR TREE 258,12 Federal Dr,Pittsburgh,PA,15235,ALLEGHENY,NA,NA,NA,40.464207,-79.82666,agency,NA,NA,1,0,0,0,0,0,NA,no type;no phone;no date/time info
314,USDA,PA.xlsx,NA,NA,Getgo 3128,5381 Library Rd,Bethel Park,PA,15102,ALLEGHENY,NA,NA,NA,40.327724,-80.024467,agency,NA,NA,1,0,0,0,0,0,NA,no type;no phone;no date/time info
315,USDA,PA.xlsx,NA,NA,DOLLAR TREE 2103,1030 W View Park Dr,Pittsburgh,PA,15229,ALLEGHENY,NA,NA,NA,40.517517,-80.037987,agency,NA,NA,1,0,0,0,0,0,NA,no type;no phone;no date/time info
316,USDA,PA.xlsx,NA,NA,DOLLAR EAGLE DISCOUNTS,1552 Beechview Ave,Pittsburgh,PA,15216,ALLEGHENY,NA,NA,NA,40.411846,-80.024895,agency,NA,NA,1,0,0,0,0,0,NA,no type;no phone;no date/time info
317,USDA,PA.xlsx,NA,NA,CVS PHARMACY 7611,4849 William Flynn Hwy,Allison Park,PA,15101,ALLEGHENY,NA,NA,NA,40.599445,-79.947502,agency,NA,NA,1,0,0,0,0,0,NA,no type;no phone;no date/time info
318,USDA,PA.xlsx,NA,NA,CVS PHARMACY INC 3999,401 Chestnut St,Carnegie,PA,15106,ALLEGHENY,NA,NA,NA,40.41008,-80.082382,agency,NA,NA,1,0,0,0,0,0,NA,no type;no phone;no date/time info
319,USDA,PA.xlsx,NA,NA,CVS PHARMACY INC 4002,70 W Steuben St,Pittsburgh,PA,15205,ALLEGHENY,NA,NA,NA,40.438564,-80.07032,agency,NA,NA,1,0,0,0,0,0,NA,no type;no phone;no date/time info
320,USDA,PA.xlsx,NA,NA,WALGREENS 09345,10707 Frankstown Rd,Pittsburgh,PA,15235,ALLEGHENY,NA,NA,NA,40.460594,-79.84214,agency,NA,NA,1,0,0,0,0,0,NA,no type;no phone;no date/time info
321,USDA,PA.xlsx,NA,NA,Sheetz 379,9002 University Blvd,Moon Township,PA,15108,ALLEGHENY,NA,NA,NA,40.503254,-80.222305,agency,NA,NA,1,0,0,0,0,0,NA,no type;no phone;no date/time info
322,USDA,PA.xlsx,NA,NA,CASTLE SHANNON SHOP N SAVE,799 Castle Shannon Blvd,Pittsburgh,PA,15234,ALLEGHENY,NA,NA,NA,40.368637,-80.028931,agency,NA,NA,1,0,0,0,0,0,NA,no type;no phone;no date/time info
323,USDA,PA.xlsx,NA,NA,IMPERIAL SHOP N SAVE,600 Market Place Dr,Oakdale,PA,15071,ALLEGHENY,NA,NA,NA,40.440285,-80.239944,agency,NA,NA,1,0,0,0,0,0,NA,no type;no phone;no date/time info
324,USDA,PA.xlsx,NA,NA,Walmart 3838,2010 Village Center Dr,Tarentum,PA,15084,ALLEGHENY,NA,NA,NA,40.562939,-79.803284,agency,NA,NA,1,0,0,0,0,0,NA,no type;no phone;no date/time info
325,USDA,PA.xlsx,NA,NA,KUHNS MARKET,4801 McKnight Rd,Pittsburgh,PA,15237,ALLEGHENY,NA,NA,NA,40.528229,-80.007042,agency,NA,NA,1,0,0,0,0,0,NA,no type;no phone;no date/time info
326,USDA,PA.xlsx,NA,NA,Kiev International Food,4223 Murray Ave,Pittsburgh,PA,15217,ALLEGHENY,NA,NA,NA,40.422482,-79.928818,agency,NA,NA,1,0,0,0,0,0,NA,no type;no phone;no date/time info
327,USDA,PA.xlsx,NA,NA,Century Square Shop N Save,2381 Mountain View Dr,West Mifflin,PA,15122,ALLEGHENY,NA,NA,NA,40.346218,-79.943558,agency,NA,NA,1,0,0,0,0,0,NA,no type;no phone;no date/time info
328,USDA,PA.xlsx,NA,NA,Dollar Tree 0203,1155 Washington Pike Ste 49,Bridgeville,PA,15017,ALLEGHENY,NA,NA,NA,40.368584,-80.102608,agency,NA,NA,1,0,0,0,0,0,NA,no type;no phone;no date/time info
329,USDA,PA.xlsx,NA,NA,DOLLAR TREE 1275,110 Walmart Dr,N Versailles,PA,15137,ALLEGHENY,NA,NA,NA,40.385948,-79.822449,agency,NA,NA,1,0,0,0,0,0,NA,no type;no phone;no date/time info
330,USDA,PA.xlsx,NA,NA,GLENSHAW SHOP N SAVE,917 Butler St,Pittsburgh,PA,15223,ALLEGHENY,NA,NA,NA,40.511703,-79.948013,agency,NA,NA,1,0,0,0,0,0,NA,no type;no phone;no date/time info
331,USDA,PA.xlsx,NA,NA,Sheetz 376,1000 Clairton Blvd,Pittsburgh,PA,15236,ALLEGHENY,NA,NA,NA,40.320313,-79.941917,agency,NA,NA,1,0,0,0,0,0,NA,no type;no phone;no date/time info
332,USDA,PA.xlsx,NA,NA,Noblestown Rd. Shop N Save,2103 Noblestown Rd,Pittsburgh,PA,15205,ALLEGHENY,NA,NA,NA,40.432098,-80.052467,agency,NA,NA,1,0,0,0,0,0,NA,no type;no phone;no date/time info
333,USDA,PA.xlsx,NA,NA,SALIMS MIDDLE EASTERN FOODS,4705 Centre Ave,Pittsburgh,PA,15213,ALLEGHENY,NA,NA,NA,40.452717,-79.949356,agency,NA,NA,1,0,0,0,0,0,NA,no type;no phone;no date/time info
334,USDA,PA.xlsx,NA,NA,TARGET STORES 2077,288 Mt Nebo Pointe Rd,Pittsburgh,PA,15237,ALLEGHENY,NA,NA,NA,40.535103,-80.067467,agency,NA,NA,1,0,0,0,0,0,NA,no type;no phone;no date/time info
335,USDA,PA.xlsx,NA,NA,Mish Farms Meat Market Inc.,80 Oak Rd,Gibsonia,PA,15044,ALLEGHENY,NA,NA,NA,40.622093,-79.900826,agency,NA,NA,1,0,0,0,0,0,NA,no type;no phone;no date/time info
336,USDA,PA.xlsx,NA,NA,Heidelberg Shop N Save,2100 Washington Pike,Carnegie,PA,15106,ALLEGHENY,NA,NA,NA,40.386105,-80.092674,agency,NA,NA,1,0,0,0,0,0,NA,no type;no phone;no date/time info
337,USDA,PA.xlsx,NA,NA,New Youngs Oriental Market,5813 Forward Ave,Pittsburgh,PA,15217,ALLEGHENY,NA,NA,NA,40.429745,-79.923035,agency,NA,NA,1,0,0,0,0,0,NA,no type;no phone;no date/time info
338,USDA,PA.xlsx,NA,NA,HAPPY MINI MART,512 E Pittsburgh McKeesport Blvd,N Versailles,PA,15137,ALLEGHENY,NA,NA,NA,40.36937,-79.830437,agency,NA,NA,1,0,0,0,0,0,NA,no type;no phone;no date/time info
339,USDA,PA.xlsx,NA,NA,European Mkt and Grill,4140 Saw Mill Run Blvd,Pittsburgh,PA,15227,ALLEGHENY,NA,NA,NA,40.366405,-79.984512,agency,NA,NA,1,0,0,0,0,0,NA,no type;no phone;no date/time info
340,USDA,PA.xlsx,NA,NA,Getgo 3106,408 Penn Ave,Wilkinsburg,PA,15221,ALLEGHENY,NA,NA,NA,40.44521,-79.889519,agency,NA,NA,1,0,0,0,0,0,NA,no type;no phone;no date/time info
341,USDA,PA.xlsx,NA,NA,CVS PHARMACY INC 4369,4610 Centre Ave,Pittsburgh,PA,15213,ALLEGHENY,NA,NA,NA,40.451984,-79.951614,agency,NA,NA,1,0,0,0,0,0,NA,no type;no phone;no date/time info
342,USDA,PA.xlsx,NA,NA,Dollar General 10426,995 Greensburg Pike,E Pittsburgh,PA,15112,ALLEGHENY,NA,NA,NA,40.416763,-79.839432,agency,NA,NA,1,0,0,0,0,0,NA,no type;no phone;no date/time info
343,USDA,PA.xlsx,NA,NA,CoGo's 811,314 Scenery Dr,Elizabeth,PA,15037,ALLEGHENY,NA,NA,NA,40.277592,-79.837364,agency,NA,NA,1,0,0,0,0,0,NA,no type;no phone;no date/time info
344,USDA,PA.xlsx,NA,NA,CoGo's 820,2880 Brownsville Rd,South Park,PA,15129,ALLEGHENY,NA,NA,NA,40.289303,-79.996994,agency,NA,NA,1,0,0,0,0,0,NA,no type;no phone;no date/time info
345,USDA,PA.xlsx,NA,NA,CoGo's 329,1050 Brinton Rd,Pittsburgh,PA,15221,ALLEGHENY,NA,NA,NA,40.426346,-79.871681,agency,NA,NA,1,0,0,0,0,0,NA,no type;no phone;no date/time info
346,USDA,PA.xlsx,NA,NA,WALGREENS 09674,133 W 8th Ave,Homestead,PA,15120,ALLEGHENY,NA,NA,NA,40.405575,-79.912804,agency,NA,NA,1,0,0,0,0,0,NA,no type;no phone;no date/time info
347,USDA,PA.xlsx,NA,NA,WALGREENS 09281,5956 Penn Cir S Ste 1,Pittsburgh,PA,15206,ALLEGHENY,NA,NA,NA,40.459324,-79.926811,agency,NA,NA,1,0,0,0,0,0,NA,no type;no phone;no date/time info
348,USDA,PA.xlsx,NA,NA,R&M VARIETY STORE,1739 Pennsylvania Ave,West Mifflin,PA,15122,ALLEGHENY,NA,NA,NA,40.362057,-79.861015,agency,NA,NA,1,0,0,0,0,0,NA,no type;no phone;no date/time info
349,USDA,PA.xlsx,NA,NA,Walgreens 9675,6201 Saltsburg Rd,Pittsburgh,PA,15235,ALLEGHENY,NA,NA,NA,40.48502,-79.817833,agency,NA,NA,1,0,0,0,0,0,NA,no type;no phone;no date/time info
350,USDA,PA.xlsx,NA,NA,DOLLAR TREE 0228,1360 Park Manor Blvd,Pittsburgh,PA,15205,ALLEGHENY,NA,NA,NA,40.451958,-80.163704,agency,NA,NA,1,0,0,0,0,0,NA,no type;no phone;no date/time info
351,USDA,PA.xlsx,NA,NA,Olympia Shop N Save,4313 Walnut St,McKeesport,PA,15132,ALLEGHENY,NA,NA,NA,40.321171,-79.836456,agency,NA,NA,1,0,0,0,0,0,NA,no type;no phone;no date/time info
352,USDA,PA.xlsx,NA,NA,Aldi 56,2348 Ardmore Blvd,Pittsburgh,PA,15221,ALLEGHENY,NA,NA,NA,40.416534,-79.848167,agency,NA,NA,1,0,0,0,0,0,NA,no type;no phone;no date/time info
353,USDA,PA.xlsx,NA,NA,Quick Stop,3349 Liberty Ave,Pittsburgh,PA,15201,ALLEGHENY,NA,NA,NA,40.461678,-79.966484,agency,NA,NA,1,0,0,0,0,0,NA,no type;no phone;no date/time info
354,USDA,PA.xlsx,NA,NA,Trader Joe's 638,6343 Penn Ave,Pittsburgh,PA,15206,ALLEGHENY,NA,NA,NA,40.458904,-79.919426,agency,NA,NA,1,0,0,0,0,0,NA,no type;no phone;no date/time info
355,USDA,PA.xlsx,NA,NA,Target 2201,4801 McKnight Rd Ste 3,Pittsburgh,PA,15237,ALLEGHENY,NA,NA,NA,40.528229,-80.007042,agency,NA,NA,1,0,0,0,0,0,NA,no type;no phone;no date/time info
356,USDA,PA.xlsx,NA,NA,Gordon Food Service Store LLC,510 Clairton Blvd,Pittsburgh,PA,15236,ALLEGHENY,NA,NA,NA,40.333809,-79.946472,agency,NA,NA,1,0,0,0,0,0,NA,no type;no phone;no date/time info
357,USDA,PA.xlsx,NA,NA,Gordon Food Service Store LLC,3620 William Penn Hwy,Monroeville,PA,15146,ALLEGHENY,NA,NA,NA,40.432182,-79.801254,agency,NA,NA,1,0,0,0,0,0,NA,no type;no phone;no date/time info
358,USDA,PA.xlsx,NA,NA,RITE AID 3412,1800 Morningside Ave,Pittsburgh,PA,15206,ALLEGHENY,NA,NA,NA,40.486668,-79.926949,agency,NA,NA,1,0,0,0,0,0,NA,no type;no phone;no date/time info
359,USDA,PA.xlsx,NA,NA,Wilkinsburg Save A Lot,725 Ross Ave,Wilkinsburg,PA,15221,ALLEGHENY,NA,NA,NA,40.442696,-79.88443,agency,NA,NA,1,0,0,0,0,0,NA,no type;no phone;no date/time info
360,USDA,PA.xlsx,NA,NA,WALGREENS 09803,324 Hulton Rd,Oakmont,PA,15139,ALLEGHENY,NA,NA,NA,40.525734,-79.841568,agency,NA,NA,1,0,0,0,0,0,NA,no type;no phone;no date/time info
361,USDA,PA.xlsx,NA,NA,South Park Sunoco,5660 Brownsville Rd,Pittsburgh,PA,15236,ALLEGHENY,NA,NA,NA,40.330959,-79.987129,agency,NA,NA,1,0,0,0,0,0,NA,no type;no phone;no date/time info
362,USDA,PA.xlsx,NA,NA,Dollar General 10875,5032 William Penn Hwy,Monroeville,PA,15146,ALLEGHENY,NA,NA,NA,40.428741,-79.707176,agency,NA,NA,1,0,0,0,0,0,NA,no type;no phone;no date/time info
363,USDA,PA.xlsx,NA,NA,North Versailles Save A Lot,355 Lincoln Hwy,N Versailles,PA,15137,ALLEGHENY,NA,NA,NA,40.381916,-79.818733,agency,NA,NA,1,0,0,0,0,0,NA,no type;no phone;no date/time info
364,USDA,PA.xlsx,NA,NA,CoGo's 1808,1001 Brookline Blvd,Pittsburgh,PA,15226,ALLEGHENY,NA,NA,NA,40.392017,-80.01741,agency,NA,NA,1,0,0,0,0,0,NA,no type;no phone;no date/time info
365,USDA,PA.xlsx,NA,NA,Sunoco - A Plus 7501 7501,30 Center St,East Pittsburgh,PA,15112,ALLEGHENY,NA,NA,NA,40.396324,-79.846573,agency,NA,NA,1,0,0,0,0,0,NA,no type;no phone;no date/time info
366,USDA,PA.xlsx,NA,NA,Giant Eagle 5103,2611 Freeport Rd,Pittsburgh,PA,15238,ALLEGHENY,NA,NA,NA,40.537529,-79.836693,agency,NA,NA,1,0,0,0,0,0,NA,no type;no phone;no date/time info
367,USDA,PA.xlsx,NA,NA,Rite Aid 4419,1529 Freeport Rd,Natrona Heights,PA,15065,ALLEGHENY,NA,NA,NA,40.62067,-79.729126,agency,NA,NA,1,0,0,0,0,0,NA,no type;no phone;no date/time info
368,USDA,PA.xlsx,NA,NA,A & E Deli,105 Brownsville Rd,Pittsburgh,PA,15210,ALLEGHENY,NA,NA,NA,40.417347,-79.986526,agency,NA,NA,1,0,0,0,0,0,NA,no type;no phone;no date/time info
369,USDA,PA.xlsx,NA,NA,Strip District Meats,2121 Penn Ave,Pittsburgh,PA,15222,ALLEGHENY,NA,NA,NA,40.452065,-79.98262,agency,NA,NA,1,0,0,0,0,0,NA,no type;no phone;no date/time info
370,USDA,PA.xlsx,NA,NA,Ednas Market & Deli,529 Mount Pleasant Rd,Pittsburgh,PA,15214,ALLEGHENY,NA,NA,NA,40.47776,-80.000168,agency,NA,NA,1,0,0,0,0,0,NA,no type;no phone;no date/time info
371,USDA,PA.xlsx,NA,NA,Target Stores 2262,550 Grandview Crossing Dr,Gibsonia,PA,15044,ALLEGHENY,NA,NA,NA,40.641586,-79.939644,agency,NA,NA,1,0,0,0,0,0,NA,no type;no phone;no date/time info
372,USDA,PA.xlsx,NA,NA,Stanton Negley Drug Company,804 N Negley Ave,Pittsburgh,PA,15206,ALLEGHENY,NA,NA,NA,40.471687,-79.926163,agency,NA,NA,1,0,0,0,0,0,NA,no type;no phone;no date/time info
373,USDA,PA.xlsx,NA,NA,Broadway Dairy Mart,412 Broadway Ave,McKees Rocks,PA,15136,ALLEGHENY,NA,NA,NA,40.469074,-80.068832,agency,NA,NA,1,0,0,0,0,0,NA,no type;no phone;no date/time info
374,USDA,PA.xlsx,NA,NA,GetGo 3172,1081 Freeport Rd,Pittsburgh,PA,15238,ALLEGHENY,NA,NA,NA,40.487457,-79.883537,agency,NA,NA,1,0,0,0,0,0,NA,no type;no phone;no date/time info
375,USDA,PA.xlsx,NA,NA,GetGo 3691,4099 Grandview Dr,Gibsonia,PA,15044,ALLEGHENY,NA,NA,NA,40.642238999999996,-79.937866,agency,NA,NA,1,0,0,0,0,0,NA,no type;no phone;no date/time info
376,USDA,PA.xlsx,NA,NA,Walgreens 09043,1701 William Flynn Hwy,Glenshaw,PA,15116,ALLEGHENY,NA,NA,NA,40.538826,-79.962555,agency,NA,NA,1,0,0,0,0,0,NA,no type;no phone;no date/time info
377,USDA,PA.xlsx,NA,NA,Rite Aid 7924,2270 Noblestown Rd,Pittsburgh,PA,15205,ALLEGHENY,NA,NA,NA,40.428047,-80.053696,agency,NA,NA,1,0,0,0,0,0,NA,no type;no phone;no date/time info
378,USDA,PA.xlsx,NA,NA,Penn Aiken Dairy,5401 Penn Ave,Pittsburgh,PA,15206,ALLEGHENY,NA,NA,NA,40.464718,-79.936203,agency,NA,NA,1,0,0,0,0,0,NA,no type;no phone;no date/time info
379,USDA,PA.xlsx,NA,NA,Blue Eagle Market,726 Broadway Ave,MC Kees Rocks,PA,15136,ALLEGHENY,NA,NA,NA,40.472816,-80.074203,agency,NA,NA,1,0,0,0,0,0,NA,no type;no phone;no date/time info
380,USDA,PA.xlsx,NA,NA,Walgreens 09736,4885 McKnight Rd Ste 7,Pittsburgh,PA,15237,ALLEGHENY,NA,NA,NA,40.529381,-80.008751,agency,NA,NA,1,0,0,0,0,0,NA,no type;no phone;no date/time info
381,USDA,PA.xlsx,NA,NA,Walgreens 10282,30 Pine Creek Rd,Wexford,PA,15090,ALLEGHENY,NA,NA,NA,40.586784,-80.043983,agency,NA,NA,1,0,0,0,0,0,NA,no type;no phone;no date/time info
382,USDA,PA.xlsx,NA,NA,Gordon Food Service Store LLC MP 136,1 Urbano Way,Pittsburgh,PA,15205,ALLEGHENY,NA,NA,NA,40.457901,-80.166237,agency,NA,NA,1,0,0,0,0,0,NA,no type;no phone;no date/time info
383,USDA,PA.xlsx,NA,NA,Aldi 69,8000 McKnight Rd,Pittsburgh,PA,15237,ALLEGHENY,NA,NA,NA,40.550568,-80.01918,agency,NA,NA,1,0,0,0,0,0,NA,no type;no phone;no date/time info
384,USDA,PA.xlsx,NA,NA,In & Out Corner Market,300 Helen St,MC Kees Rocks,PA,15136,ALLEGHENY,NA,NA,NA,40.473999,-80.057259,agency,NA,NA,1,0,0,0,0,0,NA,no type;no phone;no date/time info
385,USDA,PA.xlsx,NA,NA,GIBSONIA GIANT EAGLE,400 Northtowne Sq,Gibsonia,PA,15044,ALLEGHENY,NA,NA,NA,40.635731,-79.941368,agency,NA,NA,1,0,0,0,0,0,NA,no type;no phone;no date/time info
386,USDA,PA.xlsx,NA,NA,Walmart 3738,100 Highlands Mall,Natrona Heights,PA,15065,ALLEGHENY,NA,NA,NA,40.646206,-79.712196,agency,NA,NA,1,0,0,0,0,0,NA,no type;no phone;no date/time info
387,USDA,PA.xlsx,NA,NA,Unimart,748 Brownsville Rd,Pittsburgh,PA,15210,ALLEGHENY,NA,NA,NA,40.408554,-79.991226,agency,NA,NA,1,0,0,0,0,0,NA,no type;no phone;no date/time info
388,USDA,PA.xlsx,NA,NA,Target Stores 2385,2661 Freeport Rd,Pittsburgh,PA,15238,ALLEGHENY,NA,NA,NA,40.537399,-79.837234,agency,NA,NA,1,0,0,0,0,0,NA,no type;no phone;no date/time info
389,USDA,PA.xlsx,NA,NA,Dollar Tree 236,240 Mount Nebo Pointe Rd,Pittsburgh,PA,15237,ALLEGHENY,NA,NA,NA,40.535011,-80.064651,agency,NA,NA,1,0,0,0,0,0,NA,no type;no phone;no date/time info
