id,name,type,address,street_one,street_two,city,state,zip_code,location_description,date_from,date_to,open_time1,close_time1,open_time2,close_time2,Sunday,Monday,Tuesday,Wednesday,Thursday,Friday,Saturday,SNAP,WIC,FMNP,fresh_produce-healthy,MRFEI_score,latitude,longitude,zip
NA,CoGo's 1322,NA,510 Station Street NA,NA,NA,BRIDGEVILLE,PA,NA,NA,NA,NA,NA,NA,NA,NA,NA,NA,NA,NA,NA,NA,NA,NA,NA,NA,NA,NA,40.357666,-80.110374,15017
NA,Market Fresh Meats,NA,5 Crafton Sq NA,NA,NA,Pittsburgh,PA,NA,NA,NA,NA,NA,NA,NA,NA,NA,NA,NA,NA,NA,NA,NA,NA,NA,NA,NA,NA,40.435497,-80.065086,15205
NA,L E Corner Store,NA,601 Lincoln Ave NA,NA,NA,East Liberty,PA,NA,NA,NA,NA,NA,NA,NA,NA,NA,NA,NA,NA,NA,NA,NA,NA,NA,NA,NA,NA,40.461674,-79.90786,15206
NA,Aldi 53,NA,5159 Library Rd NA,NA,NA,Bethel Park,PA,NA,NA,NA,NA,NA,NA,NA,NA,NA,NA,NA,NA,NA,NA,NA,NA,NA,NA,NA,NA,40.33485,-80.024025,15102
NA,Isaly's 7020,NA,537 E Ohio St NA,NA,NA,Pittsburgh,PA,NA,NA,NA,NA,NA,NA,NA,NA,NA,NA,NA,NA,NA,NA,NA,NA,NA,NA,NA,NA,40.453705,-79.999367,15212
NA,RITE AID 4682,NA,100 William Marks Way NA,NA,NA,Munhall,PA,NA,NA,NA,NA,NA,NA,NA,NA,NA,NA,NA,NA,NA,NA,NA,NA,NA,NA,NA,NA,40.409134,-79.901901,15120
NA,RITE AID 0272,NA,209 Atwood St NA,NA,NA,Pittsburgh,PA,NA,NA,NA,NA,NA,NA,NA,NA,NA,NA,NA,NA,NA,NA,NA,NA,NA,NA,NA,NA,40.440754,-79.957176,15213
NA,Rite Aid 1094,NA,3210 Banksville Rd NA,NA,NA,Pittsburgh,PA,NA,NA,NA,NA,NA,NA,NA,NA,NA,NA,NA,NA,NA,NA,NA,NA,NA,NA,NA,NA,40.399281,-80.044708,15216
NA,RITE AID 4783,NA,5100 Library Rd NA,NA,NA,Bethel Park,PA,NA,NA,NA,NA,NA,NA,NA,NA,NA,NA,NA,NA,NA,NA,NA,NA,NA,NA,NA,NA,40.338581,-80.026169,15102
NA,Rite Aid 4965,NA,201 Grace St NA,NA,NA,Pittsburgh,PA,NA,NA,NA,NA,NA,NA,NA,NA,NA,NA,NA,NA,NA,NA,NA,NA,NA,NA,NA,NA,40.430813,-80.010735,15211
NA,RITE AID 0273,NA,2300 Jane St NA,NA,NA,Pittsburgh,PA,NA,NA,NA,NA,NA,NA,NA,NA,NA,NA,NA,NA,NA,NA,NA,NA,NA,NA,NA,NA,40.426464,-79.973183,15203
NA,RITE AID 0268,NA,5504 Walnut St NA,NA,NA,Pittsburgh,PA,NA,NA,NA,NA,NA,NA,NA,NA,NA,NA,NA,NA,NA,NA,NA,NA,NA,NA,NA,NA,40.45118,-79.933617,15232
NA,RITE AID 274,NA,1700 Murray Ave NA,NA,NA,Pittsburgh,PA,NA,NA,NA,NA,NA,NA,NA,NA,NA,NA,NA,NA,NA,NA,NA,NA,NA,NA,NA,NA,40.438061,-79.92305,15217
NA,Rite Aid 1944,NA,900 Mt Royal Blvd NA,NA,NA,Pittsburgh,PA,NA,NA,NA,NA,NA,NA,NA,NA,NA,NA,NA,NA,NA,NA,NA,NA,NA,NA,NA,NA,40.515926,-79.959068,15223
NA,RITE AID 1370,NA,725 Lysle Blvd NA,NA,NA,McKeesport,PA,NA,NA,NA,NA,NA,NA,NA,NA,NA,NA,NA,NA,NA,NA,NA,NA,NA,NA,NA,NA,40.3522,-79.857765,15132
NA,Rite Aid 10949,NA,5410 Keeport Dr NA,NA,NA,Pittsburgh,PA,NA,NA,NA,NA,NA,NA,NA,NA,NA,NA,NA,NA,NA,NA,NA,NA,NA,NA,NA,NA,40.338249,-79.979202,15236
NA,Ying Mart Inc T/A Uni-Mart,NA,1926 Brownsville Rd NA,NA,NA,Pittsburgh,PA,NA,NA,NA,NA,NA,NA,NA,NA,NA,NA,NA,NA,NA,NA,NA,NA,NA,NA,NA,NA,40.395294,-79.986877,15210
NA,Uni-Mart,NA,1181 Romine Ave NA,NA,NA,McKeesport,PA,NA,NA,NA,NA,NA,NA,NA,NA,NA,NA,NA,NA,NA,NA,NA,NA,NA,NA,NA,NA,40.342293,-79.87133,15133
NA,CVS Pharmacy 4103,NA,355 LINCOLN AVE NA,NA,NA,PITTSBURGH,PA,NA,NA,NA,NA,NA,NA,NA,NA,NA,NA,NA,NA,NA,NA,NA,NA,NA,NA,NA,NA,40.493916,-80.052246,15202
NA,Walgreens 1034,NA,112 W Steuben St NA,NA,NA,Crafton,PA,NA,NA,NA,NA,NA,NA,NA,NA,NA,NA,NA,NA,NA,NA,NA,NA,NA,NA,NA,NA,40.438969,-80.072548,15205
NA,Rite Aid 10942,NA,410 Cooke Ln NA,NA,NA,Pittsburgh,PA,NA,NA,NA,NA,NA,NA,NA,NA,NA,NA,NA,NA,NA,NA,NA,NA,NA,NA,NA,NA,40.370369,-80.032204,15234
NA,Uni-Mart,NA,852 5th Ave NA,NA,NA,Coraopolis,PA,NA,NA,NA,NA,NA,NA,NA,NA,NA,NA,NA,NA,NA,NA,NA,NA,NA,NA,NA,NA,40.518505,-80.16713,15108
NA,Rite Aid 10956,NA,1121 Bower Hill Rd NA,NA,NA,Pittsburgh,PA,NA,NA,NA,NA,NA,NA,NA,NA,NA,NA,NA,NA,NA,NA,NA,NA,NA,NA,NA,NA,40.375484,-80.069183,15243
NA,A & M MARKET,NA,5224 Penn Ave NA,NA,NA,Pittsburgh,PA,NA,NA,NA,NA,NA,NA,NA,NA,NA,NA,NA,NA,NA,NA,NA,NA,NA,NA,NA,NA,40.464508,-79.93898,15224
NA,ROCHESTER ROAD SHOP AND SAVE,NA,84 Rochester Rd NA,NA,NA,Pittsburgh,PA,NA,NA,NA,NA,NA,NA,NA,NA,NA,NA,NA,NA,NA,NA,NA,NA,NA,NA,NA,NA,40.521076,-80.026154,15229
NA,Dollar General #8549,NA,425 Perry Hwy NA,NA,NA,West View,PA,NA,NA,NA,NA,NA,NA,NA,NA,NA,NA,NA,NA,NA,NA,NA,NA,NA,NA,NA,NA,40.519135,-80.03228,15229
NA,"Super Stop Convenience Store, Inc.",NA,430 Kenmawr Ave NA,NA,NA,Rankin,PA,NA,NA,NA,NA,NA,NA,NA,NA,NA,NA,NA,NA,NA,NA,NA,NA,NA,NA,NA,NA,40.41177,-79.876472,15104
NA,Getgo 3487,NA,801 Mount Royal Blvd NA,NA,NA,Pittsburgh,PA,NA,NA,NA,NA,NA,NA,NA,NA,NA,NA,NA,NA,NA,NA,NA,NA,NA,NA,NA,NA,40.514282,-79.959183,15223
NA,Getgo 3488,NA,5603 Babcock Blvd NA,NA,NA,Pittsburgh,PA,NA,NA,NA,NA,NA,NA,NA,NA,NA,NA,NA,NA,NA,NA,NA,NA,NA,NA,NA,NA,40.54697,-80.028976,15237
NA,Get Go 3476,NA,800 Allegheny River Blvd NA,NA,NA,Verona,PA,NA,NA,NA,NA,NA,NA,NA,NA,NA,NA,NA,NA,NA,NA,NA,NA,NA,NA,NA,NA,40.506878,-79.842865,15147
NA,Getgo 3616,NA,3601 Saw Mill Run Blvd NA,NA,NA,Pittsburgh,PA,NA,NA,NA,NA,NA,NA,NA,NA,NA,NA,NA,NA,NA,NA,NA,NA,NA,NA,NA,NA,40.372643,-79.981911,15227
NA,Target Store 1253,NA,360 E WATERFORD DR NA,NA,NA,Homestead,PA,NA,NA,NA,NA,NA,NA,NA,NA,NA,NA,NA,NA,NA,NA,NA,NA,NA,NA,NA,NA,40.403133,-79.906471,15120
NA,Target Store 1217,NA,600 Chauvet Dr NA,NA,NA,Pittsburgh,PA,NA,NA,NA,NA,NA,NA,NA,NA,NA,NA,NA,NA,NA,NA,NA,NA,NA,NA,NA,NA,40.447014,-80.182732,15275
NA,Target Store 1218,NA,9805 MCKNIGHT RD 2,NA,NA,Pittsburgh,PA,NA,NA,NA,NA,NA,NA,NA,NA,NA,NA,NA,NA,NA,NA,NA,NA,NA,NA,NA,NA,40.585663,-80.036606,15237
NA,Target Store 1219,NA,4004 Monroeville Blvd NA,NA,NA,Monroeville,PA,NA,NA,NA,NA,NA,NA,NA,NA,NA,NA,NA,NA,NA,NA,NA,NA,NA,NA,NA,NA,40.435696,-79.770859,15146
NA,Dollar General 10203,NA,315 Cochran Rd NA,NA,NA,Pittsburgh,PA,NA,NA,NA,NA,NA,NA,NA,NA,NA,NA,NA,NA,NA,NA,NA,NA,NA,NA,NA,NA,40.381538,-80.052536,15228
NA,Dollar General #8103,NA,75 Noble Ave NA,NA,NA,Crafton,PA,NA,NA,NA,NA,NA,NA,NA,NA,NA,NA,NA,NA,NA,NA,NA,NA,NA,NA,NA,NA,40.433815,-80.066353,15205
NA,Dollar General 2643,NA,500 Pine Hollow Rd. A,NA,NA,McKees Rocks,PA,NA,NA,NA,NA,NA,NA,NA,NA,NA,NA,NA,NA,NA,NA,NA,NA,NA,NA,NA,NA,40.469936,-80.076576,15136
NA,KUHN'S MARKET,NA,745 W. Ingomar Road NA,NA,NA,Ingomar,PA,NA,NA,NA,NA,NA,NA,NA,NA,NA,NA,NA,NA,NA,NA,NA,NA,NA,NA,NA,NA,40.581478,-80.055283,15127
NA,Dollar General 10277,NA,1695 McFarland Rd NA,NA,NA,Pittsburgh,PA,NA,NA,NA,NA,NA,NA,NA,NA,NA,NA,NA,NA,NA,NA,NA,NA,NA,NA,NA,NA,40.395996,-80.046486,15216
NA,RITE AID 1589,NA,6375 Library Rd NA,NA,NA,South Park,PA,NA,NA,NA,NA,NA,NA,NA,NA,NA,NA,NA,NA,NA,NA,NA,NA,NA,NA,NA,NA,40.289986,-80.027809,15129
NA,RITE AID 3571,NA,103 W Allegheny Rd NA,NA,NA,Imperial,PA,NA,NA,NA,NA,NA,NA,NA,NA,NA,NA,NA,NA,NA,NA,NA,NA,NA,NA,NA,NA,40.441845,-80.239136,15126
NA,LA GROCERY WEST INDIAN AMERICAN,NA,511 Larimer Ave NA,NA,NA,Pittsburgh,PA,NA,NA,NA,NA,NA,NA,NA,NA,NA,NA,NA,NA,NA,NA,NA,NA,NA,NA,NA,NA,40.465477,-79.914131,15206
NA,RITE AID 1925,NA,210 9th St NA,NA,NA,Glassport,PA,NA,NA,NA,NA,NA,NA,NA,NA,NA,NA,NA,NA,NA,NA,NA,NA,NA,NA,NA,NA,40.320995,-79.892296,15045
NA,RITE AID 2482,NA,300 Market St NA,NA,NA,Elizabeth,PA,NA,NA,NA,NA,NA,NA,NA,NA,NA,NA,NA,NA,NA,NA,NA,NA,NA,NA,NA,NA,40.272511,-79.88633,15037
NA,DOLLAR TREE 142,NA,1759 S Braddock Ave NA,NA,NA,Pittsburgh,PA,NA,NA,NA,NA,NA,NA,NA,NA,NA,NA,NA,NA,NA,NA,NA,NA,NA,NA,NA,NA,40.424519,-79.887764,15218
NA,DOLLAR TREE 258,NA,12 Federal Dr NA,NA,NA,Pittsburgh,PA,NA,NA,NA,NA,NA,NA,NA,NA,NA,NA,NA,NA,NA,NA,NA,NA,NA,NA,NA,NA,40.464207,-79.82666,15235
NA,Getgo 3128,NA,5381 Library Rd NA,NA,NA,Bethel Park,PA,NA,NA,NA,NA,NA,NA,NA,NA,NA,NA,NA,NA,NA,NA,NA,NA,NA,NA,NA,NA,40.327724,-80.024467,15102
NA,DOLLAR TREE 2103,NA,1030 W View Park Dr NA,NA,NA,Pittsburgh,PA,NA,NA,NA,NA,NA,NA,NA,NA,NA,NA,NA,NA,NA,NA,NA,NA,NA,NA,NA,NA,40.517517,-80.037987,15229
NA,DOLLAR EAGLE DISCOUNTS,NA,1552 Beechview Ave NA,NA,NA,Pittsburgh,PA,NA,NA,NA,NA,NA,NA,NA,NA,NA,NA,NA,NA,NA,NA,NA,NA,NA,NA,NA,NA,40.411846,-80.024895,15216
NA,CVS PHARMACY 7611,NA,4849 William Flynn Hwy NA,NA,NA,Allison Park,PA,NA,NA,NA,NA,NA,NA,NA,NA,NA,NA,NA,NA,NA,NA,NA,NA,NA,NA,NA,NA,40.599445,-79.947502,15101
NA,CVS PHARMACY INC 3999,NA,401 Chestnut St NA,NA,NA,Carnegie,PA,NA,NA,NA,NA,NA,NA,NA,NA,NA,NA,NA,NA,NA,NA,NA,NA,NA,NA,NA,NA,40.41008,-80.082382,15106
NA,CVS PHARMACY INC 4002,NA,70 W Steuben St NA,NA,NA,Pittsburgh,PA,NA,NA,NA,NA,NA,NA,NA,NA,NA,NA,NA,NA,NA,NA,NA,NA,NA,NA,NA,NA,40.438564,-80.07032,15205
NA,WALGREENS 09345,NA,10707 Frankstown Rd NA,NA,NA,Pittsburgh,PA,NA,NA,NA,NA,NA,NA,NA,NA,NA,NA,NA,NA,NA,NA,NA,NA,NA,NA,NA,NA,40.460594,-79.84214,15235
NA,Sheetz 379,NA,9002 University Blvd NA,NA,NA,Moon Township,PA,NA,NA,NA,NA,NA,NA,NA,NA,NA,NA,NA,NA,NA,NA,NA,NA,NA,NA,NA,NA,40.503254,-80.222305,15108
NA,CASTLE SHANNON SHOP N SAVE,NA,799 Castle Shannon Blvd NA,NA,NA,Pittsburgh,PA,NA,NA,NA,NA,NA,NA,NA,NA,NA,NA,NA,NA,NA,NA,NA,NA,NA,NA,NA,NA,40.368637,-80.028931,15234
NA,IMPERIAL SHOP N SAVE,NA,600 Market Place Dr NA,NA,NA,Oakdale,PA,NA,NA,NA,NA,NA,NA,NA,NA,NA,NA,NA,NA,NA,NA,NA,NA,NA,NA,NA,NA,40.440285,-80.239944,15071
NA,Walmart 3838,NA,2010 Village Center Dr NA,NA,NA,Tarentum,PA,NA,NA,NA,NA,NA,NA,NA,NA,NA,NA,NA,NA,NA,NA,NA,NA,NA,NA,NA,NA,40.562939,-79.803284,15084
NA,KUHNS MARKET,NA,4801 McKnight Rd NA,NA,NA,Pittsburgh,PA,NA,NA,NA,NA,NA,NA,NA,NA,NA,NA,NA,NA,NA,NA,NA,NA,NA,NA,NA,NA,40.528229,-80.007042,15237
NA,Kiev International Food,NA,4223 Murray Ave NA,NA,NA,Pittsburgh,PA,NA,NA,NA,NA,NA,NA,NA,NA,NA,NA,NA,NA,NA,NA,NA,NA,NA,NA,NA,NA,40.422482,-79.928818,15217
NA,Century Square Shop N Save,NA,2381 Mountain View Dr NA,NA,NA,West Mifflin,PA,NA,NA,NA,NA,NA,NA,NA,NA,NA,NA,NA,NA,NA,NA,NA,NA,NA,NA,NA,NA,40.346218,-79.943558,15122
NA,Dollar Tree 0203,NA,1155 Washington Pike Ste 49,NA,NA,Bridgeville,PA,NA,NA,NA,NA,NA,NA,NA,NA,NA,NA,NA,NA,NA,NA,NA,NA,NA,NA,NA,NA,40.368584,-80.102608,15017
NA,DOLLAR TREE 1275,NA,110 Walmart Dr NA,NA,NA,N Versailles,PA,NA,NA,NA,NA,NA,NA,NA,NA,NA,NA,NA,NA,NA,NA,NA,NA,NA,NA,NA,NA,40.385948,-79.822449,15137
NA,GLENSHAW SHOP N SAVE,NA,917 Butler St NA,NA,NA,Pittsburgh,PA,NA,NA,NA,NA,NA,NA,NA,NA,NA,NA,NA,NA,NA,NA,NA,NA,NA,NA,NA,NA,40.511703,-79.948013,15223
NA,Sheetz 376,NA,1000 Clairton Blvd NA,NA,NA,Pittsburgh,PA,NA,NA,NA,NA,NA,NA,NA,NA,NA,NA,NA,NA,NA,NA,NA,NA,NA,NA,NA,NA,40.320313,-79.941917,15236
NA,Noblestown Rd. Shop N Save,NA,2103 Noblestown Rd NA,NA,NA,Pittsburgh,PA,NA,NA,NA,NA,NA,NA,NA,NA,NA,NA,NA,NA,NA,NA,NA,NA,NA,NA,NA,NA,40.432098,-80.052467,15205
NA,SALIMS MIDDLE EASTERN FOODS,NA,4705 Centre Ave NA,NA,NA,Pittsburgh,PA,NA,NA,NA,NA,NA,NA,NA,NA,NA,NA,NA,NA,NA,NA,NA,NA,NA,NA,NA,NA,40.452717,-79.949356,15213
NA,TARGET STORES 2077,NA,288 Mt Nebo Pointe Rd NA,NA,NA,Pittsburgh,PA,NA,NA,NA,NA,NA,NA,NA,NA,NA,NA,NA,NA,NA,NA,NA,NA,NA,NA,NA,NA,40.535103,-80.067467,15237
NA,Mish Farms Meat Market Inc.,NA,80 Oak Rd NA,NA,NA,Gibsonia,PA,NA,NA,NA,NA,NA,NA,NA,NA,NA,NA,NA,NA,NA,NA,NA,NA,NA,NA,NA,NA,40.622093,-79.900826,15044
NA,Heidelberg Shop N Save,NA,2100 Washington Pike NA,NA,NA,Carnegie,PA,NA,NA,NA,NA,NA,NA,NA,NA,NA,NA,NA,NA,NA,NA,NA,NA,NA,NA,NA,NA,40.386105,-80.092674,15106
NA,New Youngs Oriental Market,NA,5813 Forward Ave NA,NA,NA,Pittsburgh,PA,NA,NA,NA,NA,NA,NA,NA,NA,NA,NA,NA,NA,NA,NA,NA,NA,NA,NA,NA,NA,40.429745,-79.923035,15217
NA,HAPPY MINI MART,NA,512 E Pittsburgh McKeesport Blvd NA,NA,NA,N Versailles,PA,NA,NA,NA,NA,NA,NA,NA,NA,NA,NA,NA,NA,NA,NA,NA,NA,NA,NA,NA,NA,40.36937,-79.830437,15137
NA,European Mkt and Grill,NA,4140 Saw Mill Run Blvd NA,NA,NA,Pittsburgh,PA,NA,NA,NA,NA,NA,NA,NA,NA,NA,NA,NA,NA,NA,NA,NA,NA,NA,NA,NA,NA,40.366405,-79.984512,15227
NA,Getgo 3106,NA,408 Penn Ave NA,NA,NA,Wilkinsburg,PA,NA,NA,NA,NA,NA,NA,NA,NA,NA,NA,NA,NA,NA,NA,NA,NA,NA,NA,NA,NA,40.44521,-79.889519,15221
NA,CVS PHARMACY INC 4369,NA,4610 Centre Ave NA,NA,NA,Pittsburgh,PA,NA,NA,NA,NA,NA,NA,NA,NA,NA,NA,NA,NA,NA,NA,NA,NA,NA,NA,NA,NA,40.451984,-79.951614,15213
NA,Dollar General 10426,NA,995 Greensburg Pike NA,NA,NA,E Pittsburgh,PA,NA,NA,NA,NA,NA,NA,NA,NA,NA,NA,NA,NA,NA,NA,NA,NA,NA,NA,NA,NA,40.416763,-79.839432,15112
NA,CoGo's 811,NA,314 Scenery Dr NA,NA,NA,Elizabeth,PA,NA,NA,NA,NA,NA,NA,NA,NA,NA,NA,NA,NA,NA,NA,NA,NA,NA,NA,NA,NA,40.277592,-79.837364,15037
NA,CoGo's 820,NA,2880 Brownsville Rd NA,NA,NA,South Park,PA,NA,NA,NA,NA,NA,NA,NA,NA,NA,NA,NA,NA,NA,NA,NA,NA,NA,NA,NA,NA,40.289303,-79.996994,15129
NA,CoGo's 329,NA,1050 Brinton Rd NA,NA,NA,Pittsburgh,PA,NA,NA,NA,NA,NA,NA,NA,NA,NA,NA,NA,NA,NA,NA,NA,NA,NA,NA,NA,NA,40.426346,-79.871681,15221
NA,WALGREENS 09674,NA,133 W 8th Ave NA,NA,NA,Homestead,PA,NA,NA,NA,NA,NA,NA,NA,NA,NA,NA,NA,NA,NA,NA,NA,NA,NA,NA,NA,NA,40.405575,-79.912804,15120
NA,WALGREENS 09281,NA,5956 Penn Cir S Ste 1,NA,NA,Pittsburgh,PA,NA,NA,NA,NA,NA,NA,NA,NA,NA,NA,NA,NA,NA,NA,NA,NA,NA,NA,NA,NA,40.459324,-79.926811,15206
NA,R&M VARIETY STORE,NA,1739 Pennsylvania Ave NA,NA,NA,West Mifflin,PA,NA,NA,NA,NA,NA,NA,NA,NA,NA,NA,NA,NA,NA,NA,NA,NA,NA,NA,NA,NA,40.362057,-79.861015,15122
NA,Walgreens 9675,NA,6201 Saltsburg Rd NA,NA,NA,Pittsburgh,PA,NA,NA,NA,NA,NA,NA,NA,NA,NA,NA,NA,NA,NA,NA,NA,NA,NA,NA,NA,NA,40.48502,-79.817833,15235
NA,DOLLAR TREE 0228,NA,1360 Park Manor Blvd NA,NA,NA,Pittsburgh,PA,NA,NA,NA,NA,NA,NA,NA,NA,NA,NA,NA,NA,NA,NA,NA,NA,NA,NA,NA,NA,40.451958,-80.163704,15205
NA,Olympia Shop N Save,NA,4313 Walnut St NA,NA,NA,McKeesport,PA,NA,NA,NA,NA,NA,NA,NA,NA,NA,NA,NA,NA,NA,NA,NA,NA,NA,NA,NA,NA,40.321171,-79.836456,15132
NA,Aldi 56,NA,2348 Ardmore Blvd NA,NA,NA,Pittsburgh,PA,NA,NA,NA,NA,NA,NA,NA,NA,NA,NA,NA,NA,NA,NA,NA,NA,NA,NA,NA,NA,40.416534,-79.848167,15221
NA,Quick Stop,NA,3349 Liberty Ave NA,NA,NA,Pittsburgh,PA,NA,NA,NA,NA,NA,NA,NA,NA,NA,NA,NA,NA,NA,NA,NA,NA,NA,NA,NA,NA,40.461678,-79.966484,15201
NA,Trader Joe's 638,NA,6343 Penn Ave NA,NA,NA,Pittsburgh,PA,NA,NA,NA,NA,NA,NA,NA,NA,NA,NA,NA,NA,NA,NA,NA,NA,NA,NA,NA,NA,40.458904,-79.919426,15206
NA,Target 2201,NA,4801 McKnight Rd Ste 3,NA,NA,Pittsburgh,PA,NA,NA,NA,NA,NA,NA,NA,NA,NA,NA,NA,NA,NA,NA,NA,NA,NA,NA,NA,NA,40.528229,-80.007042,15237
NA,Gordon Food Service Store LLC,NA,510 Clairton Blvd NA,NA,NA,Pittsburgh,PA,NA,NA,NA,NA,NA,NA,NA,NA,NA,NA,NA,NA,NA,NA,NA,NA,NA,NA,NA,NA,40.333809,-79.946472,15236
NA,Gordon Food Service Store LLC,NA,3620 William Penn Hwy NA,NA,NA,Monroeville,PA,NA,NA,NA,NA,NA,NA,NA,NA,NA,NA,NA,NA,NA,NA,NA,NA,NA,NA,NA,NA,40.432182,-79.801254,15146
NA,RITE AID 3412,NA,1800 Morningside Ave NA,NA,NA,Pittsburgh,PA,NA,NA,NA,NA,NA,NA,NA,NA,NA,NA,NA,NA,NA,NA,NA,NA,NA,NA,NA,NA,40.486668,-79.926949,15206
NA,Wilkinsburg Save A Lot,NA,725 Ross Ave NA,NA,NA,Wilkinsburg,PA,NA,NA,NA,NA,NA,NA,NA,NA,NA,NA,NA,NA,NA,NA,NA,NA,NA,NA,NA,NA,40.442696,-79.88443,15221
NA,WALGREENS 09803,NA,324 Hulton Rd NA,NA,NA,Oakmont,PA,NA,NA,NA,NA,NA,NA,NA,NA,NA,NA,NA,NA,NA,NA,NA,NA,NA,NA,NA,NA,40.525734,-79.841568,15139
NA,South Park Sunoco,NA,5660 Brownsville Rd NA,NA,NA,Pittsburgh,PA,NA,NA,NA,NA,NA,NA,NA,NA,NA,NA,NA,NA,NA,NA,NA,NA,NA,NA,NA,NA,40.330959,-79.987129,15236
NA,Dollar General 10875,NA,5032 William Penn Hwy NA,NA,NA,Monroeville,PA,NA,NA,NA,NA,NA,NA,NA,NA,NA,NA,NA,NA,NA,NA,NA,NA,NA,NA,NA,NA,40.428741,-79.707176,15146
NA,North Versailles Save A Lot,NA,355 Lincoln Hwy NA,NA,NA,N Versailles,PA,NA,NA,NA,NA,NA,NA,NA,NA,NA,NA,NA,NA,NA,NA,NA,NA,NA,NA,NA,NA,40.381916,-79.818733,15137
NA,CoGo's 1808,NA,1001 Brookline Blvd NA,NA,NA,Pittsburgh,PA,NA,NA,NA,NA,NA,NA,NA,NA,NA,NA,NA,NA,NA,NA,NA,NA,NA,NA,NA,NA,40.392017,-80.01741,15226
NA,Sunoco - A Plus 7501 7501,NA,30 Center St NA,NA,NA,East Pittsburgh,PA,NA,NA,NA,NA,NA,NA,NA,NA,NA,NA,NA,NA,NA,NA,NA,NA,NA,NA,NA,NA,40.396324,-79.846573,15112
NA,Giant Eagle 5103,NA,2611 Freeport Rd NA,NA,NA,Pittsburgh,PA,NA,NA,NA,NA,NA,NA,NA,NA,NA,NA,NA,NA,NA,NA,NA,NA,NA,NA,NA,NA,40.537529,-79.836693,15238
NA,Rite Aid 4419,NA,1529 Freeport Rd NA,NA,NA,Natrona Heights,PA,NA,NA,NA,NA,NA,NA,NA,NA,NA,NA,NA,NA,NA,NA,NA,NA,NA,NA,NA,NA,40.62067,-79.729126,15065
NA,A & E Deli,NA,105 Brownsville Rd NA,NA,NA,Pittsburgh,PA,NA,NA,NA,NA,NA,NA,NA,NA,NA,NA,NA,NA,NA,NA,NA,NA,NA,NA,NA,NA,40.417347,-79.986526,15210
NA,Strip District Meats,NA,2121 Penn Ave NA,NA,NA,Pittsburgh,PA,NA,NA,NA,NA,NA,NA,NA,NA,NA,NA,NA,NA,NA,NA,NA,NA,NA,NA,NA,NA,40.452065,-79.98262,15222
NA,Ednas Market & Deli,NA,529 Mount Pleasant Rd NA,NA,NA,Pittsburgh,PA,NA,NA,NA,NA,NA,NA,NA,NA,NA,NA,NA,NA,NA,NA,NA,NA,NA,NA,NA,NA,40.47776,-80.000168,15214
NA,Target Stores 2262,NA,550 Grandview Crossing Dr NA,NA,NA,Gibsonia,PA,NA,NA,NA,NA,NA,NA,NA,NA,NA,NA,NA,NA,NA,NA,NA,NA,NA,NA,NA,NA,40.641586,-79.939644,15044
NA,Stanton Negley Drug Company,NA,804 N Negley Ave NA,NA,NA,Pittsburgh,PA,NA,NA,NA,NA,NA,NA,NA,NA,NA,NA,NA,NA,NA,NA,NA,NA,NA,NA,NA,NA,40.471687,-79.926163,15206
NA,Broadway Dairy Mart,NA,412 Broadway Ave NA,NA,NA,McKees Rocks,PA,NA,NA,NA,NA,NA,NA,NA,NA,NA,NA,NA,NA,NA,NA,NA,NA,NA,NA,NA,NA,40.469074,-80.068832,15136
NA,GetGo 3172,NA,1081 Freeport Rd NA,NA,NA,Pittsburgh,PA,NA,NA,NA,NA,NA,NA,NA,NA,NA,NA,NA,NA,NA,NA,NA,NA,NA,NA,NA,NA,40.487457,-79.883537,15238
NA,GetGo 3691,NA,4099 Grandview Dr NA,NA,NA,Gibsonia,PA,NA,NA,NA,NA,NA,NA,NA,NA,NA,NA,NA,NA,NA,NA,NA,NA,NA,NA,NA,NA,40.642238999999996,-79.937866,15044
NA,Walgreens 09043,NA,1701 William Flynn Hwy NA,NA,NA,Glenshaw,PA,NA,NA,NA,NA,NA,NA,NA,NA,NA,NA,NA,NA,NA,NA,NA,NA,NA,NA,NA,NA,40.538826,-79.962555,15116
NA,Rite Aid 7924,NA,2270 Noblestown Rd NA,NA,NA,Pittsburgh,PA,NA,NA,NA,NA,NA,NA,NA,NA,NA,NA,NA,NA,NA,NA,NA,NA,NA,NA,NA,NA,40.428047,-80.053696,15205
NA,Penn Aiken Dairy,NA,5401 Penn Ave NA,NA,NA,Pittsburgh,PA,NA,NA,NA,NA,NA,NA,NA,NA,NA,NA,NA,NA,NA,NA,NA,NA,NA,NA,NA,NA,40.464718,-79.936203,15206
NA,Blue Eagle Market,NA,726 Broadway Ave NA,NA,NA,MC Kees Rocks,PA,NA,NA,NA,NA,NA,NA,NA,NA,NA,NA,NA,NA,NA,NA,NA,NA,NA,NA,NA,NA,40.472816,-80.074203,15136
NA,Walgreens 09736,NA,4885 McKnight Rd Ste 7,NA,NA,Pittsburgh,PA,NA,NA,NA,NA,NA,NA,NA,NA,NA,NA,NA,NA,NA,NA,NA,NA,NA,NA,NA,NA,40.529381,-80.008751,15237
NA,Walgreens 10282,NA,30 Pine Creek Rd NA,NA,NA,Wexford,PA,NA,NA,NA,NA,NA,NA,NA,NA,NA,NA,NA,NA,NA,NA,NA,NA,NA,NA,NA,NA,40.586784,-80.043983,15090
NA,Gordon Food Service Store LLC MP 136,NA,1 Urbano Way NA,NA,NA,Pittsburgh,PA,NA,NA,NA,NA,NA,NA,NA,NA,NA,NA,NA,NA,NA,NA,NA,NA,NA,NA,NA,NA,40.457901,-80.166237,15205
NA,Aldi 69,NA,8000 McKnight Rd NA,NA,NA,Pittsburgh,PA,NA,NA,NA,NA,NA,NA,NA,NA,NA,NA,NA,NA,NA,NA,NA,NA,NA,NA,NA,NA,40.550568,-80.01918,15237
NA,In & Out Corner Market,NA,300 Helen St NA,NA,NA,MC Kees Rocks,PA,NA,NA,NA,NA,NA,NA,NA,NA,NA,NA,NA,NA,NA,NA,NA,NA,NA,NA,NA,NA,40.473999,-80.057259,15136
NA,GIBSONIA GIANT EAGLE,NA,400 Northtowne Sq NA,NA,NA,Gibsonia,PA,NA,NA,NA,NA,NA,NA,NA,NA,NA,NA,NA,NA,NA,NA,NA,NA,NA,NA,NA,NA,40.635731,-79.941368,15044
NA,Walmart 3738,NA,100 Highlands Mall NA,NA,NA,Natrona Heights,PA,NA,NA,NA,NA,NA,NA,NA,NA,NA,NA,NA,NA,NA,NA,NA,NA,NA,NA,NA,NA,40.646206,-79.712196,15065
NA,Unimart,NA,748 Brownsville Rd NA,NA,NA,Pittsburgh,PA,NA,NA,NA,NA,NA,NA,NA,NA,NA,NA,NA,NA,NA,NA,NA,NA,NA,NA,NA,NA,40.408554,-79.991226,15210
NA,Target Stores 2385,NA,2661 Freeport Rd NA,NA,NA,Pittsburgh,PA,NA,NA,NA,NA,NA,NA,NA,NA,NA,NA,NA,NA,NA,NA,NA,NA,NA,NA,NA,NA,40.537399,-79.837234,15238
NA,Dollar Tree 236,NA,240 Mount Nebo Pointe Rd NA,NA,NA,Pittsburgh,PA,NA,NA,NA,NA,NA,NA,NA,NA,NA,NA,NA,NA,NA,NA,NA,NA,NA,NA,NA,NA,40.535011,-80.064651,15237
NA,Dollar Tree 1831,NA,400 Walmart Dr # B1,NA,NA,Gibsonia,PA,NA,NA,NA,NA,NA,NA,NA,NA,NA,NA,NA,NA,NA,NA,NA,NA,NA,NA,NA,NA,40.62225,-79.944115,15044
NA,Kuhn s Market,NA,700 Beulah Rd NA,NA,NA,Turtle Creek,PA,NA,NA,NA,NA,NA,NA,NA,NA,NA,NA,NA,NA,NA,NA,NA,NA,NA,NA,NA,NA,40.426727,-79.835388,15145
NA,Dollar Tree 218,NA,1099 Mountain View Dr NA,NA,NA,West Mifflin,PA,NA,NA,NA,NA,NA,NA,NA,NA,NA,NA,NA,NA,NA,NA,NA,NA,NA,NA,NA,NA,40.3461,-79.946579,15122
NA,Dollar Tree 3810,NA,28 Highlands Mall NA,NA,NA,Natrona Heights,PA,NA,NA,NA,NA,NA,NA,NA,NA,NA,NA,NA,NA,NA,NA,NA,NA,NA,NA,NA,NA,40.646248,-79.71022,15065
NA,Walgreens 10917,NA,6906 University Blvd NA,NA,NA,Coraopolis,PA,NA,NA,NA,NA,NA,NA,NA,NA,NA,NA,NA,NA,NA,NA,NA,NA,NA,NA,NA,NA,40.517277,-80.220886,15108
NA,New Big Toms Corner Store,NA,1300 Woodland Ave NA,NA,NA,Pittsburgh,PA,NA,NA,NA,NA,NA,NA,NA,NA,NA,NA,NA,NA,NA,NA,NA,NA,NA,NA,NA,NA,40.469124,-80.030113,15212
NA,BP Food Mart,NA,231 5th Ave NA,NA,NA,McKeesport,PA,NA,NA,NA,NA,NA,NA,NA,NA,NA,NA,NA,NA,NA,NA,NA,NA,NA,NA,NA,NA,40.350956,-79.865456,15132
NA,Dollar Tree 4019,NA,100 Allegheny River Blvd NA,NA,NA,Verona,PA,NA,NA,NA,NA,NA,NA,NA,NA,NA,NA,NA,NA,NA,NA,NA,NA,NA,NA,NA,NA,40.50045,-79.843262,15147
NA,Bailie Food Mart,NA,2316 Bailey Ave NA,NA,NA,McKeesport,PA,NA,NA,NA,NA,NA,NA,NA,NA,NA,NA,NA,NA,NA,NA,NA,NA,NA,NA,NA,NA,40.341465,-79.849228,15132
NA,Walgreens 09950,NA,2055 Washington Pke NA,NA,NA,Carnegie,PA,NA,NA,NA,NA,NA,NA,NA,NA,NA,NA,NA,NA,NA,NA,NA,NA,NA,NA,NA,NA,40.387852,-80.090454,15106
NA,Kolos International Food Store,NA,114 E Main St NA,NA,NA,Carnegie,PA,NA,NA,NA,NA,NA,NA,NA,NA,NA,NA,NA,NA,NA,NA,NA,NA,NA,NA,NA,NA,40.407578,-80.086418,15106
NA,Sunoco 7485,NA,4779 Liberty Ave NA,NA,NA,Pittsburgh,PA,NA,NA,NA,NA,NA,NA,NA,NA,NA,NA,NA,NA,NA,NA,NA,NA,NA,NA,NA,NA,40.460827,-79.947472,15224
NA,Sunoco 7508,NA,1001 Washington Pike NA,NA,NA,Bridgeville,PA,NA,NA,NA,NA,NA,NA,NA,NA,NA,NA,NA,NA,NA,NA,NA,NA,NA,NA,NA,NA,40.366184,-80.106964,15017
NA,Sunoco 7517,NA,3299 Saw Mill Run Blvd NA,NA,NA,Pittsburgh,PA,NA,NA,NA,NA,NA,NA,NA,NA,NA,NA,NA,NA,NA,NA,NA,NA,NA,NA,NA,NA,40.375759,-79.983582,15227
NA,Fa s Market,NA,623 Jones Ave NA,NA,NA,Braddock,PA,NA,NA,NA,NA,NA,NA,NA,NA,NA,NA,NA,NA,NA,NA,NA,NA,NA,NA,NA,NA,40.403996,-79.862175,15104
NA,Sam's Club 4952,NA,2000 Village Center Dr NA,NA,NA,Tarentum,PA,NA,NA,NA,NA,NA,NA,NA,NA,NA,NA,NA,NA,NA,NA,NA,NA,NA,NA,NA,NA,40.566074,-79.802132,15084
NA,Sam's Club 6575,NA,249 Summit Park Dr NA,NA,NA,Pittsburgh,PA,NA,NA,NA,NA,NA,NA,NA,NA,NA,NA,NA,NA,NA,NA,NA,NA,NA,NA,NA,NA,40.448364,-80.177429,15275
NA,Sam's Club 6677,NA,3621 William Penn Hwy NA,NA,NA,Monroeville,PA,NA,NA,NA,NA,NA,NA,NA,NA,NA,NA,NA,NA,NA,NA,NA,NA,NA,NA,NA,NA,40.432884,-79.799576,15146
NA,Sam's Club 6678,NA,289 Nebo Point Dr NA,NA,NA,Pittsburgh,PA,NA,NA,NA,NA,NA,NA,NA,NA,NA,NA,NA,NA,NA,NA,NA,NA,NA,NA,NA,NA,40.535046,-80.067459,15237
NA,Sam's Club 6679,NA,2251 Century Dr NA,NA,NA,West Mifflin,PA,NA,NA,NA,NA,NA,NA,NA,NA,NA,NA,NA,NA,NA,NA,NA,NA,NA,NA,NA,NA,40.344086,-79.94738,15122
NA,Giant Eagle 43,NA,155 Towne Centre Dr NA,NA,NA,Wexford,PA,NA,NA,NA,NA,NA,NA,NA,NA,NA,NA,NA,NA,NA,NA,NA,NA,NA,NA,NA,NA,40.631577,-80.05455,15090
NA,Walgreens 10345,NA,7628 Penn Ave NA,NA,NA,Pittsburgh,PA,NA,NA,NA,NA,NA,NA,NA,NA,NA,NA,NA,NA,NA,NA,NA,NA,NA,NA,NA,NA,40.447014,-79.894867,15221
NA,Trail View,NA,209 Industry Rd NA,NA,NA,Buena Vista,PA,NA,NA,NA,NA,NA,NA,NA,NA,NA,NA,NA,NA,NA,NA,NA,NA,NA,NA,NA,NA,40.272404,-79.79776,15018
NA,Aldi 73,NA,114 McKees Rocks Plz NA,NA,NA,MC Kees Rocks,PA,NA,NA,NA,NA,NA,NA,NA,NA,NA,NA,NA,NA,NA,NA,NA,NA,NA,NA,NA,NA,40.464664,-80.057556,15136
NA,Market Outlet,NA,1809 Penn Ave NA,NA,NA,Pittsburgh,PA,NA,NA,NA,NA,NA,NA,NA,NA,NA,NA,NA,NA,NA,NA,NA,NA,NA,NA,NA,NA,40.450592,-79.984711,15222
NA,Dollar General 11536,NA,620 7th St NA,NA,NA,Clairton,PA,NA,NA,NA,NA,NA,NA,NA,NA,NA,NA,NA,NA,NA,NA,NA,NA,NA,NA,NA,NA,40.293056,-79.888832,15025
NA,Dollar Tree 4084,NA,1712 Mount Royal Blvd NA,NA,NA,Glenshaw,PA,NA,NA,NA,NA,NA,NA,NA,NA,NA,NA,NA,NA,NA,NA,NA,NA,NA,NA,NA,NA,40.524982,-79.962189,15116
NA,Family Dollar 1982,NA,6320 Shakespeare St NA,NA,NA,Pittsburgh,PA,NA,NA,NA,NA,NA,NA,NA,NA,NA,NA,NA,NA,NA,NA,NA,NA,NA,NA,NA,NA,40.459026,-79.920929,15206
NA,Family Dollar 2467,NA,1868 Homeville Rd NA,NA,NA,West Mifflin,PA,NA,NA,NA,NA,NA,NA,NA,NA,NA,NA,NA,NA,NA,NA,NA,NA,NA,NA,NA,NA,40.393948,-79.88868,15122
NA,Frankstown Shell,NA,6701 Frankstown Ave NA,NA,NA,Pittsburgh,PA,NA,NA,NA,NA,NA,NA,NA,NA,NA,NA,NA,NA,NA,NA,NA,NA,NA,NA,NA,NA,40.458607,-79.907608,15208
NA,Walgreens 09187,NA,1741 Washington Rd NA,NA,NA,Pittsburgh,PA,NA,NA,NA,NA,NA,NA,NA,NA,NA,NA,NA,NA,NA,NA,NA,NA,NA,NA,NA,NA,40.347286,-80.05442,15241
NA,Walgreens 09188,NA,4 Old Clairton Rd NA,NA,NA,Pittsburgh,PA,NA,NA,NA,NA,NA,NA,NA,NA,NA,NA,NA,NA,NA,NA,NA,NA,NA,NA,NA,NA,40.340656,-79.964645,15236
NA,Homestead Food Mart,NA,238 E 8th Ave NA,NA,NA,Homestead,PA,NA,NA,NA,NA,NA,NA,NA,NA,NA,NA,NA,NA,NA,NA,NA,NA,NA,NA,NA,NA,40.407314,-79.910217,15120
NA,7-Eleven 188,NA,321 Camp Hollow Rd NA,NA,NA,West Mifflin,PA,NA,NA,NA,NA,NA,NA,NA,NA,NA,NA,NA,NA,NA,NA,NA,NA,NA,NA,NA,NA,40.349525,-79.92704,15122
NA,Target Stores 1270,NA,1717 Lebanon Church Rd NA,NA,NA,Pittsburgh,PA,NA,NA,NA,NA,NA,NA,NA,NA,NA,NA,NA,NA,NA,NA,NA,NA,NA,NA,NA,NA,40.34779,-79.95163,15236
NA,Family Dollar 4675,NA,27 Duquesne Blvd NA,NA,NA,Duquesne,PA,NA,NA,NA,NA,NA,NA,NA,NA,NA,NA,NA,NA,NA,NA,NA,NA,NA,NA,NA,NA,40.373367,-79.84465,15110
NA,Family Dollar 4774,NA,533 Miller Ave NA,NA,NA,Clairton,PA,NA,NA,NA,NA,NA,NA,NA,NA,NA,NA,NA,NA,NA,NA,NA,NA,NA,NA,NA,NA,40.293968,-79.883018,15025
NA,Family Dollar 4962,NA,1768 Golden Mile Hwy NA,NA,NA,Monroeville,PA,NA,NA,NA,NA,NA,NA,NA,NA,NA,NA,NA,NA,NA,NA,NA,NA,NA,NA,NA,NA,40.443695,-79.713478,15146
NA,Family Dollar 5224,NA,340 Curry Hollow Rd A,NA,NA,Pittsburgh,PA,NA,NA,NA,NA,NA,NA,NA,NA,NA,NA,NA,NA,NA,NA,NA,NA,NA,NA,NA,NA,40.335934,-79.974571,15236
NA,Family Dollar 5250,NA,2020 Wharton St NA,NA,NA,Pittsburgh,PA,NA,NA,NA,NA,NA,NA,NA,NA,NA,NA,NA,NA,NA,NA,NA,NA,NA,NA,NA,NA,40.430344,-79.977142,15203
NA,Family Dollar 5275,NA,450 56th St B,NA,NA,Pittsburgh,PA,NA,NA,NA,NA,NA,NA,NA,NA,NA,NA,NA,NA,NA,NA,NA,NA,NA,NA,NA,NA,40.483925,-79.947632,15201
NA,Family Dollar 5518,NA,607 Lincoln Ave NA,NA,NA,East Liberty,PA,NA,NA,NA,NA,NA,NA,NA,NA,NA,NA,NA,NA,NA,NA,NA,NA,NA,NA,NA,NA,40.461727,-79.907661,15206
NA,Family Dollar 5940,NA,715 E 8th Ave NA,NA,NA,Homestead,PA,NA,NA,NA,NA,NA,NA,NA,NA,NA,NA,NA,NA,NA,NA,NA,NA,NA,NA,NA,NA,40.409252,-79.90081,15120
NA,Family Dollar 7104,NA,2020 Spring Garden Ave NA,NA,NA,Pittsburgh,PA,NA,NA,NA,NA,NA,NA,NA,NA,NA,NA,NA,NA,NA,NA,NA,NA,NA,NA,NA,NA,40.469975,-79.98597,15212
NA,Family Dollar 7199,NA,1917 Centre Ave NA,NA,NA,Pittsburgh,PA,NA,NA,NA,NA,NA,NA,NA,NA,NA,NA,NA,NA,NA,NA,NA,NA,NA,NA,NA,NA,40.443523,-79.980499,15219
NA,Family Dollar 775,NA,152 McKees Rocks Plz NA,NA,NA,MC Kees Rocks,PA,NA,NA,NA,NA,NA,NA,NA,NA,NA,NA,NA,NA,NA,NA,NA,NA,NA,NA,NA,NA,40.464981,-80.056587,15136
NA,Family Dollar 7618,NA,1201 Foster Ave NA,NA,NA,Pittsburgh,PA,NA,NA,NA,NA,NA,NA,NA,NA,NA,NA,NA,NA,NA,NA,NA,NA,NA,NA,NA,NA,40.440334,-80.068893,15205
NA,Family Dollar 824,NA,1500 Yost Blvd NA,NA,NA,Pittsburgh,PA,NA,NA,NA,NA,NA,NA,NA,NA,NA,NA,NA,NA,NA,NA,NA,NA,NA,NA,NA,NA,40.409634,-79.856102,15221
NA,Family Dollar 1631,NA,130 Lysle Blvd NA,NA,NA,McKeesport,PA,NA,NA,NA,NA,NA,NA,NA,NA,NA,NA,NA,NA,NA,NA,NA,NA,NA,NA,NA,NA,40.351147,-79.867661,15132
NA,Family Dollar 1769,NA,355 Lincoln Hwy Ste 8,NA,NA,North Versailles,PA,NA,NA,NA,NA,NA,NA,NA,NA,NA,NA,NA,NA,NA,NA,NA,NA,NA,NA,NA,NA,40.381916,-79.818733,15137
NA,Family Dollar 2116,NA,240 Hays Ave NA,NA,NA,Pittsburgh,PA,NA,NA,NA,NA,NA,NA,NA,NA,NA,NA,NA,NA,NA,NA,NA,NA,NA,NA,NA,NA,40.414268,-79.987778,15210
NA,Family Dollar 2396,NA,909 Main St NA,NA,NA,Sharpsburg,PA,NA,NA,NA,NA,NA,NA,NA,NA,NA,NA,NA,NA,NA,NA,NA,NA,NA,NA,NA,NA,40.494541,-79.933266,15215
NA,Family Dollar 3182,NA,123 Lincoln Ave NA,NA,NA,Millvale,PA,NA,NA,NA,NA,NA,NA,NA,NA,NA,NA,NA,NA,NA,NA,NA,NA,NA,NA,NA,NA,40.478672,-79.968918,15209
NA,Family Dollar 3340,NA,14 Creighton Russellton Rd NA,NA,NA,Russellton,PA,NA,NA,NA,NA,NA,NA,NA,NA,NA,NA,NA,NA,NA,NA,NA,NA,NA,NA,NA,NA,40.617245,-79.832809,15076
NA,Family Dollar 3675,NA,7627 Penn Ave NA,NA,NA,Wilkinsburg,PA,NA,NA,NA,NA,NA,NA,NA,NA,NA,NA,NA,NA,NA,NA,NA,NA,NA,NA,NA,NA,40.446781,-79.893982,15221
NA,Family Dollar 4708,NA,300 Broadway St NA,NA,NA,Carnegie,PA,NA,NA,NA,NA,NA,NA,NA,NA,NA,NA,NA,NA,NA,NA,NA,NA,NA,NA,NA,NA,40.408497,-80.085793,15106
NA,Family Dollar 6137,NA,5160 Penn Ave NA,NA,NA,Pittsburgh,PA,NA,NA,NA,NA,NA,NA,NA,NA,NA,NA,NA,NA,NA,NA,NA,NA,NA,NA,NA,NA,40.464664,-79.940575,15224
NA,Family Dollar 6347,NA,401 6th St NA,NA,NA,Braddock,PA,NA,NA,NA,NA,NA,NA,NA,NA,NA,NA,NA,NA,NA,NA,NA,NA,NA,NA,NA,NA,40.403336,-79.868629,15104
NA,Family Dollar 6554,NA,2347 5th Ave NA,NA,NA,McKeesport,PA,NA,NA,NA,NA,NA,NA,NA,NA,NA,NA,NA,NA,NA,NA,NA,NA,NA,NA,NA,NA,40.354141,-79.836624,15132
NA,Family Dollar 6598,NA,9010 Frankstown Rd NA,NA,NA,Pittsburgh,PA,NA,NA,NA,NA,NA,NA,NA,NA,NA,NA,NA,NA,NA,NA,NA,NA,NA,NA,NA,NA,40.461075,-79.866173,15235
NA,Family Dollar 7123,NA,3107 Liberty Way NA,NA,NA,McKeesport,PA,NA,NA,NA,NA,NA,NA,NA,NA,NA,NA,NA,NA,NA,NA,NA,NA,NA,NA,NA,NA,40.324242,-79.856895,15133
NA,Schwartz Supermarket Store,NA,3235 Brighton Rd NA,NA,NA,Pittsburgh,PA,NA,NA,NA,NA,NA,NA,NA,NA,NA,NA,NA,NA,NA,NA,NA,NA,NA,NA,NA,NA,40.476128,-80.031624,15212
NA,Eden's Market,NA,99 Alfred St NA,NA,NA,Pittsburgh,PA,NA,NA,NA,NA,NA,NA,NA,NA,NA,NA,NA,NA,NA,NA,NA,NA,NA,NA,NA,NA,40.380306,-80.043053,15228
NA,J & S Food Mart,NA,625 W Grant Ave NA,NA,NA,Duquesne,PA,NA,NA,NA,NA,NA,NA,NA,NA,NA,NA,NA,NA,NA,NA,NA,NA,NA,NA,NA,NA,40.372013,-79.85157,15110
NA,GetGo 3489,NA,2401 Ferguson Rd NA,NA,NA,Allison Park,PA,NA,NA,NA,NA,NA,NA,NA,NA,NA,NA,NA,NA,NA,NA,NA,NA,NA,NA,NA,NA,40.555573,-79.971672,15101
NA,CVS Pharmacy 258,NA,5703 Steubenville Pike NA,NA,NA,MC Kees Rocks,PA,NA,NA,NA,NA,NA,NA,NA,NA,NA,NA,NA,NA,NA,NA,NA,NA,NA,NA,NA,NA,40.452034,-80.133972,15136
NA,Dollar Tree 618,NA,5253 Library Rd NA,NA,NA,Bethel Park,PA,NA,NA,NA,NA,NA,NA,NA,NA,NA,NA,NA,NA,NA,NA,NA,NA,NA,NA,NA,NA,40.331806,-80.02282,15102
NA,Rite Aid 10919,NA,4534 Broadway Blvd NA,NA,NA,Monroeville,PA,NA,NA,NA,NA,NA,NA,NA,NA,NA,NA,NA,NA,NA,NA,NA,NA,NA,NA,NA,NA,40.390221,-79.766037,15146
NA,Giant Eagle 47,NA,100 Settlers Ridge Center Dr NA,NA,NA,Pittsburgh,PA,NA,NA,NA,NA,NA,NA,NA,NA,NA,NA,NA,NA,NA,NA,NA,NA,NA,NA,NA,NA,40.441887,-80.152657,15205
NA,Dollar Tree 1012,NA,324 Towne Square Way NA,NA,NA,Brentwood,PA,NA,NA,NA,NA,NA,NA,NA,NA,NA,NA,NA,NA,NA,NA,NA,NA,NA,NA,NA,NA,40.367634,-79.982201,15227
NA,Dollar Tree 4222,NA,1020 Village Center Dr NA,NA,NA,Tarentum,PA,NA,NA,NA,NA,NA,NA,NA,NA,NA,NA,NA,NA,NA,NA,NA,NA,NA,NA,NA,NA,40.568443,-79.80262,15084
NA,Sunoco 6968,NA,600 Rodi Rd NA,NA,NA,Pittsburgh,PA,NA,NA,NA,NA,NA,NA,NA,NA,NA,NA,NA,NA,NA,NA,NA,NA,NA,NA,NA,NA,40.449108,-79.827255,15235
NA,Sunoco 7139,NA,1020 Mount Royal Blvd NA,NA,NA,Pittsburgh,PA,NA,NA,NA,NA,NA,NA,NA,NA,NA,NA,NA,NA,NA,NA,NA,NA,NA,NA,NA,NA,40.516953,-79.958954,15223
NA,Sunoco 7144,NA,195 N Craig St NA,NA,NA,Pittsburgh,PA,NA,NA,NA,NA,NA,NA,NA,NA,NA,NA,NA,NA,NA,NA,NA,NA,NA,NA,NA,NA,40.449574,-79.950645,15213
NA,Costco Wholesale 0332,NA,202 Costco Dr NA,NA,NA,Pittsburgh,PA,NA,NA,NA,NA,NA,NA,NA,NA,NA,NA,NA,NA,NA,NA,NA,NA,NA,NA,NA,NA,40.458073,-80.166626,15205
NA,Costco Wholesale 0649,NA,501 Waterfront Dr W NA,NA,NA,West Homestead,PA,NA,NA,NA,NA,NA,NA,NA,NA,NA,NA,NA,NA,NA,NA,NA,NA,NA,NA,NA,NA,40.403896,-79.920181,15120
NA,7-Elelven 165,NA,601 Penn Ave NA,NA,NA,Pittsburgh,PA,NA,NA,NA,NA,NA,NA,NA,NA,NA,NA,NA,NA,NA,NA,NA,NA,NA,NA,NA,NA,40.442791,-80.002144,15222
NA,TSP 224,NA,4010 Penn Ave NA,NA,NA,Pittsburgh,PA,NA,NA,NA,NA,NA,NA,NA,NA,NA,NA,NA,NA,NA,NA,NA,NA,NA,NA,NA,NA,40.465183,-79.957565,15224
NA,TSP 223,NA,6680 Frankstown Ave NA,NA,NA,Pittsburgh,PA,NA,NA,NA,NA,NA,NA,NA,NA,NA,NA,NA,NA,NA,NA,NA,NA,NA,NA,NA,NA,40.458702,-79.90831,15206
NA,TSP 219,NA,3500 Forbes Ave NA,NA,NA,Pittsburgh,PA,NA,NA,NA,NA,NA,NA,NA,NA,NA,NA,NA,NA,NA,NA,NA,NA,NA,NA,NA,NA,40.439941,-79.959129,15213
NA,TSP 221,NA,100 E 7th Ave NA,NA,NA,Tarentum,PA,NA,NA,NA,NA,NA,NA,NA,NA,NA,NA,NA,NA,NA,NA,NA,NA,NA,NA,NA,NA,40.601936,-79.756981,15084
NA,Rite Aid 11916,NA,4770 McKnight Rd Ste A,NA,NA,Pittsburgh,PA,NA,NA,NA,NA,NA,NA,NA,NA,NA,NA,NA,NA,NA,NA,NA,NA,NA,NA,NA,NA,40.523308,-80.005333,15237
NA,Turtle Creek Isaly's Diner,NA,107 Penn Plz NA,NA,NA,Turtle Creek,PA,NA,NA,NA,NA,NA,NA,NA,NA,NA,NA,NA,NA,NA,NA,NA,NA,NA,NA,NA,NA,40.405674,-79.826363,15145
NA,Uni Mart,NA,298 Knoedler Rd NA,NA,NA,Pittsburgh,PA,NA,NA,NA,NA,NA,NA,NA,NA,NA,NA,NA,NA,NA,NA,NA,NA,NA,NA,NA,NA,40.342033,-79.981583,15236
NA,Uni Mart,NA,1601 Lowrie St NA,NA,NA,Pittsburgh,PA,NA,NA,NA,NA,NA,NA,NA,NA,NA,NA,NA,NA,NA,NA,NA,NA,NA,NA,NA,NA,40.462803,-79.983238,15212
NA,Verona Shell,NA,4901 Allegheny River Blvd NA,NA,NA,Verona,PA,NA,NA,NA,NA,NA,NA,NA,NA,NA,NA,NA,NA,NA,NA,NA,NA,NA,NA,NA,NA,40.485207,-79.856926,15147
NA,Dollar Tree 4287,NA,47 Walsh Rd NA,NA,NA,Pittsburgh,PA,NA,NA,NA,NA,NA,NA,NA,NA,NA,NA,NA,NA,NA,NA,NA,NA,NA,NA,NA,NA,40.439602,-80.07106,15205
NA,Las Palmas,NA,700 Brookline Blvd NA,NA,NA,Pittsburgh,PA,NA,NA,NA,NA,NA,NA,NA,NA,NA,NA,NA,NA,NA,NA,NA,NA,NA,NA,NA,NA,40.394806,-80.021523,15226
NA,Rite Aid 07825,NA,201 Devine Dr NA,NA,NA,Wexford,PA,NA,NA,NA,NA,NA,NA,NA,NA,NA,NA,NA,NA,NA,NA,NA,NA,NA,NA,NA,NA,40.617828,-80.090355,15090
NA,Rite Aid 07832,NA,4155 Ewalt Rd NA,NA,NA,Gibsonia,PA,NA,NA,NA,NA,NA,NA,NA,NA,NA,NA,NA,NA,NA,NA,NA,NA,NA,NA,NA,NA,40.625927,-79.942825,15044
NA,Rite Aid 07843,NA,3700 Walnut St NA,NA,NA,McKeesport,PA,NA,NA,NA,NA,NA,NA,NA,NA,NA,NA,NA,NA,NA,NA,NA,NA,NA,NA,NA,NA,40.326763,-79.83992,15132
NA,Rite Aid 10904,NA,4960 William Flynn Hwy Ste 10 NA,NA,NA,Allison Park,PA,NA,NA,NA,NA,NA,NA,NA,NA,NA,NA,NA,NA,NA,NA,NA,NA,NA,NA,NA,NA,40.603886,-79.947044,15101
NA,Rite Aid 10905,NA,1701 Duncan Ave NA,NA,NA,Allison Park,PA,NA,NA,NA,NA,NA,NA,NA,NA,NA,NA,NA,NA,NA,NA,NA,NA,NA,NA,NA,NA,40.566422,-79.998596,15101
NA,Rite Aid 10906,NA,5235 Library Rd NA,NA,NA,Bethel Park,PA,NA,NA,NA,NA,NA,NA,NA,NA,NA,NA,NA,NA,NA,NA,NA,NA,NA,NA,NA,NA,40.333031,-80.023766,15102
NA,Rite Aid 10908,NA,5990 University Blvd Ste 30,NA,NA,Coraopolis,PA,NA,NA,NA,NA,NA,NA,NA,NA,NA,NA,NA,NA,NA,NA,NA,NA,NA,NA,NA,NA,40.519936,-80.217804,15108
NA,Rite Aid 10911,NA,2001 Lincoln Way NA,NA,NA,White Oak,PA,NA,NA,NA,NA,NA,NA,NA,NA,NA,NA,NA,NA,NA,NA,NA,NA,NA,NA,NA,NA,40.337482,-79.808701,15131
NA,Rite Aid 10915,NA,109 Allegheny River Blvd NA,NA,NA,Oakmont,PA,NA,NA,NA,NA,NA,NA,NA,NA,NA,NA,NA,NA,NA,NA,NA,NA,NA,NA,NA,NA,40.512444,-79.843475,15139
NA,Rite Aid 10916,NA,517 Beaver St NA,NA,NA,Sewickley,PA,NA,NA,NA,NA,NA,NA,NA,NA,NA,NA,NA,NA,NA,NA,NA,NA,NA,NA,NA,NA,40.539928,-80.179947,15143
NA,Rite Aid 10917,NA,4011 William Penn Hwy NA,NA,NA,Monroeville,PA,NA,NA,NA,NA,NA,NA,NA,NA,NA,NA,NA,NA,NA,NA,NA,NA,NA,NA,NA,NA,40.438446,-79.772324,15146
NA,Rite Aid 10933,NA,1956 Greentree Rd NA,NA,NA,Pittsburgh,PA,NA,NA,NA,NA,NA,NA,NA,NA,NA,NA,NA,NA,NA,NA,NA,NA,NA,NA,NA,NA,40.394588,-80.066292,15220
NA,Rite Aid 10945,NA,3434 William Penn Hwy NA,NA,NA,Pittsburgh,PA,NA,NA,NA,NA,NA,NA,NA,NA,NA,NA,NA,NA,NA,NA,NA,NA,NA,NA,NA,NA,40.430054,-79.81237,15235
NA,Rite Aid 10947,NA,7345 Saltsburg Rd NA,NA,NA,Penn Hills,PA,NA,NA,NA,NA,NA,NA,NA,NA,NA,NA,NA,NA,NA,NA,NA,NA,NA,NA,NA,NA,40.477882,-79.786003,15235
NA,Rite Aid 10950,NA,568 Caste Vlg NA,NA,NA,Pittsburgh,PA,NA,NA,NA,NA,NA,NA,NA,NA,NA,NA,NA,NA,NA,NA,NA,NA,NA,NA,NA,NA,40.358257,-80.00309,15236
NA,Rite Aid 10953,NA,1130 Perry Hwy Ste 35 NA,NA,NA,Pittsburgh,PA,NA,NA,NA,NA,NA,NA,NA,NA,NA,NA,NA,NA,NA,NA,NA,NA,NA,NA,NA,NA,40.547474,-80.036621,15237
NA,Rite Aid 10954,NA,1125 Freeport Rd NA,NA,NA,Pittsburgh,PA,NA,NA,NA,NA,NA,NA,NA,NA,NA,NA,NA,NA,NA,NA,NA,NA,NA,NA,NA,NA,40.487637,-79.882141,15238
NA,Rite Aid 10955,NA,1804 Golden Mile Hwy NA,NA,NA,Pittsburgh,PA,NA,NA,NA,NA,NA,NA,NA,NA,NA,NA,NA,NA,NA,NA,NA,NA,NA,NA,NA,NA,40.446487,-79.713905,15239
NA,Manpsand Spice Corner,NA,2101 Greentree Rd Ste B119,NA,NA,Pittsburgh,PA,NA,NA,NA,NA,NA,NA,NA,NA,NA,NA,NA,NA,NA,NA,NA,NA,NA,NA,NA,NA,40.391792,-80.069527,15220
NA,union Mart,NA,3400 Versailles Ave NA,NA,NA,McKeesport,PA,NA,NA,NA,NA,NA,NA,NA,NA,NA,NA,NA,NA,NA,NA,NA,NA,NA,NA,NA,NA,40.344875,-79.837479,15132
NA,Lotus Food,NA,1649 Penn Ave NA,NA,NA,Pittsburgh,PA,NA,NA,NA,NA,NA,NA,NA,NA,NA,NA,NA,NA,NA,NA,NA,NA,NA,NA,NA,NA,40.449585,-79.98632,15222
NA,CVS Pharmacy 2333,NA,5242 Clairton Blvd NA,NA,NA,Pittsburgh,PA,NA,NA,NA,NA,NA,NA,NA,NA,NA,NA,NA,NA,NA,NA,NA,NA,NA,NA,NA,NA,40.343586,-79.970428,15236
NA,CVS Pharmacy 2447,NA,5190 Library Rd NA,NA,NA,Bethel Park,PA,NA,NA,NA,NA,NA,NA,NA,NA,NA,NA,NA,NA,NA,NA,NA,NA,NA,NA,NA,NA,40.334,-80.024139,15102
NA,CVS Pharmacy 2449,NA,11240 Perry Hwy NA,NA,NA,Wexford,PA,NA,NA,NA,NA,NA,NA,NA,NA,NA,NA,NA,NA,NA,NA,NA,NA,NA,NA,NA,NA,40.621548,-80.054352,15090
NA,CVS Pharmacy 3189,NA,510 Brookline Blvd NA,NA,NA,Pittsburgh,PA,NA,NA,NA,NA,NA,NA,NA,NA,NA,NA,NA,NA,NA,NA,NA,NA,NA,NA,NA,NA,40.396126,-80.023483,15226
NA,CVS Pharmacy 4045,NA,4692 Old William Penn Hwy NA,NA,NA,Monroeville,PA,NA,NA,NA,NA,NA,NA,NA,NA,NA,NA,NA,NA,NA,NA,NA,NA,NA,NA,NA,NA,40.439358,-79.740822,15146
NA,Bryant Street Market,NA,5901 Bryant Street NA,NA,NA,Pittsburgh,PA,NA,NA,NA,NA,NA,NA,NA,NA,NA,NA,NA,NA,NA,NA,NA,NA,NA,NA,NA,NA,40.475685,-79.919601,15206
NA,CVS Pharmacy 5094,NA,328 Cochran Rd NA,NA,NA,Pittsburgh,PA,NA,NA,NA,NA,NA,NA,NA,NA,NA,NA,NA,NA,NA,NA,NA,NA,NA,NA,NA,NA,40.382473,-80.052292,15228
NA,Curry Hollow Sunoco,NA,340 Curry Hollow Rd NA,NA,NA,Pittsburgh,PA,NA,NA,NA,NA,NA,NA,NA,NA,NA,NA,NA,NA,NA,NA,NA,NA,NA,NA,NA,NA,40.335934,-79.974571,15236
NA,Wagners Market,NA,4978 Middle Rd NA,NA,NA,Gibsonia,PA,NA,NA,NA,NA,NA,NA,NA,NA,NA,NA,NA,NA,NA,NA,NA,NA,NA,NA,NA,NA,40.60532,-79.926468,15044
NA,The Medicine Shoppe Pharmacy,NA,5020 Centre Ave Fl 2,NA,NA,Pittsburgh,PA,NA,NA,NA,NA,NA,NA,NA,NA,NA,NA,NA,NA,NA,NA,NA,NA,NA,NA,NA,NA,40.454372,-79.943634,15213
NA,Dollar General 12185,NA,3750 Saw Mill Run Blvd NA,NA,NA,Pittsburgh,PA,NA,NA,NA,NA,NA,NA,NA,NA,NA,NA,NA,NA,NA,NA,NA,NA,NA,NA,NA,NA,40.37122,-79.982178,15227
NA,Rocks Express,NA,700 Frederick St NA,NA,NA,McKees Rocks,PA,NA,NA,NA,NA,NA,NA,NA,NA,NA,NA,NA,NA,NA,NA,NA,NA,NA,NA,NA,NA,40.472115,-80.065102,15136
NA,United Food Mart,NA,3112 Chartiers Ave NA,NA,NA,Pittsburgh,PA,NA,NA,NA,NA,NA,NA,NA,NA,NA,NA,NA,NA,NA,NA,NA,NA,NA,NA,NA,NA,40.453579,-80.061501,15204
NA,Aldi 68,NA,4578 William Flynn Hwy NA,NA,NA,Allison Park,PA,NA,NA,NA,NA,NA,NA,NA,NA,NA,NA,NA,NA,NA,NA,NA,NA,NA,NA,NA,NA,40.588921,-79.949097,15101
NA,Patel Brothers,NA,4145 William Penn Hwy Ste 5,NA,NA,Monroeville,PA,NA,NA,NA,NA,NA,NA,NA,NA,NA,NA,NA,NA,NA,NA,NA,NA,NA,NA,NA,NA,40.438869,-79.766396,15146
NA,Family Dollar 8379,NA,821 Chartiers Ave NA,NA,NA,McKees Rocks,PA,NA,NA,NA,NA,NA,NA,NA,NA,NA,NA,NA,NA,NA,NA,NA,NA,NA,NA,NA,NA,40.465809,-80.06498,15136
NA,CVS 5890,NA,3893 William Penn Hwy NA,NA,NA,Monroeville,PA,NA,NA,NA,NA,NA,NA,NA,NA,NA,NA,NA,NA,NA,NA,NA,NA,NA,NA,NA,NA,40.437435,-79.778694,15146
NA,Sunoco 7279,NA,3505 Library Rd NA,NA,NA,Pittsburgh,PA,NA,NA,NA,NA,NA,NA,NA,NA,NA,NA,NA,NA,NA,NA,NA,NA,NA,NA,NA,NA,40.366516,-80.014542,15234
NA,Save-a-lot,NA,9 Duquesne Plz NA,NA,NA,Duquesne,PA,NA,NA,NA,NA,NA,NA,NA,NA,NA,NA,NA,NA,NA,NA,NA,NA,NA,NA,NA,NA,40.373634,-79.845924,15110
NA,Leonard Labriola's Italian Store,NA,112 Northgate Dr NA,NA,NA,Warrendale,PA,NA,NA,NA,NA,NA,NA,NA,NA,NA,NA,NA,NA,NA,NA,NA,NA,NA,NA,NA,NA,40.650681,-80.07856,15086
NA,Dollar General 12542,NA,1714 Laketon Rd NA,NA,NA,Wilkinsburg,PA,NA,NA,NA,NA,NA,NA,NA,NA,NA,NA,NA,NA,NA,NA,NA,NA,NA,NA,NA,NA,40.449074,-79.867088,15221
NA,Cogo's 496,NA,721 Island Ave NA,NA,NA,McKees Rocks,PA,NA,NA,NA,NA,NA,NA,NA,NA,NA,NA,NA,NA,NA,NA,NA,NA,NA,NA,NA,NA,40.472603,-80.061897,15136
NA,The Hotspot Of Glassport,NA,601 Monongahela Ave NA,NA,NA,Glassport,PA,NA,NA,NA,NA,NA,NA,NA,NA,NA,NA,NA,NA,NA,NA,NA,NA,NA,NA,NA,NA,40.325947,-79.892403,15045
NA,Fuel On,NA,5724 Ellsworth Ave NA,NA,NA,Pittsburgh,PA,NA,NA,NA,NA,NA,NA,NA,NA,NA,NA,NA,NA,NA,NA,NA,NA,NA,NA,NA,NA,40.455196,-79.931664,15232
NA,Dollar Tree 4501,NA,4313 Walnut St Ste 10,NA,NA,McKeesport,PA,NA,NA,NA,NA,NA,NA,NA,NA,NA,NA,NA,NA,NA,NA,NA,NA,NA,NA,NA,NA,40.321171,-79.836456,15132
NA,Aldi 72,NA,3089 Sussex Ave NA,NA,NA,Pittsburgh,PA,NA,NA,NA,NA,NA,NA,NA,NA,NA,NA,NA,NA,NA,NA,NA,NA,NA,NA,NA,NA,40.383556,-80.015427,15226
NA,Family Dollar 8406,NA,1108 Milltown Unity Rd NA,NA,NA,Verona,PA,NA,NA,NA,NA,NA,NA,NA,NA,NA,NA,NA,NA,NA,NA,NA,NA,NA,NA,NA,NA,40.498695,-79.790024,15147
NA,Dollar Tree 4522,NA,2350 Noblestown Rd NA,NA,NA,Pittsburgh,PA,NA,NA,NA,NA,NA,NA,NA,NA,NA,NA,NA,NA,NA,NA,NA,NA,NA,NA,NA,NA,40.427067,-80.05558,15205
NA,Speedy Tobacco Mart,NA,1602 5th Ave NA,NA,NA,Coraopolis,PA,NA,NA,NA,NA,NA,NA,NA,NA,NA,NA,NA,NA,NA,NA,NA,NA,NA,NA,NA,NA,40.513393,-80.153542,15108
NA,Sunoco ARLINTON,NA,1643 Arlington Ave NA,NA,NA,Pittsburgh,PA,NA,NA,NA,NA,NA,NA,NA,NA,NA,NA,NA,NA,NA,NA,NA,NA,NA,NA,NA,NA,40.417816,-79.986694,15210
NA,GetGo 3641,NA,3029 Washington Pike NA,NA,NA,Bridgeville,PA,NA,NA,NA,NA,NA,NA,NA,NA,NA,NA,NA,NA,NA,NA,NA,NA,NA,NA,NA,NA,40.353493,-80.114944,15017
NA,Shah Sunoco,NA,903 Lincoln Hwy NA,NA,NA,North Versailles,PA,NA,NA,NA,NA,NA,NA,NA,NA,NA,NA,NA,NA,NA,NA,NA,NA,NA,NA,NA,NA,40.378574,-79.804764,15137
NA,Fourth Street Market,NA,529 4th St NA,NA,NA,Braddock,PA,NA,NA,NA,NA,NA,NA,NA,NA,NA,NA,NA,NA,NA,NA,NA,NA,NA,NA,NA,NA,40.407204,-79.869064,15104
NA,Westview Shell,NA,411 Perry Hwy NA,NA,NA,Pittsburgh,PA,NA,NA,NA,NA,NA,NA,NA,NA,NA,NA,NA,NA,NA,NA,NA,NA,NA,NA,NA,NA,40.518543,-80.031883,15229
NA,Giant Eagle 18,NA,1671 Butler Plank Rd NA,NA,NA,Glenshaw,PA,NA,NA,NA,NA,NA,NA,NA,NA,NA,NA,NA,NA,NA,NA,NA,NA,NA,NA,NA,NA,40.537659,-79.963448,15116
NA,D S Food Mart Inc,NA,929 Union Ave NA,NA,NA,McKeesport,PA,NA,NA,NA,NA,NA,NA,NA,NA,NA,NA,NA,NA,NA,NA,NA,NA,NA,NA,NA,NA,40.346752,-79.854698,15132
NA,Las Palmas 2,NA,326 Atwood St NA,NA,NA,Pittsburgh,PA,NA,NA,NA,NA,NA,NA,NA,NA,NA,NA,NA,NA,NA,NA,NA,NA,NA,NA,NA,NA,40.439068,-79.95517,15213
NA,Oriental Market,NA,4768 McKnight Rd NA,NA,NA,Pittsburgh,PA,NA,NA,NA,NA,NA,NA,NA,NA,NA,NA,NA,NA,NA,NA,NA,NA,NA,NA,NA,NA,40.523071,-80.005333,15237
NA,Stop & Shop Convenience,NA,2110 Ardmore Blvd NA,NA,NA,Pittsburgh,PA,NA,NA,NA,NA,NA,NA,NA,NA,NA,NA,NA,NA,NA,NA,NA,NA,NA,NA,NA,NA,40.419338,-79.849854,15221
NA,Uni Mart,NA,2321 Worton Blvd NA,NA,NA,West Mifflin,PA,NA,NA,NA,NA,NA,NA,NA,NA,NA,NA,NA,NA,NA,NA,NA,NA,NA,NA,NA,NA,40.360252,-79.87178,15122
NA,Sheetz 459,NA,2175 Hulton Rd NA,NA,NA,Verona,PA,NA,NA,NA,NA,NA,NA,NA,NA,NA,NA,NA,NA,NA,NA,NA,NA,NA,NA,NA,NA,40.526405,-79.816048,15147
NA,BFS Foods 64,NA,3984 Monroeville Blvd NA,NA,NA,Monroeville,PA,NA,NA,NA,NA,NA,NA,NA,NA,NA,NA,NA,NA,NA,NA,NA,NA,NA,NA,NA,NA,40.436333,-79.772949,15146
NA,Giant Eagle 68,NA,5990 University Blvd NA,NA,NA,Coraopolis,PA,NA,NA,NA,NA,NA,NA,NA,NA,NA,NA,NA,NA,NA,NA,NA,NA,NA,NA,NA,NA,40.519936,-80.217804,15108
NA,Aldi 47,NA,239 Clairton Blvd NA,NA,NA,West Mifflin,PA,NA,NA,NA,NA,NA,NA,NA,NA,NA,NA,NA,NA,NA,NA,NA,NA,NA,NA,NA,NA,40.337536,-79.937469,15122
NA,Target 2757,NA,6231 Penn Ave NA,NA,NA,Pittsburgh,PA,NA,NA,NA,NA,NA,NA,NA,NA,NA,NA,NA,NA,NA,NA,NA,NA,NA,NA,NA,NA,40.460236,-79.92141,15206
NA,7- Eleven  170 F 170,NA,429 Wood St NA,NA,NA,Pittsburgh,PA,NA,NA,NA,NA,NA,NA,NA,NA,NA,NA,NA,NA,NA,NA,NA,NA,NA,NA,NA,NA,40.440178,-80.000771,15222
NA,Subzi Mandi,NA,3103 Banksville Rd NA,NA,NA,Pittsburgh,PA,NA,NA,NA,NA,NA,NA,NA,NA,NA,NA,NA,NA,NA,NA,NA,NA,NA,NA,NA,NA,40.40023,-80.043716,15216
NA,Exxon,NA,1405 N State St NA,NA,NA,Clairton,PA,NA,NA,NA,NA,NA,NA,NA,NA,NA,NA,NA,NA,NA,NA,NA,NA,NA,NA,NA,NA,40.317894,-79.898903,15025
NA,Sheetz 468,NA,3457 William Penn Hwy NA,NA,NA,Pittsburgh,PA,NA,NA,NA,NA,NA,NA,NA,NA,NA,NA,NA,NA,NA,NA,NA,NA,NA,NA,NA,NA,40.429951,-79.810387,15235
NA,Circle K 4235,NA,200 Market Place Dr NA,NA,NA,Imperial,PA,NA,NA,NA,NA,NA,NA,NA,NA,NA,NA,NA,NA,NA,NA,NA,NA,NA,NA,NA,NA,40.484314,-80.351875,15126
NA,GetGo 3280,NA,1700 William Flynn Hwy NA,NA,NA,Glenshaw,PA,NA,NA,NA,NA,NA,NA,NA,NA,NA,NA,NA,NA,NA,NA,NA,NA,NA,NA,NA,NA,40.538803,-79.962486,15116
NA,The Elliotts Town Market,NA,928 Chartiers Ave NA,NA,NA,Pittsburgh,PA,NA,NA,NA,NA,NA,NA,NA,NA,NA,NA,NA,NA,NA,NA,NA,NA,NA,NA,NA,NA,40.443832,-80.040421,15220
NA,Jos Coffee Shop,NA,3100 Versailles Ave NA,NA,NA,McKeesport,PA,NA,NA,NA,NA,NA,NA,NA,NA,NA,NA,NA,NA,NA,NA,NA,NA,NA,NA,NA,NA,40.345139,-79.84082,15131
NA,Cash N Carry,NA,7920 Saltsburg Rd NA,NA,NA,Pittsburgh,PA,NA,NA,NA,NA,NA,NA,NA,NA,NA,NA,NA,NA,NA,NA,NA,NA,NA,NA,NA,NA,40.477222,-79.75959,15239
NA,Trader Joes 630,NA,1600 Washington Rd Ste 1,NA,NA,Pittsburgh,PA,NA,NA,NA,NA,NA,NA,NA,NA,NA,NA,NA,NA,NA,NA,NA,NA,NA,NA,NA,NA,40.354389,-80.050247,15228
NA,Aldi 77,NA,11800 Perry Hwy NA,NA,NA,Wexford,PA,NA,NA,NA,NA,NA,NA,NA,NA,NA,NA,NA,NA,NA,NA,NA,NA,NA,NA,NA,NA,40.627735,-80.055565,15090
NA,Dollar Tree 4790,NA,1701 Duncan Ave Ste 10,NA,NA,Allison Park,PA,NA,NA,NA,NA,NA,NA,NA,NA,NA,NA,NA,NA,NA,NA,NA,NA,NA,NA,NA,NA,40.566422,-79.998596,15101
NA,Sheetz 476,NA,3025 Babcock Blvd NA,NA,NA,Pittsburgh,PA,NA,NA,NA,NA,NA,NA,NA,NA,NA,NA,NA,NA,NA,NA,NA,NA,NA,NA,NA,NA,40.515194,-80.008842,15237
NA,Mega Deli,NA,995 Greensburg Pike NA,NA,NA,East Pittsburgh,PA,NA,NA,NA,NA,NA,NA,NA,NA,NA,NA,NA,NA,NA,NA,NA,NA,NA,NA,NA,NA,40.416763,-79.839432,15112
NA,Grow Pittsburgh Farm Stands,NA,605 Braddock Ave NA,NA,NA,Braddock,PA,NA,NA,NA,NA,NA,NA,NA,NA,NA,NA,NA,NA,NA,NA,NA,NA,NA,NA,NA,NA,40.403103,-79.868294,15104
NA,One Stop Mini Mart,NA,751 E Warrington Ave NA,NA,NA,Pittsburgh,PA,NA,NA,NA,NA,NA,NA,NA,NA,NA,NA,NA,NA,NA,NA,NA,NA,NA,NA,NA,NA,40.421852,-79.994423,15210
NA,"Elizabeth Pharmacy, Inc.",NA,5041 2nd Ave NA,NA,NA,Pittsburgh,PA,NA,NA,NA,NA,NA,NA,NA,NA,NA,NA,NA,NA,NA,NA,NA,NA,NA,NA,NA,NA,40.4072,-79.943268,15207
NA,Braddock Avenue Express,NA,1101 S Braddock Ave NA,NA,NA,Pittsburgh,PA,NA,NA,NA,NA,NA,NA,NA,NA,NA,NA,NA,NA,NA,NA,NA,NA,NA,NA,NA,NA,40.432709,-79.893913,15218
NA,Super Mart,NA,1761 Pine Hollow Rd NA,NA,NA,McKees Rocks,PA,NA,NA,NA,NA,NA,NA,NA,NA,NA,NA,NA,NA,NA,NA,NA,NA,NA,NA,NA,NA,40.475864,-80.100143,15136
NA,Memes Market,NA,1608 Walz St NA,NA,NA,Pittsburgh,PA,NA,NA,NA,NA,NA,NA,NA,NA,NA,NA,NA,NA,NA,NA,NA,NA,NA,NA,NA,NA,40.463306,-79.991203,15212
NA,Cogos 1780,NA,3402 Main St NA,NA,NA,Homestead,PA,NA,NA,NA,NA,NA,NA,NA,NA,NA,NA,NA,NA,NA,NA,NA,NA,NA,NA,NA,NA,40.386551,-79.90274,15120
NA,Whole Foods 10377,NA,10576 Perry Hwy NA,NA,NA,Wexford,PA,NA,NA,NA,NA,NA,NA,NA,NA,NA,NA,NA,NA,NA,NA,NA,NA,NA,NA,NA,NA,40.612068,-80.054199,15090
NA,Squids Coffee Shop,NA,607 Grant Ave NA,NA,NA,Duquesne,PA,NA,NA,NA,NA,NA,NA,NA,NA,NA,NA,NA,NA,NA,NA,NA,NA,NA,NA,NA,NA,40.372093,-79.851341,15110
NA,Hanini Market,NA,1105 Franklin Ave NA,NA,NA,Pittsburgh,PA,NA,NA,NA,NA,NA,NA,NA,NA,NA,NA,NA,NA,NA,NA,NA,NA,NA,NA,NA,NA,40.438927,-79.878822,15221
NA,Dollar General 13486,NA,1718 Broadview Blvd NA,NA,NA,Natrona Heights,PA,NA,NA,NA,NA,NA,NA,NA,NA,NA,NA,NA,NA,NA,NA,NA,NA,NA,NA,NA,NA,40.623268,-79.724915,15065
NA,Cogo's 1493,NA,620 Lincoln Ave NA,NA,NA,Bellevue,PA,NA,NA,NA,NA,NA,NA,NA,NA,NA,NA,NA,NA,NA,NA,NA,NA,NA,NA,NA,NA,40.497433,-80.059196,15202
NA,7- Eleven - F 119,NA,22 Grant Ave NA,NA,NA,Pittsburgh,PA,NA,NA,NA,NA,NA,NA,NA,NA,NA,NA,NA,NA,NA,NA,NA,NA,NA,NA,NA,NA,40.503883,-79.948753,15223
NA,Dollar Tree 4994,NA,1600 Hoffman Blvd NA,NA,NA,West Mifflin,PA,NA,NA,NA,NA,NA,NA,NA,NA,NA,NA,NA,NA,NA,NA,NA,NA,NA,NA,NA,NA,40.382389,-79.868668,15122
NA,Rite Aid 10934,NA,2336 Ardmore Blvd NA,NA,NA,Pittsburgh,PA,NA,NA,NA,NA,NA,NA,NA,NA,NA,NA,NA,NA,NA,NA,NA,NA,NA,NA,NA,NA,40.416664,-79.848282,15221
NA,Cogos 1784,NA,1530 Potomac Ave NA,NA,NA,Pittsburgh,PA,NA,NA,NA,NA,NA,NA,NA,NA,NA,NA,NA,NA,NA,NA,NA,NA,NA,NA,NA,NA,40.397018,-80.035713,15216
NA,Dollar Tree 5033,NA,8 Quaker Village Shopping Ctr NA,NA,NA,Leetsdale,PA,NA,NA,NA,NA,NA,NA,NA,NA,NA,NA,NA,NA,NA,NA,NA,NA,NA,NA,NA,NA,40.558041,-80.204536,15056
NA,Dollar Tree 5038,NA,4714 McKnight Rd NA,NA,NA,Pittsburgh,PA,NA,NA,NA,NA,NA,NA,NA,NA,NA,NA,NA,NA,NA,NA,NA,NA,NA,NA,NA,NA,40.517067,-80.004509,15237
NA,7-Eleven 36187H,NA,4630 William Flynn Hwy NA,NA,NA,Allison Park,PA,NA,NA,NA,NA,NA,NA,NA,NA,NA,NA,NA,NA,NA,NA,NA,NA,NA,NA,NA,NA,40.590599,-79.948151,15101
NA,EZ Energy 315/ 7-Eleven Store 36195H 36195H,NA,2 Heckel Rd NA,NA,NA,McKees Rocks,PA,NA,NA,NA,NA,NA,NA,NA,NA,NA,NA,NA,NA,NA,NA,NA,NA,NA,NA,NA,NA,40.472599,-80.093254,15136
NA,EZ Energy 354/ 7-Eleven Store 36199H 36199H,NA,1102 Perry Hwy NA,NA,NA,Pittsburgh,PA,NA,NA,NA,NA,NA,NA,NA,NA,NA,NA,NA,NA,NA,NA,NA,NA,NA,NA,NA,NA,40.544941,-80.035889,15237
NA,American Natural 5,NA,3800 Walnut St NA,NA,NA,McKeesport,PA,NA,NA,NA,NA,NA,NA,NA,NA,NA,NA,NA,NA,NA,NA,NA,NA,NA,NA,NA,NA,40.325592,-79.839378,15132
NA,American Natural 12,NA,103 E 22nd Ave NA,NA,NA,Homestead,PA,NA,NA,NA,NA,NA,NA,NA,NA,NA,NA,NA,NA,NA,NA,NA,NA,NA,NA,NA,NA,40.397427,-79.902596,15120
NA,Brookline Sunoco,NA,533 Brookline Blvd NA,NA,NA,Pittsburgh,PA,NA,NA,NA,NA,NA,NA,NA,NA,NA,NA,NA,NA,NA,NA,NA,NA,NA,NA,NA,NA,40.395721,-80.022652,15226
NA,Mei A Asian Grocery,NA,228 5th Ave NA,NA,NA,McKeesport,PA,NA,NA,NA,NA,NA,NA,NA,NA,NA,NA,NA,NA,NA,NA,NA,NA,NA,NA,NA,NA,40.350914,-79.865295,15132
NA,Aldi 79,NA,2628 East Carson St NA,NA,NA,Pittsburgh,PA,NA,NA,NA,NA,NA,NA,NA,NA,NA,NA,NA,NA,NA,NA,NA,NA,NA,NA,NA,NA,40.427162,-79.967392,15203
NA,Sheetz 500,NA,1910 Mt Nebo Rd NA,NA,NA,Sewickley,PA,NA,NA,NA,NA,NA,NA,NA,NA,NA,NA,NA,NA,NA,NA,NA,NA,NA,NA,NA,NA,40.5532,-80.113899,15143
NA,Marshall's Ltd.,NA,1520 Spring Garden Ave NA,NA,NA,Pittsburgh,PA,NA,NA,NA,NA,NA,NA,NA,NA,NA,NA,NA,NA,NA,NA,NA,NA,NA,NA,NA,NA,40.464699,-79.985809,15212
NA,CVS 10034,NA,611 Duncan Ave NA,NA,NA,Pittsburgh,PA,NA,NA,NA,NA,NA,NA,NA,NA,NA,NA,NA,NA,NA,NA,NA,NA,NA,NA,NA,NA,40.568375,-80.023155,15237
NA,Lampert's Deli Express,NA,2010 Eden Park Blvd NA,NA,NA,McKeesport,PA,NA,NA,NA,NA,NA,NA,NA,NA,NA,NA,NA,NA,NA,NA,NA,NA,NA,NA,NA,NA,40.342789,-79.828896,15132
NA,Fueland 228,NA,1927 Brownsville Rd NA,NA,NA,Pittsburgh,PA,NA,NA,NA,NA,NA,NA,NA,NA,NA,NA,NA,NA,NA,NA,NA,NA,NA,NA,NA,NA,40.395298,-79.986801,15210
NA,Us Gas,NA,4215 Ohio River Blvd NA,NA,NA,Pittsburgh,PA,NA,NA,NA,NA,NA,NA,NA,NA,NA,NA,NA,NA,NA,NA,NA,NA,NA,NA,NA,NA,40.487545,-80.056,15202
NA,GetGo 3003,NA,3247 E Carson St NA,NA,NA,Pittsburgh,PA,NA,NA,NA,NA,NA,NA,NA,NA,NA,NA,NA,NA,NA,NA,NA,NA,NA,NA,NA,NA,40.421555,-79.958725,15203
NA,GetGo 3021,NA,7675 McKnight Rd NA,NA,NA,Pittsburgh,PA,NA,NA,NA,NA,NA,NA,NA,NA,NA,NA,NA,NA,NA,NA,NA,NA,NA,NA,NA,NA,40.545288,-80.01619,15237
NA,Dollar Tree 5207,NA,1061 Washington Ave NA,NA,NA,Carnegie,PA,NA,NA,NA,NA,NA,NA,NA,NA,NA,NA,NA,NA,NA,NA,NA,NA,NA,NA,NA,NA,40.398071,-80.083298,15106
NA,Nepali Bazaar,NA,4040 Saw Mill Run Blvd NA,NA,NA,Pittsburgh,PA,NA,NA,NA,NA,NA,NA,NA,NA,NA,NA,NA,NA,NA,NA,NA,NA,NA,NA,NA,NA,40.367813,-79.983818,15227
NA,Target 2787,NA,201 S Hills Vlg NA,NA,NA,Pittsburgh,PA,NA,NA,NA,NA,NA,NA,NA,NA,NA,NA,NA,NA,NA,NA,NA,NA,NA,NA,NA,NA,40.341427,-80.053009,15241
NA,Shell N. Versailles,NA,505 Lincoln Hwy NA,NA,NA,North Versailles,PA,NA,NA,NA,NA,NA,NA,NA,NA,NA,NA,NA,NA,NA,NA,NA,NA,NA,NA,NA,NA,40.384335,-79.823799,15137
NA,CR Petroleum LLC/ Fueland 203,NA,101 Mile Lock Ln NA,NA,NA,Brackenridge,PA,NA,NA,NA,NA,NA,NA,NA,NA,NA,NA,NA,NA,NA,NA,NA,NA,NA,NA,NA,NA,40.604576,-79.733955,15014
NA,"CIO Stores, LLC 13 13",NA,1980 Painters Run Rd NA,NA,NA,Pittsburgh,PA,NA,NA,NA,NA,NA,NA,NA,NA,NA,NA,NA,NA,NA,NA,NA,NA,NA,NA,NA,NA,40.362965,-80.084785,15241
NA,"CIO Stores, LLC 14 14",NA,1909 Painters Run Rd NA,NA,NA,Pittsburgh,PA,NA,NA,NA,NA,NA,NA,NA,NA,NA,NA,NA,NA,NA,NA,NA,NA,NA,NA,NA,NA,40.362808,-80.083366,15241
NA,"CIO Stores, LLC 15 15",NA,2305 O'neil Blvd NA,NA,NA,Mckeesport,PA,NA,NA,NA,NA,NA,NA,NA,NA,NA,NA,NA,NA,NA,NA,NA,NA,NA,NA,NA,NA,40.353027,-79.825424,15132
NA,Asia Grocery,NA,1237 Route 51 NA,NA,NA,Clairton,PA,NA,NA,NA,NA,NA,NA,NA,NA,NA,NA,NA,NA,NA,NA,NA,NA,NA,NA,NA,NA,40.310753,-79.937553,15025
NA,Taza Market,NA,500 2nd Street NA,NA,NA,Pitcairn,PA,NA,NA,NA,NA,NA,NA,NA,NA,NA,NA,NA,NA,NA,NA,NA,NA,NA,NA,NA,NA,40.402569,-79.777924,15140
NA,Carl's Cafe,NA,337 5th Ave NA,NA,NA,Braddock,PA,NA,NA,NA,NA,NA,NA,NA,NA,NA,NA,NA,NA,NA,NA,NA,NA,NA,NA,NA,NA,40.414223,-79.881691,15104
NA,Aldi 80,NA,5631 Baum Blvd NA,NA,NA,Pittsburgh,PA,NA,NA,NA,NA,NA,NA,NA,NA,NA,NA,NA,NA,NA,NA,NA,NA,NA,NA,NA,NA,40.458138,-79.934723,15206
NA,American Natural 9,NA,5738 Smithfield St NA,NA,NA,McKeesport,PA,NA,NA,NA,NA,NA,NA,NA,NA,NA,NA,NA,NA,NA,NA,NA,NA,NA,NA,NA,NA,40.311306,-79.824921,15135
NA,Sheetz 515,NA,4599 Library Rd NA,NA,NA,Bethel Park,PA,NA,NA,NA,NA,NA,NA,NA,NA,NA,NA,NA,NA,NA,NA,NA,NA,NA,NA,NA,NA,40.351242,-80.023338,15102
NA,Pit Stop Express,NA,4501 Ohio River Blvd NA,NA,NA,Pittsburgh,PA,NA,NA,NA,NA,NA,NA,NA,NA,NA,NA,NA,NA,NA,NA,NA,NA,NA,NA,NA,NA,40.491508,-80.061203,15202
NA,The Fresh Market 138,NA,1551 Washington Rd NA,NA,NA,Mt Lebanon,PA,NA,NA,NA,NA,NA,NA,NA,NA,NA,NA,NA,NA,NA,NA,NA,NA,NA,NA,NA,NA,40.354679,-80.050117,15228
NA,Clairton Mini Mart,NA,672 Miller Ave NA,NA,NA,Clairton,PA,NA,NA,NA,NA,NA,NA,NA,NA,NA,NA,NA,NA,NA,NA,NA,NA,NA,NA,NA,NA,40.29026,-79.884117,15025
NA,7-eleven Store 36135A,NA,850 Boyce Rd. NA,NA,NA,Bridgeville,PA,NA,NA,NA,NA,NA,NA,NA,NA,NA,NA,NA,NA,NA,NA,NA,NA,NA,NA,NA,NA,40.328339,-80.125214,15017
NA,7-eleven Store 36159A,NA,1350 Wildwood Rd NA,NA,NA,Gibsonia,PA,NA,NA,NA,NA,NA,NA,NA,NA,NA,NA,NA,NA,NA,NA,NA,NA,NA,NA,NA,NA,40.594669,-79.994194,15044
NA,7-eleven Store 36144A,NA,95 Warrendale Bayne Rd NA,NA,NA,Warrendale,PA,NA,NA,NA,NA,NA,NA,NA,NA,NA,NA,NA,NA,NA,NA,NA,NA,NA,NA,NA,NA,40.653961,-80.082291,15086
NA,Shop Mart,NA,625 Ardmore Blvd NA,NA,NA,Pittsburgh,PA,NA,NA,NA,NA,NA,NA,NA,NA,NA,NA,NA,NA,NA,NA,NA,NA,NA,NA,NA,NA,40.437172,-79.873596,15221
NA,Broadway Market,NA,295 Broadway Ave NA,NA,NA,McKees Rocks,PA,NA,NA,NA,NA,NA,NA,NA,NA,NA,NA,NA,NA,NA,NA,NA,NA,NA,NA,NA,NA,40.467667,-80.067131,15136
NA,7-Eleven 36188H,NA,4775 McKnight Rd NA,NA,NA,Pittsburgh,PA,NA,NA,NA,NA,NA,NA,NA,NA,NA,NA,NA,NA,NA,NA,NA,NA,NA,NA,NA,NA,40.521503,-80.005287,15237
NA,Munhall Gasoline Service,NA,2907 Homestead Duquesne Rd NA,NA,NA,Homestead,PA,NA,NA,NA,NA,NA,NA,NA,NA,NA,NA,NA,NA,NA,NA,NA,NA,NA,NA,NA,NA,40.391308,-79.894058,15120
NA,Ross's Centre Ave Shop N Save,NA,1850 Centre Ave NA,NA,NA,Pittsburgh,PA,NA,NA,NA,NA,NA,NA,NA,NA,NA,NA,NA,NA,NA,NA,NA,NA,NA,NA,NA,NA,40.442684,-79.981972,15219
NA,Speedway 2900,NA,4830 William Penn Hwy NA,NA,NA,Monroeville,PA,NA,NA,NA,NA,NA,NA,NA,NA,NA,NA,NA,NA,NA,NA,NA,NA,NA,NA,NA,NA,40.427555,-79.72094,15146
NA,Speedway 2901,NA,4380 Old William Penn Hwy NA,NA,NA,Monroeville,PA,NA,NA,NA,NA,NA,NA,NA,NA,NA,NA,NA,NA,NA,NA,NA,NA,NA,NA,NA,NA,40.444107,-79.768204,15146
NA,Speedway 2902,NA,4420 Browns Hill Rd NA,NA,NA,Pittsburgh,PA,NA,NA,NA,NA,NA,NA,NA,NA,NA,NA,NA,NA,NA,NA,NA,NA,NA,NA,NA,NA,40.418995,-79.926735,15217
NA,Speedway 2903,NA,4311 Steubenville Pike NA,NA,NA,Pittsburgh,PA,NA,NA,NA,NA,NA,NA,NA,NA,NA,NA,NA,NA,NA,NA,NA,NA,NA,NA,NA,NA,40.440647,-80.093079,15205
NA,Valero,NA,820 Pennsylvania Ave NA,NA,NA,Pittsburgh,PA,NA,NA,NA,NA,NA,NA,NA,NA,NA,NA,NA,NA,NA,NA,NA,NA,NA,NA,NA,NA,40.455967,-80.016212,15233
NA,Giant Eagle 15,NA,1701 Lincoln Hwy NA,NA,NA,North Versailles,PA,NA,NA,NA,NA,NA,NA,NA,NA,NA,NA,NA,NA,NA,NA,NA,NA,NA,NA,NA,NA,40.370461,-79.78614,15137
NA,Holy Kow LLC,NA,2300 Versailles Ave NA,NA,NA,Mckeesport,PA,NA,NA,NA,NA,NA,NA,NA,NA,NA,NA,NA,NA,NA,NA,NA,NA,NA,NA,NA,NA,40.345795,-79.849129,15132
NA,Dollar General 8972,NA,700 Penn St NA,NA,NA,Wilkinsburg,PA,NA,NA,NA,NA,NA,NA,NA,NA,NA,NA,NA,NA,NA,NA,NA,NA,NA,NA,NA,NA,40.443611,-79.884598,15221
NA,7-eleven Inc F 36193A,NA,999 Greentree Rd NA,NA,NA,Pittsburgh,PA,NA,NA,NA,NA,NA,NA,NA,NA,NA,NA,NA,NA,NA,NA,NA,NA,NA,NA,NA,NA,40.416752,-80.044968,15220
NA,Ross's Village Shop N Save,NA,1886 Homeville Rd NA,NA,NA,West Mifflin,PA,NA,NA,NA,NA,NA,NA,NA,NA,NA,NA,NA,NA,NA,NA,NA,NA,NA,NA,NA,NA,40.393944,-79.888657,15122
NA,7-eleven Store 36131A,NA,10 W Prospect Ave & Ingram Ave. NA,NA,NA,Pittsburgh,PA,NA,NA,NA,NA,NA,NA,NA,NA,NA,NA,NA,NA,NA,NA,NA,NA,NA,NA,NA,NA,40.444962,-80.06617,15205
NA,Many More Asian Market,NA,3050 Smallman St NA,NA,NA,Pittsburgh,PA,NA,NA,NA,NA,NA,NA,NA,NA,NA,NA,NA,NA,NA,NA,NA,NA,NA,NA,NA,NA,40.460068,-79.972733,15201
NA,Sunoco,NA,7701 Penn Ave NA,NA,NA,Pittsburgh,PA,NA,NA,NA,NA,NA,NA,NA,NA,NA,NA,NA,NA,NA,NA,NA,NA,NA,NA,NA,NA,40.446556,-79.89325,15221
NA,Las Palmas Iga 2,NA,1616 Broadway Ave NA,NA,NA,Pittsburgh,PA,NA,NA,NA,NA,NA,NA,NA,NA,NA,NA,NA,NA,NA,NA,NA,NA,NA,NA,NA,NA,40.410118,-80.02478,15216
NA,Perry Market,NA,2601 Perrysville Ave NA,NA,NA,Pittsburgh,PA,NA,NA,NA,NA,NA,NA,NA,NA,NA,NA,NA,NA,NA,NA,NA,NA,NA,NA,NA,NA,40.471176,-80.00872,15214
NA,Dollar General 15169,NA,120 Three Degree Rd NA,NA,NA,Pittsburgh,PA,NA,NA,NA,NA,NA,NA,NA,NA,NA,NA,NA,NA,NA,NA,NA,NA,NA,NA,NA,NA,40.544304,-80.033058,15237
NA,Samba Market,NA,2520 Bedford Ave NA,NA,NA,Pittsburgh,PA,NA,NA,NA,NA,NA,NA,NA,NA,NA,NA,NA,NA,NA,NA,NA,NA,NA,NA,NA,NA,40.450806,-79.972191,15219
NA,Giant Eagle 29,NA,1356 Hoffman Blvd NA,NA,NA,West Mifflin,PA,NA,NA,NA,NA,NA,NA,NA,NA,NA,NA,NA,NA,NA,NA,NA,NA,NA,NA,NA,NA,40.382355,-79.869904,15122
NA,Ceebee Market,NA,202 Brownsville Rd NA,NA,NA,Pittsburgh,PA,NA,NA,NA,NA,NA,NA,NA,NA,NA,NA,NA,NA,NA,NA,NA,NA,NA,NA,NA,NA,40.415752,-79.987274,15210
NA,Donut Connection,NA,2414 Brownsville Rd NA,NA,NA,Pittsburgh,PA,NA,NA,NA,NA,NA,NA,NA,NA,NA,NA,NA,NA,NA,NA,NA,NA,NA,NA,NA,NA,40.386833,-79.982285,15210
NA,BP Stop N Go,NA,638 Brown Ave NA,NA,NA,Turtle Creek,PA,NA,NA,NA,NA,NA,NA,NA,NA,NA,NA,NA,NA,NA,NA,NA,NA,NA,NA,NA,NA,40.425694,-79.834602,15145
NA,Speedway 6503,NA,2325 5th Ave NA,NA,NA,Mckeesport,PA,NA,NA,NA,NA,NA,NA,NA,NA,NA,NA,NA,NA,NA,NA,NA,NA,NA,NA,NA,NA,40.35339,-79.837303,15132
NA,Everest Food,NA,308 Curry Hollow Rd NA,NA,NA,Pittsburgh,PA,NA,NA,NA,NA,NA,NA,NA,NA,NA,NA,NA,NA,NA,NA,NA,NA,NA,NA,NA,NA,40.335968,-79.973244,15236
NA,Whitehall Center,NA,1406 Radford Rd NA,NA,NA,Pittsburgh,PA,NA,NA,NA,NA,NA,NA,NA,NA,NA,NA,NA,NA,NA,NA,NA,NA,NA,NA,NA,NA,40.363575,-79.96801,15227
NA,Uni Mart,NA,101 Fern Hollow Rd NA,NA,NA,Coraopolis,PA,NA,NA,NA,NA,NA,NA,NA,NA,NA,NA,NA,NA,NA,NA,NA,NA,NA,NA,NA,NA,40.521252,-80.192604,15108
NA,Hanini Market,NA,3245 Brighton Rd NA,NA,NA,Pittsburgh,PA,NA,NA,NA,NA,NA,NA,NA,NA,NA,NA,NA,NA,NA,NA,NA,NA,NA,NA,NA,NA,40.476002,-80.031479,15212
NA,Mercy Market LLC,NA,6 Mercy St NA,NA,NA,Pittsburgh,PA,NA,NA,NA,NA,NA,NA,NA,NA,NA,NA,NA,NA,NA,NA,NA,NA,NA,NA,NA,NA,40.462399,-80.008545,15214
NA,Bloomfield Saturday Market,NA,5050 Liberty Ave NA,NA,NA,Pittsburgh,PA,NA,NA,NA,NA,NA,NA,NA,NA,NA,NA,NA,NA,NA,NA,NA,NA,NA,NA,NA,NA,40.459114,-79.944321,15224
NA,Subhalaxmi Grocery,NA,2950 Brownsville Rd NA,NA,NA,Pittsburgh,PA,NA,NA,NA,NA,NA,NA,NA,NA,NA,NA,NA,NA,NA,NA,NA,NA,NA,NA,NA,NA,40.381584,-79.976295,15227
NA,Liberty Gasoline Service Lp,NA,2615 Liberty Way NA,NA,NA,Mckeesport,PA,NA,NA,NA,NA,NA,NA,NA,NA,NA,NA,NA,NA,NA,NA,NA,NA,NA,NA,NA,NA,40.32848,-79.856316,15133
NA,Dollar General 14967,NA,740 Lysle Blvd NA,NA,NA,McKeesport,PA,NA,NA,NA,NA,NA,NA,NA,NA,NA,NA,NA,NA,NA,NA,NA,NA,NA,NA,NA,NA,40.352184,-79.857201,15132
NA,Red Paprika Food LLC,NA,1900 Grandview Ave NA,NA,NA,Mckeesport,PA,NA,NA,NA,NA,NA,NA,NA,NA,NA,NA,NA,NA,NA,NA,NA,NA,NA,NA,NA,NA,40.340023,-79.836807,15132
NA,Triangle Mart,NA,101 Amanda Ave NA,NA,NA,Pittsburgh,PA,NA,NA,NA,NA,NA,NA,NA,NA,NA,NA,NA,NA,NA,NA,NA,NA,NA,NA,NA,NA,40.418339,-79.988258,15210
NA,GetGo 3005,NA,1000 Hayden Blvd NA,NA,NA,Elizabeth,PA,NA,NA,NA,NA,NA,NA,NA,NA,NA,NA,NA,NA,NA,NA,NA,NA,NA,NA,NA,NA,40.264488,-79.878654,15037
NA,Dollar Tree 5587,NA,3428 William Penn Hwy NA,NA,NA,Pittsburgh,PA,NA,NA,NA,NA,NA,NA,NA,NA,NA,NA,NA,NA,NA,NA,NA,NA,NA,NA,NA,NA,40.430149,-79.812737,15235
NA,Oak Hill Market,NA,504 Oak Hill Dr NA,NA,NA,Pittsburgh,PA,NA,NA,NA,NA,NA,NA,NA,NA,NA,NA,NA,NA,NA,NA,NA,NA,NA,NA,NA,NA,40.44149,-79.969978,15213
NA,Dollar General 15559,NA,4725 Centre Ave NA,NA,NA,Pittsburgh,PA,NA,NA,NA,NA,NA,NA,NA,NA,NA,NA,NA,NA,NA,NA,NA,NA,NA,NA,NA,NA,40.452847,-79.948906,15213
NA,Dollar Tree 5553,NA,1630 Arlington Ave Ste 1,NA,NA,Pittsburgh,PA,NA,NA,NA,NA,NA,NA,NA,NA,NA,NA,NA,NA,NA,NA,NA,NA,NA,NA,NA,NA,40.417965,-79.987106,15210
NA,Giant Eagle 24,NA,3239 Washington Pike NA,NA,NA,Bridgeville,PA,NA,NA,NA,NA,NA,NA,NA,NA,NA,NA,NA,NA,NA,NA,NA,NA,NA,NA,NA,NA,40.341564,-80.119629,15017
NA,International Food Emporium 1,NA,4110 Saw Mill Run Blvd NA,NA,NA,Pittsburgh,PA,NA,NA,NA,NA,NA,NA,NA,NA,NA,NA,NA,NA,NA,NA,NA,NA,NA,NA,NA,NA,40.36692,-79.984222,15227
NA,Rojels Foods LLC/ Bethel Park Shop N Save,NA,5001 Library Road NA,NA,NA,Bethel Park,PA,NA,NA,NA,NA,NA,NA,NA,NA,NA,NA,NA,NA,NA,NA,NA,NA,NA,NA,NA,NA,40.342155,-80.025978,15102
NA,Homewoods Quick Pick INC,NA,7201 Frankstown Ave NA,NA,NA,Pittsburgh,PA,NA,NA,NA,NA,NA,NA,NA,NA,NA,NA,NA,NA,NA,NA,NA,NA,NA,NA,NA,NA,40.457378,-79.896126,15208
NA,William Penn Highway Sunoco,NA,3406 William Penn Hwy NA,NA,NA,Pittsburgh,PA,NA,NA,NA,NA,NA,NA,NA,NA,NA,NA,NA,NA,NA,NA,NA,NA,NA,NA,NA,NA,40.430473,-79.813904,15235
NA,Fishes And Loaves Cooperative Ministries,NA,118 Glen Caladh St NA,NA,NA,Pittsburgh,PA,NA,NA,NA,NA,NA,NA,NA,NA,NA,NA,NA,NA,NA,NA,NA,NA,NA,NA,NA,NA,40.409168,-79.943588,15207
NA,Wilkins Shop N Save,NA,3335 William Penn Hwy NA,NA,NA,Pittsburgh,PA,NA,NA,NA,NA,NA,NA,NA,NA,NA,NA,NA,NA,NA,NA,NA,NA,NA,NA,NA,NA,40.432346,-79.817902,15235
NA,Family Dollar 11119,NA,3300 Penn Ave NA,NA,NA,Pittsburgh,PA,NA,NA,NA,NA,NA,NA,NA,NA,NA,NA,NA,NA,NA,NA,NA,NA,NA,NA,NA,NA,40.461845,-79.968307,15201
NA,Dollar General 14985,NA,5800 Buttermilk Hollow Rd NA,NA,NA,Pittsburgh,PA,NA,NA,NA,NA,NA,NA,NA,NA,NA,NA,NA,NA,NA,NA,NA,NA,NA,NA,NA,NA,40.365013,-79.908501,15207
NA,Cash and Carry,NA,1021 Perry Hwy NA,NA,NA,Pittsburgh,PA,NA,NA,NA,NA,NA,NA,NA,NA,NA,NA,NA,NA,NA,NA,NA,NA,NA,NA,NA,NA,40.540695,-80.036118,15237
NA,Speedway 2905,NA,303 Hulton Rd NA,NA,NA,Oakmont,PA,NA,NA,NA,NA,NA,NA,NA,NA,NA,NA,NA,NA,NA,NA,NA,NA,NA,NA,NA,NA,40.526009,-79.842438,15139
NA,Abe's Market,NA,1860 Centre Ave NA,NA,NA,Pittsburgh,PA,NA,NA,NA,NA,NA,NA,NA,NA,NA,NA,NA,NA,NA,NA,NA,NA,NA,NA,NA,NA,40.443085,-79.981117,15219
NA,Lawrenceville Shop N Save,NA,450 56th St NA,NA,NA,Pittsburgh,PA,NA,NA,NA,NA,NA,NA,NA,NA,NA,NA,NA,NA,NA,NA,NA,NA,NA,NA,NA,NA,40.483944,-79.947609,15201
NA,Shiv Oil Inc,NA,710 W 5th Ave NA,NA,NA,Mckeesport,PA,NA,NA,NA,NA,NA,NA,NA,NA,NA,NA,NA,NA,NA,NA,NA,NA,NA,NA,NA,NA,40.346626,-79.880852,15132
NA,Shiv Oil Inc,NA,449 Railroad St NA,NA,NA,Bridgeville,PA,NA,NA,NA,NA,NA,NA,NA,NA,NA,NA,NA,NA,NA,NA,NA,NA,NA,NA,NA,NA,40.357998,-80.110573,15017
NA,Shiv Oil Inc,NA,1600 S Braddock Ave NA,NA,NA,Pittsburgh,PA,NA,NA,NA,NA,NA,NA,NA,NA,NA,NA,NA,NA,NA,NA,NA,NA,NA,NA,NA,NA,40.427029,-79.89061,15218
NA,7-Eleven 36189H,NA,6250 Library Rd NA,NA,NA,Bethel Park,PA,NA,NA,NA,NA,NA,NA,NA,NA,NA,NA,NA,NA,NA,NA,NA,NA,NA,NA,NA,NA,40.293362,-80.030838,15102
NA,Jo-mar Provisions Inc.,NA,42 18th St NA,NA,NA,Pittsburgh,PA,NA,NA,NA,NA,NA,NA,NA,NA,NA,NA,NA,NA,NA,NA,NA,NA,NA,NA,NA,NA,40.450867,-79.98558,15222
NA,Carrick Pharmacy,NA,2717 Brownsville Rd NA,NA,NA,Pittsburgh,PA,NA,NA,NA,NA,NA,NA,NA,NA,NA,NA,NA,NA,NA,NA,NA,NA,NA,NA,NA,NA,40.383907,-79.977432,15227
NA,Bhangal Llc,NA,1003 Freeport Rd NA,NA,NA,Cheswick,PA,NA,NA,NA,NA,NA,NA,NA,NA,NA,NA,NA,NA,NA,NA,NA,NA,NA,NA,NA,NA,40.540619,-79.814148,15024
NA,Spice N Sabzi,NA,1528 Park Manor Blvd NA,NA,NA,Pittsburgh,PA,NA,NA,NA,NA,NA,NA,NA,NA,NA,NA,NA,NA,NA,NA,NA,NA,NA,NA,NA,NA,40.452492,-80.164642,15205
NA,Laxindia Inc.,NA,5439 Babcock Blvd Ste 105,NA,NA,Pittsburgh,PA,NA,NA,NA,NA,NA,NA,NA,NA,NA,NA,NA,NA,NA,NA,NA,NA,NA,NA,NA,NA,40.543308,-80.028641,15237
NA,Speedway 2911,NA,1200 Long Run Rd NA,NA,NA,White Oak,PA,NA,NA,NA,NA,NA,NA,NA,NA,NA,NA,NA,NA,NA,NA,NA,NA,NA,NA,NA,NA,40.333549,-79.812927,15131
NA,Bloomfield Bp,NA,4006 Liberty Ave NA,NA,NA,Pittsburgh,PA,NA,NA,NA,NA,NA,NA,NA,NA,NA,NA,NA,NA,NA,NA,NA,NA,NA,NA,NA,NA,40.462864,-79.956894,15224
NA,Ak&Ak United Inc dba Ak Schwartz Market,NA,1901 5th Ave NA,NA,NA,Pittsburgh,PA,NA,NA,NA,NA,NA,NA,NA,NA,NA,NA,NA,NA,NA,NA,NA,NA,NA,NA,NA,NA,40.438339,-79.979271,15219
NA,Brother Tom's Bakery,NA,808 Main St NA,NA,NA,Pittsburgh,PA,NA,NA,NA,NA,NA,NA,NA,NA,NA,NA,NA,NA,NA,NA,NA,NA,NA,NA,NA,NA,40.494648,-79.934189,15215
NA,Bombay Market,NA,4605 Centre Ave NA,NA,NA,Pittsburgh,PA,NA,NA,NA,NA,NA,NA,NA,NA,NA,NA,NA,NA,NA,NA,NA,NA,NA,NA,NA,NA,40.452007,-79.951736,15213
NA,Mary And Rick's Snack News & Lotto,NA,215 3rd St NA,NA,NA,Carnegie,PA,NA,NA,NA,NA,NA,NA,NA,NA,NA,NA,NA,NA,NA,NA,NA,NA,NA,NA,NA,NA,40.403557,-80.090126,15106
NA,Aldi 81,NA,3013 Washington Pike NA,NA,NA,Bridgeville,PA,NA,NA,NA,NA,NA,NA,NA,NA,NA,NA,NA,NA,NA,NA,NA,NA,NA,NA,NA,NA,40.354206,-80.114853,15017
NA,Sitaram Oil Corporation,NA,2000 S Braddock Ave NA,NA,NA,Pittsburgh,PA,NA,NA,NA,NA,NA,NA,NA,NA,NA,NA,NA,NA,NA,NA,NA,NA,NA,NA,NA,NA,40.421906,-79.885368,15218
NA,Dollar Tree 5840,NA,6009 Penn Ave NA,NA,NA,Pittsburgh,PA,NA,NA,NA,NA,NA,NA,NA,NA,NA,NA,NA,NA,NA,NA,NA,NA,NA,NA,NA,NA,40.461319,-79.924362,15206
NA,Speedway 2910,NA,5701 Grand Ave NA,NA,NA,Pittsburgh,PA,NA,NA,NA,NA,NA,NA,NA,NA,NA,NA,NA,NA,NA,NA,NA,NA,NA,NA,NA,NA,40.512531,-80.133705,15225
NA,Get Go 3057,NA,6514 Steubenville Pike NA,NA,NA,Pittsburgh,PA,NA,NA,NA,NA,NA,NA,NA,NA,NA,NA,NA,NA,NA,NA,NA,NA,NA,NA,NA,NA,40.448402,-80.161095,15205
NA,Hanini's Market,NA,2625 Brownsville Rd NA,NA,NA,Pittsburgh,PA,NA,NA,NA,NA,NA,NA,NA,NA,NA,NA,NA,NA,NA,NA,NA,NA,NA,NA,NA,NA,40.385017,-79.978188,15227
NA,Lucky Store,NA,5150 Butler St NA,NA,NA,Pittsburgh,PA,NA,NA,NA,NA,NA,NA,NA,NA,NA,NA,NA,NA,NA,NA,NA,NA,NA,NA,NA,NA,40.479794,-79.954781,15201
NA,Delucas Italian Bakery Inc,NA,546 Brookline Blvd NA,NA,NA,Pittsburgh,PA,NA,NA,NA,NA,NA,NA,NA,NA,NA,NA,NA,NA,NA,NA,NA,NA,NA,NA,NA,NA,40.395508,-80.022461,15226
NA,Big Lots 1140,NA,1701 Lincoln Hwy NA,NA,NA,North Versailles,PA,NA,NA,NA,NA,NA,NA,NA,NA,NA,NA,NA,NA,NA,NA,NA,NA,NA,NA,NA,NA,40.370407,-79.786102,15137
NA,Anytime Market Inc,NA,730 Broadway Ave NA,NA,NA,Mckees Rocks,PA,NA,NA,NA,NA,NA,NA,NA,NA,NA,NA,NA,NA,NA,NA,NA,NA,NA,NA,NA,NA,40.472862,-80.074417,15136
NA,Speedway 2906,NA,1700 Lincoln Hwy NA,NA,NA,North Versailles,PA,NA,NA,NA,NA,NA,NA,NA,NA,NA,NA,NA,NA,NA,NA,NA,NA,NA,NA,NA,NA,40.370361,-79.786156,15137
NA,Big Lots 1228,NA,1726 Pacific Ave NA,NA,NA,Natrona Heights,PA,NA,NA,NA,NA,NA,NA,NA,NA,NA,NA,NA,NA,NA,NA,NA,NA,NA,NA,NA,NA,40.621532,-79.723885,15065
NA,Big Lots 1880,NA,7005 Clairton Rd NA,NA,NA,West Mifflin,PA,NA,NA,NA,NA,NA,NA,NA,NA,NA,NA,NA,NA,NA,NA,NA,NA,NA,NA,NA,NA,40.345116,-79.93895,15122
NA,Big Lots 1951,NA,1155 Washington Pike NA,NA,NA,Bridgeville,PA,NA,NA,NA,NA,NA,NA,NA,NA,NA,NA,NA,NA,NA,NA,NA,NA,NA,NA,NA,NA,40.368595,-80.102608,15017
NA,Big Lots 5093,NA,4717 McKnight Rd NA,NA,NA,Pittsburgh,PA,NA,NA,NA,NA,NA,NA,NA,NA,NA,NA,NA,NA,NA,NA,NA,NA,NA,NA,NA,NA,40.517296,-80.004654,15237
NA,Trader Joe's 624,NA,9020 Covenant Ave NA,NA,NA,Pittsburgh,PA,NA,NA,NA,NA,NA,NA,NA,NA,NA,NA,NA,NA,NA,NA,NA,NA,NA,NA,NA,NA,40.570343,-80.021835,15237
NA,Cogo's,NA,2003 S Braddock Ave NA,NA,NA,Pittsburgh,PA,NA,NA,NA,NA,NA,NA,NA,NA,NA,NA,NA,NA,NA,NA,NA,NA,NA,NA,NA,NA,40.422104,-79.885483,15218
NA,Choice Tobacco Outlet Of Oakdale,NA,7859 Steubenville Pike NA,NA,NA,Oakdale,PA,NA,NA,NA,NA,NA,NA,NA,NA,NA,NA,NA,NA,NA,NA,NA,NA,NA,NA,NA,NA,40.4394,-80.210709,15071
NA,A & F LLC,NA,544 North Ave NA,NA,NA,Millvale,PA,NA,NA,NA,NA,NA,NA,NA,NA,NA,NA,NA,NA,NA,NA,NA,NA,NA,NA,NA,NA,40.484955,-79.972977,15209
NA,OM  Petro Inc T/A Sunoco,NA,1344 State Route 51 NA,NA,NA,Jefferson Hills,PA,NA,NA,NA,NA,NA,NA,NA,NA,NA,NA,NA,NA,NA,NA,NA,NA,NA,NA,NA,NA,40.306934,-79.935616,15025
NA,Just Harvest/Citiparks at City/County Bldg,NA,414 Grant St. NA,NA,NA,Pittsburgh,PA,NA,NA,NA,NA,NA,NA,NA,NA,NA,NA,NA,NA,NA,NA,NA,NA,NA,NA,NA,NA,40.43858,-79.997246,15219
NA,Waltmire Pharmacy,NA,1435 Spring Garden Ave NA,NA,NA,Pittsburgh,PA,NA,NA,NA,NA,NA,NA,NA,NA,NA,NA,NA,NA,NA,NA,NA,NA,NA,NA,NA,NA,40.462692,-79.98687,15212
NA,Cece's Farm Stand,NA,249 N Craig St NA,NA,NA,Pittsburgh,PA,NA,NA,NA,NA,NA,NA,NA,NA,NA,NA,NA,NA,NA,NA,NA,NA,NA,NA,NA,NA,40.451191,-79.951614,15213
NA,Dollar General 9350,NA,12818 Frankstown Rd NA,NA,NA,Pittsburgh,PA,NA,NA,NA,NA,NA,NA,NA,NA,NA,NA,NA,NA,NA,NA,NA,NA,NA,NA,NA,NA,40.480824,-79.822327,15235
NA,Diallo Family United Inc,NA,7520 Steubenville Pike NA,NA,NA,Oakdale,PA,NA,NA,NA,NA,NA,NA,NA,NA,NA,NA,NA,NA,NA,NA,NA,NA,NA,NA,NA,NA,40.441887,-80.201393,15071
NA,Sambok Korean Grocery,NA,1735 Penn Ave NA,NA,NA,Pittsburgh,PA,NA,NA,NA,NA,NA,NA,NA,NA,NA,NA,NA,NA,NA,NA,NA,NA,NA,NA,NA,NA,40.450336,-79.985168,15222
NA,Maruti Convenience LLC,NA,1100 Fawcett Ave NA,NA,NA,White Oak,PA,NA,NA,NA,NA,NA,NA,NA,NA,NA,NA,NA,NA,NA,NA,NA,NA,NA,NA,NA,NA,40.352627,-79.825722,15131
NA,Get Go 3650,NA,4900 Steubenville Pike NA,NA,NA,Pittsburgh,PA,NA,NA,NA,NA,NA,NA,NA,NA,NA,NA,NA,NA,NA,NA,NA,NA,NA,NA,NA,NA,40.448792,-80.105774,15205
NA,American Natural 2,NA,7338 Butler St NA,NA,NA,Pittsburgh,PA,NA,NA,NA,NA,NA,NA,NA,NA,NA,NA,NA,NA,NA,NA,NA,NA,NA,NA,NA,NA,40.487755,-79.919807,15206
NA,Dollar General 15784,NA,2301 Brownsville Rd NA,NA,NA,South Park,PA,NA,NA,NA,NA,NA,NA,NA,NA,NA,NA,NA,NA,NA,NA,NA,NA,NA,NA,NA,NA,40.298351,-79.994438,15129
NA,Dollar Tree 5828,NA,1516 Brighton Rd NA,NA,NA,Pittsburgh,PA,NA,NA,NA,NA,NA,NA,NA,NA,NA,NA,NA,NA,NA,NA,NA,NA,NA,NA,NA,NA,40.457397,-80.015732,15212
NA,Dollar Tree 6074,NA,7185 Saltsburg Rd NA,NA,NA,Pittsburgh,PA,NA,NA,NA,NA,NA,NA,NA,NA,NA,NA,NA,NA,NA,NA,NA,NA,NA,NA,NA,NA,40.476486,-79.788605,15235
NA,Get Go 3705,NA,410 Chestnut St NA,NA,NA,Carnegie,PA,NA,NA,NA,NA,NA,NA,NA,NA,NA,NA,NA,NA,NA,NA,NA,NA,NA,NA,NA,NA,40.409843,-80.082214,15106
NA,Aldi 93,NA,7221 McKnight Rd NA,NA,NA,Ross Township,PA,NA,NA,NA,NA,NA,NA,NA,NA,NA,NA,NA,NA,NA,NA,NA,NA,NA,NA,NA,NA,40.537319,-80.011223,15237
NA,Sai7086 Inc/DBA Wylie Tobacco,NA,3152 Wylie Ave NA,NA,NA,Pittsburgh,PA,NA,NA,NA,NA,NA,NA,NA,NA,NA,NA,NA,NA,NA,NA,NA,NA,NA,NA,NA,NA,40.446285,-79.975952,15219
NA,Frenchi's Deli,NA,449 Atwood St NA,NA,NA,Pittsburgh,PA,NA,NA,NA,NA,NA,NA,NA,NA,NA,NA,NA,NA,NA,NA,NA,NA,NA,NA,NA,NA,40.437183,-79.952705,15213
NA,7-Eleven Store 2701 35968A,NA,525 Perry Hwy NA,NA,NA,Pittsburgh,PA,NA,NA,NA,NA,NA,NA,NA,NA,NA,NA,NA,NA,NA,NA,NA,NA,NA,NA,NA,NA,40.522598,-80.034561,15229
NA,Aldi 96,NA,1160 Washington Ave NA,NA,NA,Carnegie,PA,NA,NA,NA,NA,NA,NA,NA,NA,NA,NA,NA,NA,NA,NA,NA,NA,NA,NA,NA,NA,40.396835,-80.084763,15106
NA,Rite Aid 6712,NA,100 Forbes Ave Ste 100,NA,NA,Pittsburgh,PA,NA,NA,NA,NA,NA,NA,NA,NA,NA,NA,NA,NA,NA,NA,NA,NA,NA,NA,NA,NA,40.441086,-80.003792,15222
NA,Linea Verde Green Market,NA,4619 Liberty Ave NA,NA,NA,Pittsburgh,PA,NA,NA,NA,NA,NA,NA,NA,NA,NA,NA,NA,NA,NA,NA,NA,NA,NA,NA,NA,NA,40.462345,-79.950264,15224
NA,Aldi 92,NA,5239 Brownsville Rd NA,NA,NA,Baldwin,PA,NA,NA,NA,NA,NA,NA,NA,NA,NA,NA,NA,NA,NA,NA,NA,NA,NA,NA,NA,NA,40.342377,-79.985191,15236
NA,Sheetz 582,NA,4723 William Penn Hwy NA,NA,NA,Monroeville,PA,NA,NA,NA,NA,NA,NA,NA,NA,NA,NA,NA,NA,NA,NA,NA,NA,NA,NA,NA,NA,40.434216,-79.732582,15146
NA,Ben Avon Mini Mart,NA,200 Division Ave NA,NA,NA,Pittsburgh,PA,NA,NA,NA,NA,NA,NA,NA,NA,NA,NA,NA,NA,NA,NA,NA,NA,NA,NA,NA,NA,40.503696,-80.074867,15202
NA,Green Grocer - Greater Pittsburgh Comm Food Bank,NA,1 N Linden St NA,NA,NA,Duquesne,PA,NA,NA,NA,NA,NA,NA,NA,NA,NA,NA,NA,NA,NA,NA,NA,NA,NA,NA,NA,NA,40.375511,-79.8433,15110
NA,Aldi 89,NA,300 Eden Park Blvd NA,NA,NA,McKeesport,PA,NA,NA,NA,NA,NA,NA,NA,NA,NA,NA,NA,NA,NA,NA,NA,NA,NA,NA,NA,NA,40.327381,-79.840118,15132
NA,Dollar 1 And Up,NA,744 Brookline Blvd NA,NA,NA,Pittsburgh,PA,NA,NA,NA,NA,NA,NA,NA,NA,NA,NA,NA,NA,NA,NA,NA,NA,NA,NA,NA,NA,40.393967,-80.020309,15226
NA,Aldi 90,NA,7350 Saltsburg Rd NA,NA,NA,Penn Hills,PA,NA,NA,NA,NA,NA,NA,NA,NA,NA,NA,NA,NA,NA,NA,NA,NA,NA,NA,NA,NA,40.477737,-79.785881,15235
NA,Dollar Tree 6173,NA,1615 Lincoln Way NA,NA,NA,White Oak,PA,NA,NA,NA,NA,NA,NA,NA,NA,NA,NA,NA,NA,NA,NA,NA,NA,NA,NA,NA,NA,40.34753,-79.816849,15131
NA,Big Lots 1993,NA,612 William Marks Way NA,NA,NA,Homestead,PA,NA,NA,NA,NA,NA,NA,NA,NA,NA,NA,NA,NA,NA,NA,NA,NA,NA,NA,NA,NA,40.409687,-79.901871,15120
NA,7-Eleven Store 2701 36124B,NA,1400 Radford Rd NA,NA,NA,Pittsburgh,PA,NA,NA,NA,NA,NA,NA,NA,NA,NA,NA,NA,NA,NA,NA,NA,NA,NA,NA,NA,NA,40.36401,-79.967728,15227
NA,"CIO Stores, LLC 11 11",NA,3739 Library Rd NA,NA,NA,Pittsburgh,PA,NA,NA,NA,NA,NA,NA,NA,NA,NA,NA,NA,NA,NA,NA,NA,NA,NA,NA,NA,NA,40.36451,-80.021362,15234
NA,City News Arcade,NA,418 Wood St NA,NA,NA,Pittsburgh,PA,NA,NA,NA,NA,NA,NA,NA,NA,NA,NA,NA,NA,NA,NA,NA,NA,NA,NA,NA,NA,40.439873,-80.000946,15222
NA,Uni-Mart,NA,830 Allegheny River Blvd NA,NA,NA,Oakmont,PA,NA,NA,NA,NA,NA,NA,NA,NA,NA,NA,NA,NA,NA,NA,NA,NA,NA,NA,NA,NA,40.524696,-79.840996,15139
NA,7-eleven Store 2701 36183A,NA,209 Ohio River Blvd NA,NA,NA,Sewickley,PA,NA,NA,NA,NA,NA,NA,NA,NA,NA,NA,NA,NA,NA,NA,NA,NA,NA,NA,NA,NA,40.544964,-80.193504,15143
NA,Shanthi Supermarket,NA,1008 Greentree Rd NA,NA,NA,Pittsburgh,PA,NA,NA,NA,NA,NA,NA,NA,NA,NA,NA,NA,NA,NA,NA,NA,NA,NA,NA,NA,NA,40.416588,-80.045036,15220
NA,Aldi 97,NA,127 E 7th Ave NA,NA,NA,Homestead,PA,NA,NA,NA,NA,NA,NA,NA,NA,NA,NA,NA,NA,NA,NA,NA,NA,NA,NA,NA,NA,40.407085,-79.911819,15120
NA,Haibouna Market Inc/Haibouna Market Inc,NA,7521 Washington Ave NA,NA,NA,Pittsburgh,PA,NA,NA,NA,NA,NA,NA,NA,NA,NA,NA,NA,NA,NA,NA,NA,NA,NA,NA,NA,NA,40.421143,-79.886414,15218
NA,ALDI 91,NA,5200 Penn Ave NA,NA,NA,Pittsburgh,PA,NA,NA,NA,NA,NA,NA,NA,NA,NA,NA,NA,NA,NA,NA,NA,NA,NA,NA,NA,NA,40.464542,-79.939735,15224
NA,Quality Foods Corp - DBA/ Kuhn's Market 5 5,NA,2413 Ferguson Rd NA,NA,NA,Allison Park,PA,NA,NA,NA,NA,NA,NA,NA,NA,NA,NA,NA,NA,NA,NA,NA,NA,NA,NA,NA,NA,40.555687,-79.971794,15101
NA,K & D LLC,NA,105 Seminary Ave Ste 108,NA,NA,Oakdale,PA,NA,NA,NA,NA,NA,NA,NA,NA,NA,NA,NA,NA,NA,NA,NA,NA,NA,NA,NA,NA,40.396637,-80.183594,15071
NA,Express Mini Mart Inc,NA,3518 Brownsville Rd NA,NA,NA,Pittsburgh,PA,NA,NA,NA,NA,NA,NA,NA,NA,NA,NA,NA,NA,NA,NA,NA,NA,NA,NA,NA,NA,40.374439,-79.975586,15227
NA,Stop N Shop,NA,10991 Frankstown Rd NA,NA,NA,Pittsburgh,PA,NA,NA,NA,NA,NA,NA,NA,NA,NA,NA,NA,NA,NA,NA,NA,NA,NA,NA,NA,NA,40.466434,-79.837959,15235
NA,TSP 201,NA,956 Greentree Rd NA,NA,NA,Pittsburgh,PA,NA,NA,NA,NA,NA,NA,NA,NA,NA,NA,NA,NA,NA,NA,NA,NA,NA,NA,NA,NA,40.419533,-80.046204,15220
NA,TSP 202,NA,2699 Mosside Blvd NA,NA,NA,Monroeville,PA,NA,NA,NA,NA,NA,NA,NA,NA,NA,NA,NA,NA,NA,NA,NA,NA,NA,NA,NA,NA,40.43362,-79.752831,15146
NA,TSP 213,NA,150 Route 30 NA,NA,NA,Oakdale,PA,NA,NA,NA,NA,NA,NA,NA,NA,NA,NA,NA,NA,NA,NA,NA,NA,NA,NA,NA,NA,40.440857,-80.238708,15071
NA,TSP 222,NA,2601 Freeport Rd NA,NA,NA,Pittsburgh,PA,NA,NA,NA,NA,NA,NA,NA,NA,NA,NA,NA,NA,NA,NA,NA,NA,NA,NA,NA,NA,40.536877,-79.839859,15238
NA,Family Dollar 11650,NA,642 Monongahela Ave NA,NA,NA,Glassport,PA,NA,NA,NA,NA,NA,NA,NA,NA,NA,NA,NA,NA,NA,NA,NA,NA,NA,NA,NA,NA,40.324791,-79.892509,15045
NA,TSP 203,NA,2022 Washington Pike NA,NA,NA,Heidelberg,PA,NA,NA,NA,NA,NA,NA,NA,NA,NA,NA,NA,NA,NA,NA,NA,NA,NA,NA,NA,NA,40.387978,-80.090469,15106
NA,Sj Retail Services Llc,NA,1704 Pennsylvania Ave NA,NA,NA,West Mifflin,PA,NA,NA,NA,NA,NA,NA,NA,NA,NA,NA,NA,NA,NA,NA,NA,NA,NA,NA,NA,NA,40.362118,-79.859055,15122
NA,Dollar Tree 6092,NA,713 E 8th Ave NA,NA,NA,Homestead,PA,NA,NA,NA,NA,NA,NA,NA,NA,NA,NA,NA,NA,NA,NA,NA,NA,NA,NA,NA,NA,40.409012,-79.903984,15120
NA,Jmart International Market,NA,1435 Potomac Ave NA,NA,NA,Pittsburgh,PA,NA,NA,NA,NA,NA,NA,NA,NA,NA,NA,NA,NA,NA,NA,NA,NA,NA,NA,NA,NA,40.395931,-80.034981,15216
NA,Manchester Growing Together Garden,NA,1436 Columbus Ave NA,NA,NA,Pittsburgh,PA,NA,NA,NA,NA,NA,NA,NA,NA,NA,NA,NA,NA,NA,NA,NA,NA,NA,NA,NA,NA,40.457478,-80.028847,15233
NA,Rite Aid 10914,NA,1700 Pine Hollow Rd NA,NA,NA,McKees Rocks,PA,NA,NA,NA,NA,NA,NA,NA,NA,NA,NA,NA,NA,NA,NA,NA,NA,NA,NA,NA,NA,40.475479,-80.097466,15136
NA,Dylamato's Market  LLC,NA,5414 2nd Ave NA,NA,NA,Pittsburgh,PA,NA,NA,NA,NA,NA,NA,NA,NA,NA,NA,NA,NA,NA,NA,NA,NA,NA,NA,NA,NA,40.402439,-79.941544,15207
NA,Choice Food Mart,NA,1855 Haymaker Rd NA,NA,NA,Monroeville,PA,NA,NA,NA,NA,NA,NA,NA,NA,NA,NA,NA,NA,NA,NA,NA,NA,NA,NA,NA,NA,40.391636,-79.765594,15146
NA,Bhangal Llc 2,NA,4616 McKnight Rd NA,NA,NA,Pittsburgh,PA,NA,NA,NA,NA,NA,NA,NA,NA,NA,NA,NA,NA,NA,NA,NA,NA,NA,NA,NA,NA,40.506248,-80.007523,15237
NA,Moon Township Farmer's Market,NA,1000 Beaver Grade Rd NA,NA,NA,Moon Township,PA,NA,NA,NA,NA,NA,NA,NA,NA,NA,NA,NA,NA,NA,NA,NA,NA,NA,NA,NA,NA,40.505177,-80.207275,15108
NA,Fuelland,NA,2373 Noblestown Rd NA,NA,NA,Pittsburgh,PA,NA,NA,NA,NA,NA,NA,NA,NA,NA,NA,NA,NA,NA,NA,NA,NA,NA,NA,NA,NA,40.426785,-80.056145,15205
NA,Speedway 2917,NA,4363 Broadway Blvd NA,NA,NA,Monroeville,PA,NA,NA,NA,NA,NA,NA,NA,NA,NA,NA,NA,NA,NA,NA,NA,NA,NA,NA,NA,NA,40.398506,-79.770157,15146
NA,Family Dollar 11291,NA,2928 Sheraden Blvd NA,NA,NA,Pittsburgh,PA,NA,NA,NA,NA,NA,NA,NA,NA,NA,NA,NA,NA,NA,NA,NA,NA,NA,NA,NA,NA,40.454086,-80.053947,15204
NA,Dollar General 16488,NA,2409 Rte 286 NA,NA,NA,Plum,PA,NA,NA,NA,NA,NA,NA,NA,NA,NA,NA,NA,NA,NA,NA,NA,NA,NA,NA,NA,NA,40.464756,-79.705376,15239
NA,Par Mar Store 67,NA,4732 Lebanon Church Rd NA,NA,NA,Dravosburg,PA,NA,NA,NA,NA,NA,NA,NA,NA,NA,NA,NA,NA,NA,NA,NA,NA,NA,NA,NA,NA,40.354931,-79.90052,15034
NA,7-eleven Store 2701-36154b 36154B,NA,1101 Brookline Blvd NA,NA,NA,Pittsburgh,PA,NA,NA,NA,NA,NA,NA,NA,NA,NA,NA,NA,NA,NA,NA,NA,NA,NA,NA,NA,NA,40.392017,-80.014915,15226
NA,"Juba Grocery Store, Llc",NA,2721 Brownsville Rd NA,NA,NA,Pittsburgh,PA,NA,NA,NA,NA,NA,NA,NA,NA,NA,NA,NA,NA,NA,NA,NA,NA,NA,NA,NA,NA,40.383789,-79.977356,15227
NA,Charlies New Convenience Store Inc,NA,500 Locust St NA,NA,NA,McKeesport,PA,NA,NA,NA,NA,NA,NA,NA,NA,NA,NA,NA,NA,NA,NA,NA,NA,NA,NA,NA,NA,40.351078,-79.863113,15132
NA,Sunoco,NA,427 Brownsville Rd NA,NA,NA,Pittsburgh,PA,NA,NA,NA,NA,NA,NA,NA,NA,NA,NA,NA,NA,NA,NA,NA,NA,NA,NA,NA,NA,40.412334,-79.989426,15210
NA,Saad United Inc,NA,1318 Federal Street NA,NA,NA,Pittsburgh,PA,NA,NA,NA,NA,NA,NA,NA,NA,NA,NA,NA,NA,NA,NA,NA,NA,NA,NA,NA,NA,40.457172,-80.007156,15212
NA,7-Eleven 36160J,NA,420 Smithfield St NA,NA,NA,Pittsburgh,PA,NA,NA,NA,NA,NA,NA,NA,NA,NA,NA,NA,NA,NA,NA,NA,NA,NA,NA,NA,NA,40.439144,-79.999237,15222
NA,Family Dollar 11619,NA,3215 Versailles Ave NA,NA,NA,McKeesport,PA,NA,NA,NA,NA,NA,NA,NA,NA,NA,NA,NA,NA,NA,NA,NA,NA,NA,NA,NA,NA,40.3451,-79.839432,15132
NA,Segtaf African Internal Market,NA,2817 Brownsville Rd NA,NA,NA,Pittsburgh,PA,NA,NA,NA,NA,NA,NA,NA,NA,NA,NA,NA,NA,NA,NA,NA,NA,NA,NA,NA,NA,40.38298,-79.97686,15227
NA,Lawrenceville Farmers' Market 0549590,NA,250 40th Street NA,NA,NA,Pittsburgh,PA,NA,NA,NA,NA,NA,NA,NA,NA,NA,NA,NA,NA,NA,NA,NA,NA,NA,NA,NA,NA,40.467499,-79.960869,15201
NA,"CIO Stores, LLC 17 17",NA,5735 Baum Blvd NA,NA,NA,Pittsburgh,PA,NA,NA,NA,NA,NA,NA,NA,NA,NA,NA,NA,NA,NA,NA,NA,NA,NA,NA,NA,NA,40.458771,-79.932533,15206
NA,Dollar Tree 6275,NA,937 Ohio Ave Ste A,NA,NA,Glassport,PA,NA,NA,NA,NA,NA,NA,NA,NA,NA,NA,NA,NA,NA,NA,NA,NA,NA,NA,NA,NA,40.319763,-79.890808,15045
NA,Prashant Mini Mart,NA,3646 Library Rd NA,NA,NA,Pittsburgh,PA,NA,NA,NA,NA,NA,NA,NA,NA,NA,NA,NA,NA,NA,NA,NA,NA,NA,NA,NA,NA,40.364918,-80.01944,15234
NA,Sheraden Minimart,NA,649 Hillsboro St NA,NA,NA,Pittsburgh,PA,NA,NA,NA,NA,NA,NA,NA,NA,NA,NA,NA,NA,NA,NA,NA,NA,NA,NA,NA,NA,40.453312,-80.053505,15204
NA,Dollar Tree 6413,NA,4680 Old William Penn Hwy NA,NA,NA,Monroeville,PA,NA,NA,NA,NA,NA,NA,NA,NA,NA,NA,NA,NA,NA,NA,NA,NA,NA,NA,NA,NA,40.440285,-79.742294,15146
NA,Saf Enterprise LLC/DBA White Oak Mini Mart,NA,1513 Lincoln Way NA,NA,NA,White Oak,PA,NA,NA,NA,NA,NA,NA,NA,NA,NA,NA,NA,NA,NA,NA,NA,NA,NA,NA,NA,NA,40.348915,-79.818016,15131
NA,Brooklyn Foodmart Corporation,NA,1500 Lincoln Ave NA,NA,NA,Pittsburgh,PA,NA,NA,NA,NA,NA,NA,NA,NA,NA,NA,NA,NA,NA,NA,NA,NA,NA,NA,NA,NA,40.468777,-79.895988,15206
NA,7-eleven Store 2701 36186A,NA,3915 William Flynn Hwy NA,NA,NA,Allison Park,PA,NA,NA,NA,NA,NA,NA,NA,NA,NA,NA,NA,NA,NA,NA,NA,NA,NA,NA,NA,NA,40.559368,-79.959244,15101
NA,Wilmerding Tobacco,NA,413 Commerce St NA,NA,NA,Wilmerding,PA,NA,NA,NA,NA,NA,NA,NA,NA,NA,NA,NA,NA,NA,NA,NA,NA,NA,NA,NA,NA,40.392666,-79.808846,15148
NA,5gb's Fresh Foods,NA,1100 Chartiers Ave NA,NA,NA,McKees Rocks,PA,NA,NA,NA,NA,NA,NA,NA,NA,NA,NA,NA,NA,NA,NA,NA,NA,NA,NA,NA,NA,40.465008,-80.068199,15136
NA,A & K Convenience Store Llc,NA,3459 Ward St NA,NA,NA,Pittsburgh,PA,NA,NA,NA,NA,NA,NA,NA,NA,NA,NA,NA,NA,NA,NA,NA,NA,NA,NA,NA,NA,40.436367,-79.954247,15213
NA,Pines Plaza Shop-n-save 21-1325,NA,1130 Perry Hwy NA,NA,NA,Pittsburgh,PA,NA,NA,NA,NA,NA,NA,NA,NA,NA,NA,NA,NA,NA,NA,NA,NA,NA,NA,NA,NA,40.547703,-80.03672,15237
NA,Groceria Merante,NA,3454 Bates St NA,NA,NA,Pittsburgh,PA,NA,NA,NA,NA,NA,NA,NA,NA,NA,NA,NA,NA,NA,NA,NA,NA,NA,NA,NA,NA,40.436619,-79.955414,15213
NA,"CIO Stores, LLC 19 19",NA,4100A Steubenville Pike NA,NA,NA,Pittsburgh,PA,NA,NA,NA,NA,NA,NA,NA,NA,NA,NA,NA,NA,NA,NA,NA,NA,NA,NA,NA,NA,40.440056,-80.084404,15205
NA,Sheetz 610,NA,211 Mount Nebo Rd NA,NA,NA,Pittsburgh,PA,NA,NA,NA,NA,NA,NA,NA,NA,NA,NA,NA,NA,NA,NA,NA,NA,NA,NA,NA,NA,40.531303,-80.07019,15237
NA,"Steel City Tobacco, Inc.",NA,819 Liberty Ave NA,NA,NA,Pittsburgh,PA,NA,NA,NA,NA,NA,NA,NA,NA,NA,NA,NA,NA,NA,NA,NA,NA,NA,NA,NA,NA,40.442886,-79.998291,15222
NA,Rahma Grocery And Halal Meat,NA,409 E Main St NA,NA,NA,Carnegie,PA,NA,NA,NA,NA,NA,NA,NA,NA,NA,NA,NA,NA,NA,NA,NA,NA,NA,NA,NA,NA,40.410366,-80.082191,15106
NA,Par Mar Store 75,NA,710 Brown Ave NA,NA,NA,Turtle Creek,PA,NA,NA,NA,NA,NA,NA,NA,NA,NA,NA,NA,NA,NA,NA,NA,NA,NA,NA,NA,NA,40.426041,-79.834785,15145
NA,CVS 10767,NA,4664 Browns Hill Rd NA,NA,NA,Pittsburgh,PA,NA,NA,NA,NA,NA,NA,NA,NA,NA,NA,NA,NA,NA,NA,NA,NA,NA,NA,NA,NA,40.414097,-79.923134,15217
NA,CVS 5103,NA,1003 California Ave NA,NA,NA,Natrona Heights,PA,NA,NA,NA,NA,NA,NA,NA,NA,NA,NA,NA,NA,NA,NA,NA,NA,NA,NA,NA,NA,40.618511,-79.732513,15065
NA,Happiness Is Homemade,NA,208 Brownsville Rd NA,NA,NA,Pittsburgh,PA,NA,NA,NA,NA,NA,NA,NA,NA,NA,NA,NA,NA,NA,NA,NA,NA,NA,NA,NA,NA,40.415642,-79.987312,15210
NA,Walmart Supercenter 4644,NA,7500 University Blvd NA,NA,NA,Moon Township,PA,NA,NA,NA,NA,NA,NA,NA,NA,NA,NA,NA,NA,NA,NA,NA,NA,NA,NA,NA,NA,40.51498,-80.222328,15108
NA,Quick Stop Sunco,NA,1640 Saw Mill Run Blvd NA,NA,NA,Pittsburgh,PA,NA,NA,NA,NA,NA,NA,NA,NA,NA,NA,NA,NA,NA,NA,NA,NA,NA,NA,NA,NA,40.399693,-80.000298,15210
NA,Giant Eagle 25,NA,1029 W View Park Dr Ste 2,NA,NA,Pittsburgh,PA,NA,NA,NA,NA,NA,NA,NA,NA,NA,NA,NA,NA,NA,NA,NA,NA,NA,NA,NA,NA,40.51685,-80.038673,15229
NA,Bob's Autotorium Inc,NA,1408 River Rd NA,NA,NA,Homestead,PA,NA,NA,NA,NA,NA,NA,NA,NA,NA,NA,NA,NA,NA,NA,NA,NA,NA,NA,NA,NA,40.403496,-79.88253,15120
NA,GIANT EAGLE 38,NA,1901 Murray Ave NA,NA,NA,Pittsburgh,PA,NA,NA,NA,NA,NA,NA,NA,NA,NA,NA,NA,NA,NA,NA,NA,NA,NA,NA,NA,NA,40.435654,-79.922806,15217
NA,Giant Eagle 63,NA,4250 Murray Ave NA,NA,NA,Pittsburgh,PA,NA,NA,NA,NA,NA,NA,NA,NA,NA,NA,NA,NA,NA,NA,NA,NA,NA,NA,NA,NA,40.422558,-79.928902,15217
NA,Giant Eagle 64,NA,3812 Oneil Blvd NA,NA,NA,McKeesport,PA,NA,NA,NA,NA,NA,NA,NA,NA,NA,NA,NA,NA,NA,NA,NA,NA,NA,NA,NA,NA,40.34758,-79.832298,15132
NA,Giant Eagle 65,NA,4110 Brighton Rd NA,NA,NA,Pittsburgh,PA,NA,NA,NA,NA,NA,NA,NA,NA,NA,NA,NA,NA,NA,NA,NA,NA,NA,NA,NA,NA,40.489925,-80.043709,15212
NA,Dollar General Store 17160,NA,1227 State Route 837 NA,NA,NA,Jefferson Hills,PA,NA,NA,NA,NA,NA,NA,NA,NA,NA,NA,NA,NA,NA,NA,NA,NA,NA,NA,NA,NA,40.315754,-79.897614,15025
NA,Betts Market,NA,819 Brushton Ave NA,NA,NA,Pittsburgh,PA,NA,NA,NA,NA,NA,NA,NA,NA,NA,NA,NA,NA,NA,NA,NA,NA,NA,NA,NA,NA,40.455303,-79.888222,15208
NA,Route 8 Shop N Save,NA,5375 William Flynn Hwy NA,NA,NA,Gibsonia,PA,NA,NA,NA,NA,NA,NA,NA,NA,NA,NA,NA,NA,NA,NA,NA,NA,NA,NA,NA,NA,40.619602,-79.944672,15044
NA,Get Go 3060,NA,4000 Monroeville Blvd NA,NA,NA,Monroeville,PA,NA,NA,NA,NA,NA,NA,NA,NA,NA,NA,NA,NA,NA,NA,NA,NA,NA,NA,NA,NA,40.436123,-79.772331,15146
NA,Get Go 3130,NA,1636 Cochran Rd NA,NA,NA,Pittsburgh,PA,NA,NA,NA,NA,NA,NA,NA,NA,NA,NA,NA,NA,NA,NA,NA,NA,NA,NA,NA,NA,40.391975,-80.061203,15220
NA,Get Go 3137,NA,8A Quaker Village Shopping Ctr NA,NA,NA,Leetsdale,PA,NA,NA,NA,NA,NA,NA,NA,NA,NA,NA,NA,NA,NA,NA,NA,NA,NA,NA,NA,NA,40.558002,-80.204521,15056
NA,Get Go 3379,NA,430 E Waterfront Dr NA,NA,NA,Homestead,PA,NA,NA,NA,NA,NA,NA,NA,NA,NA,NA,NA,NA,NA,NA,NA,NA,NA,NA,NA,NA,40.412579,-79.909561,15120
NA,Boston Mini Mart,NA,2630 Coulterville Rd NA,NA,NA,Mckeesport,PA,NA,NA,NA,NA,NA,NA,NA,NA,NA,NA,NA,NA,NA,NA,NA,NA,NA,NA,NA,NA,40.312347,-79.781204,15132
NA,Pittsburgh Commissary,NA,79 Soldiers Ln NA,NA,NA,Coraopolis,PA,NA,NA,NA,NA,NA,NA,NA,NA,NA,NA,NA,NA,NA,NA,NA,NA,NA,NA,NA,NA,40.501102,-80.217125,15108
NA,COMMUNITY SUPER MKT INC,NA,1117 Milltown Rd NA,NA,NA,Verona,PA,NA,NA,NA,NA,NA,NA,NA,NA,NA,NA,NA,NA,NA,NA,NA,NA,NA,NA,NA,NA,40.498421,-79.789978,15147
NA,CORAOPOLIS CASH MARKET,NA,1017 4th Ave NA,NA,NA,Coraopolis,PA,NA,NA,NA,NA,NA,NA,NA,NA,NA,NA,NA,NA,NA,NA,NA,NA,NA,NA,NA,NA,40.518116,-80.162888,15108
NA,YETTER'S DAIRY,NA,504 Grant Ave NA,NA,NA,Pittsburgh,PA,NA,NA,NA,NA,NA,NA,NA,NA,NA,NA,NA,NA,NA,NA,NA,NA,NA,NA,NA,NA,40.480484,-79.974129,15209
NA,LEONARD LABRIOLA FOODS,NA,121 Hulton Rd NA,NA,NA,Verona,PA,NA,NA,NA,NA,NA,NA,NA,NA,NA,NA,NA,NA,NA,NA,NA,NA,NA,NA,NA,NA,40.484501,-79.819595,15147
NA,KEN'S CONFECTIONARY,NA,216 Beltzhoover Ave NA,NA,NA,Pittsburgh,PA,NA,NA,NA,NA,NA,NA,NA,NA,NA,NA,NA,NA,NA,NA,NA,NA,NA,NA,NA,NA,40.420097,-79.997398,15210
NA,A-PLUS MINI MART,NA,3100 W Liberty Ave NA,NA,NA,Pittsburgh,PA,NA,NA,NA,NA,NA,NA,NA,NA,NA,NA,NA,NA,NA,NA,NA,NA,NA,NA,NA,NA,40.391376,-80.038971,15216
NA,RUSSELLTON SHOP N SAVE,NA,908 LITTLE DEER CREEK VALLEY NA,NA,NA,RUSSELLTON,PA,NA,NA,NA,NA,NA,NA,NA,NA,NA,NA,NA,NA,NA,NA,NA,NA,NA,NA,NA,NA,40.607555,-79.833443,15076
NA,Giant Eagle 77,NA,254 Yost Blvd NA,NA,NA,Pittsburgh,PA,NA,NA,NA,NA,NA,NA,NA,NA,NA,NA,NA,NA,NA,NA,NA,NA,NA,NA,NA,NA,40.413532,-79.853539,15221
NA,EAST END FOOD CO-OP,NA,7516 Meade St NA,NA,NA,Pittsburgh,PA,NA,NA,NA,NA,NA,NA,NA,NA,NA,NA,NA,NA,NA,NA,NA,NA,NA,NA,NA,NA,40.448402,-79.895882,15208
NA,APlus 40243,NA,310 Cedar Ave NA,NA,NA,Pittsburgh,PA,NA,NA,NA,NA,NA,NA,NA,NA,NA,NA,NA,NA,NA,NA,NA,NA,NA,NA,NA,NA,40.451099,-80.000877,15212
NA,Pleasant Hills Shop N Save,NA,649 Old Clairton Rd NA,NA,NA,Pittsburgh,PA,NA,NA,NA,NA,NA,NA,NA,NA,NA,NA,NA,NA,NA,NA,NA,NA,NA,NA,NA,NA,40.324081,-79.957176,15236
NA,Super Mart Braddock,NA,524 Braddock Ave NA,NA,NA,Braddock,PA,NA,NA,NA,NA,NA,NA,NA,NA,NA,NA,NA,NA,NA,NA,NA,NA,NA,NA,NA,NA,40.403988,-79.869644,15104
NA,Sheetz 617,NA,2615 Nicholson Rd NA,NA,NA,Sewickley,PA,NA,NA,NA,NA,NA,NA,NA,NA,NA,NA,NA,NA,NA,NA,NA,NA,NA,NA,NA,NA,40.612438,-80.099915,15143
NA,Whole Foods Market 10242,NA,111 Siena Dr NA,NA,NA,Upper St Clair,PA,NA,NA,NA,NA,NA,NA,NA,NA,NA,NA,NA,NA,NA,NA,NA,NA,NA,NA,NA,NA,40.317978,-80.110641,15241
NA,CoGo's 812,NA,1501 N Canal St NA,NA,NA,Sharpsburg,PA,NA,NA,NA,NA,NA,NA,NA,NA,NA,NA,NA,NA,NA,NA,NA,NA,NA,NA,NA,NA,40.496571,-79.926498,15215
NA,Sheetz 619,NA,2871 Freeport Rd NA,NA,NA,Pittsburgh,PA,NA,NA,NA,NA,NA,NA,NA,NA,NA,NA,NA,NA,NA,NA,NA,NA,NA,NA,NA,NA,40.538578,-79.830887,15238
NA,VICTORIA'S DAIRY,NA,1716 Lowrie St NA,NA,NA,Pittsburgh,PA,NA,NA,NA,NA,NA,NA,NA,NA,NA,NA,NA,NA,NA,NA,NA,NA,NA,NA,NA,NA,40.463951,-79.982536,15212
NA,APlus 40225,NA,300 Grant Ave NA,NA,NA,Millvale,PA,NA,NA,NA,NA,NA,NA,NA,NA,NA,NA,NA,NA,NA,NA,NA,NA,NA,NA,NA,NA,40.479347,-79.972008,15209
NA,Mckees Mart,NA,3111 Walnut St NA,NA,NA,McKeesport,PA,NA,NA,NA,NA,NA,NA,NA,NA,NA,NA,NA,NA,NA,NA,NA,NA,NA,NA,NA,NA,40.330902,-79.843445,15132
NA,BELL'S MARKET,NA,603 Braddock Ave NA,NA,NA,Braddock,PA,NA,NA,NA,NA,NA,NA,NA,NA,NA,NA,NA,NA,NA,NA,NA,NA,NA,NA,NA,NA,40.403114,-79.868301,15104
NA,JOE'S BUTCHER SHOP,NA,502 Broadway NA,NA,NA,Pitcairn,PA,NA,NA,NA,NA,NA,NA,NA,NA,NA,NA,NA,NA,NA,NA,NA,NA,NA,NA,NA,NA,40.401833,-79.77771,15140
NA,KUHN'S MARKET,NA,1130 Highwood St NA,NA,NA,Pittsburgh,PA,NA,NA,NA,NA,NA,NA,NA,NA,NA,NA,NA,NA,NA,NA,NA,NA,NA,NA,NA,NA,40.468269,-80.026123,15212
NA,Giant Eagle 91,NA,318 Cedar Ave NA,NA,NA,Pittsburgh,PA,NA,NA,NA,NA,NA,NA,NA,NA,NA,NA,NA,NA,NA,NA,NA,NA,NA,NA,NA,NA,40.45145,-80.001038,15212
NA,Kajal Oil And Gas Inc 001,NA,127 McMurray Rd NA,NA,NA,Pittsburgh,PA,NA,NA,NA,NA,NA,NA,NA,NA,NA,NA,NA,NA,NA,NA,NA,NA,NA,NA,NA,NA,40.326485,-80.065742,15241
NA,Deann Groceria Distribution Center,NA,207 Brownsville Rd NA,NA,NA,Pittsburgh,PA,NA,NA,NA,NA,NA,NA,NA,NA,NA,NA,NA,NA,NA,NA,NA,NA,NA,NA,NA,NA,40.415607,-79.987251,15210
NA,DECARLO FRUIT MARKET,NA,560 McKeesport Rd NA,NA,NA,Elizabeth,PA,NA,NA,NA,NA,NA,NA,NA,NA,NA,NA,NA,NA,NA,NA,NA,NA,NA,NA,NA,NA,40.27644,-79.878311,15037
NA,Wall Avenue Express,NA,417 Wall Ave NA,NA,NA,Pitcairn,PA,NA,NA,NA,NA,NA,NA,NA,NA,NA,NA,NA,NA,NA,NA,NA,NA,NA,NA,NA,NA,40.403664,-79.780479,15140
NA,MT WASHINGTON FOODLAND,NA,125 Virginia Ave NA,NA,NA,Mount Washington,PA,NA,NA,NA,NA,NA,NA,NA,NA,NA,NA,NA,NA,NA,NA,NA,NA,NA,NA,NA,NA,40.429771,-80.008003,15211
NA,Iffat Syed,NA,625 Stanwix St NA,NA,NA,Pittsburgh,PA,NA,NA,NA,NA,NA,NA,NA,NA,NA,NA,NA,NA,NA,NA,NA,NA,NA,NA,NA,NA,40.442905,-80.004478,15222
NA,412 Food Rescue - Broad St,NA,6022 Broad St NA,NA,NA,Pittsburgh,PA,NA,NA,NA,NA,NA,NA,NA,NA,NA,NA,NA,NA,NA,NA,NA,NA,NA,NA,NA,NA,40.462124,-79.923492,15206
NA,Right Market Two Inc,NA,10045 Frankstown Rd NA,NA,NA,Pittsburgh,PA,NA,NA,NA,NA,NA,NA,NA,NA,NA,NA,NA,NA,NA,NA,NA,NA,NA,NA,NA,NA,40.464916,-79.853836,15235
NA,Farm Fresh Market Of Pittsburgh Inc,NA,226 N Negley Ave NA,NA,NA,Pittsburgh,PA,NA,NA,NA,NA,NA,NA,NA,NA,NA,NA,NA,NA,NA,NA,NA,NA,NA,NA,NA,NA,40.465454,-79.929451,15206
NA,Giant Eagle 67,NA,8080 McIntyre Sq Dr NA,NA,NA,PITTSBURGH,PA,NA,NA,NA,NA,NA,NA,NA,NA,NA,NA,NA,NA,NA,NA,NA,NA,NA,NA,NA,NA,40.55695,-80.018333,15237
NA,CoGo's 346,NA,3439 W Run Rd NA,NA,NA,West Homestead,PA,NA,NA,NA,NA,NA,NA,NA,NA,NA,NA,NA,NA,NA,NA,NA,NA,NA,NA,NA,NA,40.388477,-79.909271,15120
NA,PRESTOGEORGE FINE FOODS,NA,1719 Penn Ave NA,NA,NA,Pittsburgh,PA,NA,NA,NA,NA,NA,NA,NA,NA,NA,NA,NA,NA,NA,NA,NA,NA,NA,NA,NA,NA,40.450035,-79.985603,15222
NA,J L Kennedy Meat Stand,NA,344 N Sheridan Ave NA,NA,NA,Pittsburgh,PA,NA,NA,NA,NA,NA,NA,NA,NA,NA,NA,NA,NA,NA,NA,NA,NA,NA,NA,NA,NA,40.464432,-79.921524,15206
NA,Sheraden Shoppe N Kitchen,NA,2827 Chartiers Ave NA,NA,NA,Pittsburgh,PA,NA,NA,NA,NA,NA,NA,NA,NA,NA,NA,NA,NA,NA,NA,NA,NA,NA,NA,NA,NA,40.453438,-80.054932,15204
NA,TOM FRIDAY'S MARKET,NA,3639 California Ave NA,NA,NA,Pittsburgh,PA,NA,NA,NA,NA,NA,NA,NA,NA,NA,NA,NA,NA,NA,NA,NA,NA,NA,NA,NA,NA,40.48127,-80.041527,15212
NA,Quick Sub Mart,NA,164 Freeport Rd NA,NA,NA,Pittsburgh,PA,NA,NA,NA,NA,NA,NA,NA,NA,NA,NA,NA,NA,NA,NA,NA,NA,NA,NA,NA,NA,40.491398,-79.866074,15238
NA,Gk Foodmart Inc.,NA,1026 Walnut St Ste 1,NA,NA,Mckeesport,PA,NA,NA,NA,NA,NA,NA,NA,NA,NA,NA,NA,NA,NA,NA,NA,NA,NA,NA,NA,NA,40.345345,-79.863747,15132
NA,Buttermilk Hollow Foodland,NA,4647 Buttermilk Hollow Rd NA,NA,NA,West Mifflin,PA,NA,NA,NA,NA,NA,NA,NA,NA,NA,NA,NA,NA,NA,NA,NA,NA,NA,NA,NA,NA,40.361752,-79.9076,15122
NA,Green Tree Farmer's Market In The Park,NA,905 Greentree Rd NA,NA,NA,Pittsburgh,PA,NA,NA,NA,NA,NA,NA,NA,NA,NA,NA,NA,NA,NA,NA,NA,NA,NA,NA,NA,NA,40.422939,-80.044937,15220
NA,Brownsville Road Foodland,NA,1119 Brownsville Rd NA,NA,NA,Pittsburgh,PA,NA,NA,NA,NA,NA,NA,NA,NA,NA,NA,NA,NA,NA,NA,NA,NA,NA,NA,NA,NA,40.404678,-79.990402,15210
NA,Clairton Farmers Market,NA,412 Saint Clair Ave NA,NA,NA,Clairton,PA,NA,NA,NA,NA,NA,NA,NA,NA,NA,NA,NA,NA,NA,NA,NA,NA,NA,NA,NA,NA,40.292633,-79.883789,15025
NA,WEISS MEATS,NA,100 Terence Dr NA,NA,NA,Pittsburgh,PA,NA,NA,NA,NA,NA,NA,NA,NA,NA,NA,NA,NA,NA,NA,NA,NA,NA,NA,NA,NA,40.331169,-79.972748,15236
NA,Speedy Food Mart,NA,557 James St NA,NA,NA,Turtle Creek,PA,NA,NA,NA,NA,NA,NA,NA,NA,NA,NA,NA,NA,NA,NA,NA,NA,NA,NA,NA,NA,40.41238,-79.81855,15145
NA,Giant Eagle 45,NA,9805 McKnight Rd Ste 6,NA,NA,Pittsburgh,PA,NA,NA,NA,NA,NA,NA,NA,NA,NA,NA,NA,NA,NA,NA,NA,NA,NA,NA,NA,NA,40.585663,-80.036606,15237
NA,Family Dollar 11688,NA,1200 Swissvale Ave NA,NA,NA,Pittsburgh,PA,NA,NA,NA,NA,NA,NA,NA,NA,NA,NA,NA,NA,NA,NA,NA,NA,NA,NA,NA,NA,40.443134,-79.876694,15221
NA,Dollar Tree 7202,NA,2860 Wildwood Road Ext NA,NA,NA,Allison Park,PA,NA,NA,NA,NA,NA,NA,NA,NA,NA,NA,NA,NA,NA,NA,NA,NA,NA,NA,NA,NA,40.590294,-79.946892,15101
NA,7-eleven Store 2701 36191A,NA,8136 Ohio River Blvd NA,NA,NA,Pittsburgh,PA,NA,NA,NA,NA,NA,NA,NA,NA,NA,NA,NA,NA,NA,NA,NA,NA,NA,NA,NA,NA,40.510258,-80.094368,15202
NA,"CIO Stores, LLC 18 18",NA,5340 Perry Hwy NA,NA,NA,Pittsburgh,PA,NA,NA,NA,NA,NA,NA,NA,NA,NA,NA,NA,NA,NA,NA,NA,NA,NA,NA,NA,NA,40.510017,-80.029587,15229
NA,Giant Eagle 17,NA,6320 Shakespeare St NA,NA,NA,Pittsburgh,PA,NA,NA,NA,NA,NA,NA,NA,NA,NA,NA,NA,NA,NA,NA,NA,NA,NA,NA,NA,NA,40.459026,-79.920929,15206
NA,CoGo's 801,NA,1709 Saw Mill Run Blvd NA,NA,NA,Pittsburgh,PA,NA,NA,NA,NA,NA,NA,NA,NA,NA,NA,NA,NA,NA,NA,NA,NA,NA,NA,NA,NA,40.396244,-79.99807,15210
NA,Galaxy Supermarket Inc,NA,801 Broadway Ave NA,NA,NA,McKees Rocks,PA,NA,NA,NA,NA,NA,NA,NA,NA,NA,NA,NA,NA,NA,NA,NA,NA,NA,NA,NA,NA,40.472935,-80.074753,15136
NA,Dhale Market Inc,NA,811 Wood St NA,NA,NA,Pittsburgh,PA,NA,NA,NA,NA,NA,NA,NA,NA,NA,NA,NA,NA,NA,NA,NA,NA,NA,NA,NA,NA,40.442406,-79.885498,15221
NA,7-Eleven Store 2701-36205J 36205J,NA,6016 Saltsburg Rd NA,NA,NA,Verona,PA,NA,NA,NA,NA,NA,NA,NA,NA,NA,NA,NA,NA,NA,NA,NA,NA,NA,NA,NA,NA,40.483887,-79.820694,15147
NA,CoGo's 777,NA,20 Bailey Ave NA,NA,NA,Pittsburgh,PA,NA,NA,NA,NA,NA,NA,NA,NA,NA,NA,NA,NA,NA,NA,NA,NA,NA,NA,NA,NA,40.426968,-80.005051,15211
NA,Family Dollar 11387,NA,8184 Frankstown Ave NA,NA,NA,Pittsburgh,PA,NA,NA,NA,NA,NA,NA,NA,NA,NA,NA,NA,NA,NA,NA,NA,NA,NA,NA,NA,NA,40.45509,-79.881325,15221
NA,FUZZY'S MARKET,NA,426 6th St NA,NA,NA,Glassport,PA,NA,NA,NA,NA,NA,NA,NA,NA,NA,NA,NA,NA,NA,NA,NA,NA,NA,NA,NA,NA,40.325966,-79.889977,15045
NA,Desi Market,NA,2122 Brownsville Rd Ste 1,NA,NA,Pittsburgh,PA,NA,NA,NA,NA,NA,NA,NA,NA,NA,NA,NA,NA,NA,NA,NA,NA,NA,NA,NA,NA,40.392368,-79.986649,15210
NA,Oakland Farmers Market,NA,8889 Schenley Drive Extension NA,NA,NA,Pittsburgh,PA,NA,NA,NA,NA,NA,NA,NA,NA,NA,NA,NA,NA,NA,NA,NA,NA,NA,NA,NA,NA,40.442947,-79.951889,15260
NA,Family Dollar 11692,NA,3210 Brighton Rd NA,NA,NA,Pittsburgh,PA,NA,NA,NA,NA,NA,NA,NA,NA,NA,NA,NA,NA,NA,NA,NA,NA,NA,NA,NA,NA,40.475876,-80.031197,15212
NA,MANTSCH BLUE BONNET BAKERY,NA,338 E 8th Ave NA,NA,NA,Homestead,PA,NA,NA,NA,NA,NA,NA,NA,NA,NA,NA,NA,NA,NA,NA,NA,NA,NA,NA,NA,NA,40.408653,-79.907669,15120
NA,"ROBERT WHOLEY CO., INC.",NA,1711 Penn Ave NA,NA,NA,Pittsburgh,PA,NA,NA,NA,NA,NA,NA,NA,NA,NA,NA,NA,NA,NA,NA,NA,NA,NA,NA,NA,NA,40.449944,-79.985756,15222
NA,Sheetz 629,NA,5554 Steubenville Pike NA,NA,NA,McKees Rocks,PA,NA,NA,NA,NA,NA,NA,NA,NA,NA,NA,NA,NA,NA,NA,NA,NA,NA,NA,NA,NA,40.450958,-80.127953,15136
NA,White Oak Giant Eagle,NA,2001 Lincoln Way NA,NA,NA,White Oak,PA,NA,NA,NA,NA,NA,NA,NA,NA,NA,NA,NA,NA,NA,NA,NA,NA,NA,NA,NA,NA,40.337402,-79.80867,15131
NA,Dollar General Store 18057,NA,93 Joseph St NA,NA,NA,Pittsburgh,PA,NA,NA,NA,NA,NA,NA,NA,NA,NA,NA,NA,NA,NA,NA,NA,NA,NA,NA,NA,NA,40.389996,-79.965088,15227
NA,CoGo's 817,NA,2800 Brownsville Rd NA,NA,NA,Pittsburgh,PA,NA,NA,NA,NA,NA,NA,NA,NA,NA,NA,NA,NA,NA,NA,NA,NA,NA,NA,NA,NA,40.383484,-79.977242,15227
NA,Sheetz 631,NA,1002 California Ave NA,NA,NA,Natrona Heights,PA,NA,NA,NA,NA,NA,NA,NA,NA,NA,NA,NA,NA,NA,NA,NA,NA,NA,NA,NA,NA,40.618546,-79.73246,15065
NA,Suluv Deli & Grocery Inc. 1,NA,1303 Brownsville Rd NA,NA,NA,Pittsburgh,PA,NA,NA,NA,NA,NA,NA,NA,NA,NA,NA,NA,NA,NA,NA,NA,NA,NA,NA,NA,NA,40.402664,-79.989548,15210
NA,KUHNS MARKET,NA,661 Lincoln Ave NA,NA,NA,Bellevue,PA,NA,NA,NA,NA,NA,NA,NA,NA,NA,NA,NA,NA,NA,NA,NA,NA,NA,NA,NA,NA,40.497795000000004,-80.060165,15202
NA,Bellevue Farmers Market,NA,34 N Balph Ave NA,NA,NA,Pittsburgh,PA,NA,NA,NA,NA,NA,NA,NA,NA,NA,NA,NA,NA,NA,NA,NA,NA,NA,NA,NA,NA,40.4967,-80.054756,15202
NA,Dollar General 17870,NA,420 Scenery Dr NA,NA,NA,Elizabeth,PA,NA,NA,NA,NA,NA,NA,NA,NA,NA,NA,NA,NA,NA,NA,NA,NA,NA,NA,NA,NA,40.276772,-79.837517,15037
NA,Hair Land Inc,NA,723 Penn Ave NA,NA,NA,Wilkinsburg,PA,NA,NA,NA,NA,NA,NA,NA,NA,NA,NA,NA,NA,NA,NA,NA,NA,NA,NA,NA,NA,40.443436,-79.883888,15221
NA,Safran s Super Market,NA,429 Walnut St NA,NA,NA,Sewickley,PA,NA,NA,NA,NA,NA,NA,NA,NA,NA,NA,NA,NA,NA,NA,NA,NA,NA,NA,NA,NA,40.540813,-80.182083,15143
NA,Shree Anika Inc,NA,2700 Mosside Blvd NA,NA,NA,Monroeville,PA,NA,NA,NA,NA,NA,NA,NA,NA,NA,NA,NA,NA,NA,NA,NA,NA,NA,NA,NA,NA,40.434181,-79.75354,15146
NA,DELI-ICIOUS CATERING INC,NA,500 Station St NA,NA,NA,Wilmerding,PA,NA,NA,NA,NA,NA,NA,NA,NA,NA,NA,NA,NA,NA,NA,NA,NA,NA,NA,NA,NA,40.393288,-79.810013,15148
NA,Market On Lincoln Ave Inc,NA,1407 Lincoln Ave NA,NA,NA,Pittsburgh,PA,NA,NA,NA,NA,NA,NA,NA,NA,NA,NA,NA,NA,NA,NA,NA,NA,NA,NA,NA,NA,40.46817,-79.89679,15206
NA,Sweet Panda Asian Market,NA,114 S 23rd St NA,NA,NA,Pittsburgh,PA,NA,NA,NA,NA,NA,NA,NA,NA,NA,NA,NA,NA,NA,NA,NA,NA,NA,NA,NA,NA,40.427517,-79.973145,15203
NA,7-eleven Store 2701-36138a 36138A,NA,740 W Ingomar Rd NA,NA,NA,Pittsburgh,PA,NA,NA,NA,NA,NA,NA,NA,NA,NA,NA,NA,NA,NA,NA,NA,NA,NA,NA,NA,NA,40.581589,-80.055038,15237
NA,Pittsburgh Urban Gardening Project,NA,1612 E Steuben St NA,NA,NA,Pittsburgh,PA,NA,NA,NA,NA,NA,NA,NA,NA,NA,NA,NA,NA,NA,NA,NA,NA,NA,NA,NA,NA,40.443726,-80.056137,15205
NA,Speedway 2926,NA,222 State St NA,NA,NA,Clairton,PA,NA,NA,NA,NA,NA,NA,NA,NA,NA,NA,NA,NA,NA,NA,NA,NA,NA,NA,NA,NA,40.299042,-79.875786,15025
NA,Dollar General 17869,NA,2610 S Braddock Ave NA,NA,NA,Swissvale,PA,NA,NA,NA,NA,NA,NA,NA,NA,NA,NA,NA,NA,NA,NA,NA,NA,NA,NA,NA,NA,40.414993,-79.876747,15218
NA,CVS 4051,NA,1740 Washington Rd NA,NA,NA,Pittsburgh,PA,NA,NA,NA,NA,NA,NA,NA,NA,NA,NA,NA,NA,NA,NA,NA,NA,NA,NA,NA,NA,40.347225,-80.05468,15241
NA,Dollar General 19273,NA,3600 Walnut St NA,NA,NA,McKeesport,PA,NA,NA,NA,NA,NA,NA,NA,NA,NA,NA,NA,NA,NA,NA,NA,NA,NA,NA,NA,NA,40.327644,-79.840454,15132
NA,Dollar General 19008,NA,1215 Brighton Rd NA,NA,NA,Pittsburgh,PA,NA,NA,NA,NA,NA,NA,NA,NA,NA,NA,NA,NA,NA,NA,NA,NA,NA,NA,NA,NA,40.454773,-80.014885,15233
NA,Kingz Korner Market,NA,1417 N Lang Ave NA,NA,NA,Pittsburgh,PA,NA,NA,NA,NA,NA,NA,NA,NA,NA,NA,NA,NA,NA,NA,NA,NA,NA,NA,NA,NA,40.462612,-79.897598,15208
NA,Cousins Market,NA,1694 Laketon Rd NA,NA,NA,Pittsburgh,PA,NA,NA,NA,NA,NA,NA,NA,NA,NA,NA,NA,NA,NA,NA,NA,NA,NA,NA,NA,NA,40.449059,-79.867775,15221
NA,Sams Market Inc,NA,7356 Stranahan St NA,NA,NA,Pittsburgh,PA,NA,NA,NA,NA,NA,NA,NA,NA,NA,NA,NA,NA,NA,NA,NA,NA,NA,NA,NA,NA,40.461655,-79.889992,15206
NA,Stop N Shop,NA,322 Helen St NA,NA,NA,McKees Rocks,PA,NA,NA,NA,NA,NA,NA,NA,NA,NA,NA,NA,NA,NA,NA,NA,NA,NA,NA,NA,NA,40.474674,-80.057808,15136
NA,Arlington Mart Llc,NA,2208 Arlington Ave NA,NA,NA,Pittsburgh,PA,NA,NA,NA,NA,NA,NA,NA,NA,NA,NA,NA,NA,NA,NA,NA,NA,NA,NA,NA,NA,40.417149,-79.975533,15210
NA,Clairton Mini Mart Inc,NA,540 Saint Clair Ave NA,NA,NA,Clairton,PA,NA,NA,NA,NA,NA,NA,NA,NA,NA,NA,NA,NA,NA,NA,NA,NA,NA,NA,NA,NA,40.293232,-79.887077,15025
NA,Family Dollar 11553,NA,1111 Lincoln Ave NA,NA,NA,Pittsburgh,PA,NA,NA,NA,NA,NA,NA,NA,NA,NA,NA,NA,NA,NA,NA,NA,NA,NA,NA,NA,NA,40.464329,-79.900467,15206
NA,Family Dollar 11940,NA,1211 Chartiers Ave NA,NA,NA,Pittsburgh,PA,NA,NA,NA,NA,NA,NA,NA,NA,NA,NA,NA,NA,NA,NA,NA,NA,NA,NA,NA,NA,40.44598,-80.0439,15220
NA,Sunoco Cheswick,NA,1001 Pittsburgh St NA,NA,NA,Cheswick,PA,NA,NA,NA,NA,NA,NA,NA,NA,NA,NA,NA,NA,NA,NA,NA,NA,NA,NA,NA,NA,40.540886,-79.807198,15024
NA,Keystone Mini Mart Inc,NA,932 Penn Ave NA,NA,NA,Turtle Creek,PA,NA,NA,NA,NA,NA,NA,NA,NA,NA,NA,NA,NA,NA,NA,NA,NA,NA,NA,NA,NA,40.404022,-79.824615,15145
NA,Salem Market & Grill,NA,2923 Penn Ave NA,NA,NA,Pittsburgh,PA,NA,NA,NA,NA,NA,NA,NA,NA,NA,NA,NA,NA,NA,NA,NA,NA,NA,NA,NA,NA,40.458275,-79.973602,15201
NA,Aspinwall Sunoco,NA,304 Freeport Rd NA,NA,NA,Aspinwall,PA,NA,NA,NA,NA,NA,NA,NA,NA,NA,NA,NA,NA,NA,NA,NA,NA,NA,NA,NA,NA,40.489418,-79.903305,15215
NA,Kesari Petro Inc,NA,100 Rochester Rd NA,NA,NA,West View,PA,NA,NA,NA,NA,NA,NA,NA,NA,NA,NA,NA,NA,NA,NA,NA,NA,NA,NA,NA,NA,40.52076,-80.025047,15229
NA,Tbones Marketplace,NA,100 VIP Dr Ste 101,NA,NA,Wexford,PA,NA,NA,NA,NA,NA,NA,NA,NA,NA,NA,NA,NA,NA,NA,NA,NA,NA,NA,NA,NA,40.616528,-80.093468,15090
NA,Par Mar Store 81,NA,921 Brodhead Rd NA,NA,NA,Coraopolis,PA,NA,NA,NA,NA,NA,NA,NA,NA,NA,NA,NA,NA,NA,NA,NA,NA,NA,NA,NA,NA,40.517426,-80.221893,15108
NA,Brooklyn 2 Market Inc,NA,7926 Frankstown Ave NA,NA,NA,Pittsburgh,PA,NA,NA,NA,NA,NA,NA,NA,NA,NA,NA,NA,NA,NA,NA,NA,NA,NA,NA,NA,NA,40.455254,-79.884956,15221
NA,Go Go's Market,NA,5001 2nd Ave NA,NA,NA,Pittsburgh,PA,NA,NA,NA,NA,NA,NA,NA,NA,NA,NA,NA,NA,NA,NA,NA,NA,NA,NA,NA,NA,40.408428,-79.943611,15207
NA,Dee's Market,NA,1116 Bell Ave NA,NA,NA,Braddock,PA,NA,NA,NA,NA,NA,NA,NA,NA,NA,NA,NA,NA,NA,NA,NA,NA,NA,NA,NA,NA,40.400944,-79.859482,15104
NA,Discount 3 Inc,NA,1910 Monongahela Ave NA,NA,NA,Pittsburgh,PA,NA,NA,NA,NA,NA,NA,NA,NA,NA,NA,NA,NA,NA,NA,NA,NA,NA,NA,NA,NA,40.421558,-79.890213,15218
NA,Dollar General 19007,NA,700 E Warrington Ave NA,NA,NA,Pittsburgh,PA,NA,NA,NA,NA,NA,NA,NA,NA,NA,NA,NA,NA,NA,NA,NA,NA,NA,NA,NA,NA,40.421753,-79.995491,15210
NA,Dollar General 19267,NA,123 N Sheridan Ave NA,NA,NA,East Liberty,PA,NA,NA,NA,NA,NA,NA,NA,NA,NA,NA,NA,NA,NA,NA,NA,NA,NA,NA,NA,NA,40.461559,-79.923409,15206
NA,Dollar General 19281,NA,7402 Church St NA,NA,NA,Swissvale,PA,NA,NA,NA,NA,NA,NA,NA,NA,NA,NA,NA,NA,NA,NA,NA,NA,NA,NA,NA,NA,40.421944,-79.890114,15218
NA,Giant Eagle 69,NA,9001 Frankstown Rd NA,NA,NA,Pittsburgh,PA,NA,NA,NA,NA,NA,NA,NA,NA,NA,NA,NA,NA,NA,NA,NA,NA,NA,NA,NA,NA,40.461311,-79.865471,15235
NA,Smithfield News,NA,115 Smithfield St NA,NA,NA,Pittsburgh,PA,NA,NA,NA,NA,NA,NA,NA,NA,NA,NA,NA,NA,NA,NA,NA,NA,NA,NA,NA,NA,40.437382,-80.000557,15222
NA,News Corner Store,NA,A15 Monroeville Mall NA,NA,NA,Monroeville,PA,NA,NA,NA,NA,NA,NA,NA,NA,NA,NA,NA,NA,NA,NA,NA,NA,NA,NA,NA,NA,40.43055,-79.79483,15146
NA,Aldi 60,NA,1040 Village Center Dr NA,NA,NA,Tarentum,PA,NA,NA,NA,NA,NA,NA,NA,NA,NA,NA,NA,NA,NA,NA,NA,NA,NA,NA,NA,NA,40.567204,-79.802254,15084
NA,Edgewood Avenue Express Inc. Convenienc,NA,253 Edgewood Ave NA,NA,NA,Pittsburgh,PA,NA,NA,NA,NA,NA,NA,NA,NA,NA,NA,NA,NA,NA,NA,NA,NA,NA,NA,NA,NA,40.43026,-79.884354,15218
