"X","file_name","id","source_org","source_file","original_id","type","name","address","city","state","zip_code","county","location_description","phone","url","latitude","longitude","latlng_source","date_from","date_to","SNAP","WIC","FMNP","fresh_produce","food_bucks","free_distribution","open_to_spec_group","data_issues","group_by_cluster","group_id","fuzzy_group_within_cluster","merged_record"
1,"food-data/Cleaned_data_files//additional_food_bucks_sites.csv","2","The Food Trust","Additional Food Bucks sites.xlsx","","","Main Street Farmers Market","139 S Main Street","Washington","PA",15301,"Allegheny","","","",40.172985,-80.246581,"Mapbox Geocode","","",1,NA,NA,NA,1,0,"","",NA,NA,NA,"0"
3,"food-data/Cleaned_data_files//bridgeway_capital_hffi.csv","4","Pittsburgh Food Policy Council","Bridgeway Capital - HFFI Funds.xlsx","","supermarket","52nd Street Market","601 52nd Street","Pittsburgh","PA",15201,"Allegheny","","","",40.478792,-79.951927,"Mapbox Geocode","","",NA,NA,NA,1,NA,0,"","",NA,NA,NA,"0"
4,"food-data/Cleaned_data_files//bridgeway_capital_hffi.csv","5","Pittsburgh Food Policy Council","Bridgeway Capital - HFFI Funds.xlsx","","supermarket","Perry's Honeydripper","7006 Frankstown Avenue","Pittsburgh","PA",15208,"Allegheny","","","",40.458207,-79.900861,"Mapbox Geocode","","",NA,NA,NA,1,NA,0,"","",4,NA,NA,"0"
6,"food-data/Cleaned_data_files//bridgeway_capital_hffi.csv","7","Pittsburgh Food Policy Council","Bridgeway Capital - HFFI Funds.xlsx","","supermarket","Butcher on Butler","5145 Butler Street","Pittsburgh","PA",15201,"Allegheny","","","",40.479645,-79.955229,"Mapbox Geocode","","",NA,NA,NA,1,NA,0,"","",NA,NA,NA,"0"
7,"food-data/Cleaned_data_files//bridgeway_capital_hffi.csv","8","Pittsburgh Food Policy Council","Bridgeway Capital - HFFI Funds.xlsx","","supermarket","Gluten Free Goat","4905 Penn Avenue","Pittsburgh","PA",15224,"Allegheny","","","",40.465487,-79.944923,"Mapbox Geocode","","",NA,NA,NA,1,NA,0,"","",7,NA,NA,"0"
8,"food-data/Cleaned_data_files//bridgeway_capital_hffi.csv","9","Pittsburgh Food Policy Council","Bridgeway Capital - HFFI Funds.xlsx","","supermarket","LA Market","511 Larimer Avenue","Pittsburgh","PA",15206,"Allegheny","","","",40.465564,-79.914164,"Mapbox Geocode","","",NA,NA,NA,1,NA,0,"","",8,NA,NA,"0"
9,"food-data/Cleaned_data_files//bridgeway_capital_hffi.csv","10","Pittsburgh Food Policy Council","Bridgeway Capital - HFFI Funds.xlsx","","supermarket","Day La Soul","829-831 E. Warrington Avenue","Pittsburgh","PA",15210,"Allegheny","","","",40.4216501,-79.9951377,"Mapbox Geocode","","",NA,NA,NA,1,NA,0,"","",9,NA,NA,"0"
10,"food-data/Cleaned_data_files//cleaned_agh_wic.csv","11","Western Pennsylvania Regional Data Center","Allegheny_County_WIC_Vendor_Locations.csv","3150892","","Community Market","1710 Pacific Avenue","Natrona Heights","PA",15065,"","","","",40.621111,-79.724091,"2","","",NA,1,NA,NA,NA,0,"0","lat/long invalid;no date/time info;state assumed PA;missing type",10,NA,NA,"0"
11,"food-data/Cleaned_data_files//cleaned_agh_wic.csv","12","Western Pennsylvania Regional Data Center","Allegheny_County_WIC_Vendor_Locations.csv","3148048","","Community Market","1117 Mill Town Road","Verona","PA",15147,"","","","",40.4985,-79.79006,"2","","",NA,1,NA,NA,NA,0,"0","lat/long invalid;no date/time info;state assumed PA;missing type",11,NA,NA,"0"
12,"food-data/Cleaned_data_files//cleaned_agh_wic.csv","13","Western Pennsylvania Regional Data Center","Allegheny_County_WIC_Vendor_Locations.csv","3083227","","Coraopolis Cash Market","1017 Fourth Avenue","Coraopolis","PA",15108,"","","","",40.518315,-80.162816,"2","","",NA,1,NA,NA,NA,0,"0","lat/long invalid;no date/time info;state assumed PA;missing type",12,NA,NA,"0"
13,"food-data/Cleaned_data_files//cleaned_agh_wic.csv","14","Western Pennsylvania Regional Data Center","Allegheny_County_WIC_Vendor_Locations.csv","2693039","supermarket","Giant Eagle","5055 Library Road","Bethel Park","PA",15102,"","","","",40.338932,-80.025481,"2","","",NA,1,NA,NA,NA,0,"0","lat/long invalid;no date/time info;state assumed PA;missing type",13,NA,NA,"0"
14,"food-data/Cleaned_data_files//cleaned_agh_wic.csv","15","Western Pennsylvania Regional Data Center","Allegheny_County_WIC_Vendor_Locations.csv","2805222","supermarket","Giant Eagle","254 Yost Boulevard","Braddock Hills","PA",15221,"","","","",40.414499,-79.855295,"2","","",NA,1,NA,NA,NA,0,"0","lat/long invalid;no date/time info;state assumed PA;missing type",NA,NA,NA,"0"
15,"food-data/Cleaned_data_files//cleaned_agh_wic.csv","16","Western Pennsylvania Regional Data Center","Allegheny_County_WIC_Vendor_Locations.csv","3161264","supermarket","Giant Eagle","600 Towne Square Way","Brentwood","PA",15227,"","","","",40.366271,-79.983039,"2","","",NA,1,NA,NA,NA,0,"0","lat/long invalid;no date/time info;state assumed PA;missing type",NA,NA,NA,"0"
16,"food-data/Cleaned_data_files//cleaned_agh_wic.csv","17","Western Pennsylvania Regional Data Center","Allegheny_County_WIC_Vendor_Locations.csv","2654758","supermarket","Giant Eagle","132 Ben Avon Heights Road","Camp Horne","PA",15237,"","","","",40.522015,-80.070503,"2","","",NA,1,NA,NA,NA,0,"0","lat/long invalid;no date/time info;state assumed PA;missing type",NA,NA,NA,"0"
18,"food-data/Cleaned_data_files//cleaned_agh_wic.csv","19","Western Pennsylvania Regional Data Center","Allegheny_County_WIC_Vendor_Locations.csv","3029807","supermarket","Giant Eagle","9901 Mountain View Drive","Century III","PA",15122,"","","","",40.339666,-79.949754,"2","","",NA,1,NA,NA,NA,0,"0","lat/long invalid;no date/time info;state assumed PA;missing type",NA,NA,NA,"0"
20,"food-data/Cleaned_data_files//cleaned_agh_wic.csv","21","Western Pennsylvania Regional Data Center","Allegheny_County_WIC_Vendor_Locations.csv","80632","supermarket","Giant Eagle","1705 S. Braddock Avenue","Edgewood","PA",15218,"","","","",40.425644,-79.886852,"2","","",NA,1,NA,NA,NA,0,"0","lat/long invalid;no date/time info;state assumed PA;missing type",NA,NA,NA,"0"
21,"food-data/Cleaned_data_files//cleaned_agh_wic.csv","22","Western Pennsylvania Regional Data Center","Allegheny_County_WIC_Vendor_Locations.csv","3168164","supermarket","Giant Eagle","800 Mckeesport Road","Elizabeth","PA",15037,"","","","",40.279897,-79.875592,"2","","",NA,1,NA,NA,NA,0,"0","lat/long invalid;no date/time info;state assumed PA;missing type",NA,NA,NA,"0"
22,"food-data/Cleaned_data_files//cleaned_agh_wic.csv","23","Western Pennsylvania Regional Data Center","Allegheny_County_WIC_Vendor_Locations.csv","2845101","supermarket","Giant Eagle","910 Freeport Road","Fox Chapel","PA",15238,"","","","",40.48978,-79.89374,"2","","",NA,1,NA,NA,NA,0,"0","lat/long invalid;no date/time info;state assumed PA;missing type",NA,NA,NA,"0"
23,"food-data/Cleaned_data_files//cleaned_agh_wic.csv","24","Western Pennsylvania Regional Data Center","Allegheny_County_WIC_Vendor_Locations.csv","3099409","supermarket","Giant Eagle","9001 Frankstown Road","Frankstown","PA",15235,"","","","",40.462675,-79.865261,"2","","",NA,1,NA,NA,NA,0,"0","lat/long invalid;no date/time info;state assumed PA;missing type",NA,NA,NA,"0"
25,"food-data/Cleaned_data_files//cleaned_agh_wic.csv","26","Western Pennsylvania Regional Data Center","Allegheny_County_WIC_Vendor_Locations.csv","2835432","supermarket","Giant Eagle","420 East Waterfront Drive","Homestead","PA",15120,"","","","",40.411484,-79.90877,"2","","",NA,1,NA,NA,NA,0,"0","lat/long invalid;no date/time info;state assumed PA;missing type",NA,NA,NA,"0"
26,"food-data/Cleaned_data_files//cleaned_agh_wic.csv","27","Western Pennsylvania Regional Data Center","Allegheny_County_WIC_Vendor_Locations.csv","2701552","supermarket","Giant Eagle","1800 Mckees Rocks Road","Kennedy Twp.","PA",15136,"","","","",40.467797,-80.097647,"2","","",NA,1,NA,NA,NA,0,"0","lat/long invalid;no date/time info;state assumed PA;missing type",NA,NA,NA,"0"
28,"food-data/Cleaned_data_files//cleaned_agh_wic.csv","29","Western Pennsylvania Regional Data Center","Allegheny_County_WIC_Vendor_Locations.csv","3119721","supermarket","Giant Eagle","4680 Old William Penn Highway","Monroeville","PA",15146,"","","","",40.439216,-79.743366,"2","","",NA,1,NA,NA,NA,0,"0","lat/long invalid;no date/time info;state assumed PA;missing type",NA,NA,NA,"0"
29,"food-data/Cleaned_data_files//cleaned_agh_wic.csv","30","Western Pennsylvania Regional Data Center","Allegheny_County_WIC_Vendor_Locations.csv","2952691","supermarket","Giant Eagle","4010 Monroeville Boulevard","Monroeville Blvd.","PA",15146,"","","","",40.432367,-79.772169,"2","","",NA,1,NA,NA,NA,0,"0","lat/long invalid;no date/time info;state assumed PA;missing type",29,NA,NA,"0"
30,"food-data/Cleaned_data_files//cleaned_agh_wic.csv","31","Western Pennsylvania Regional Data Center","Allegheny_County_WIC_Vendor_Locations.csv","3168226","supermarket","Giant Eagle","5990 University Boulevard","Moon Twp.","PA",15108,"","","","",40.521952,-80.220568,"2","","",NA,1,NA,NA,NA,0,"0","lat/long invalid;no date/time info;state assumed PA;missing type",NA,NA,NA,"0"
31,"food-data/Cleaned_data_files//cleaned_agh_wic.csv","32","Western Pennsylvania Regional Data Center","Allegheny_County_WIC_Vendor_Locations.csv","16296","supermarket","Giant Eagle","8050 Mcknight Road","North Hills","PA",15237,"","","","",40.554889,-80.018984,"2","","",NA,1,NA,NA,NA,0,"0","lat/long invalid;no date/time info;state assumed PA;missing type",NA,NA,NA,"0"
33,"food-data/Cleaned_data_files//cleaned_agh_wic.csv","34","Western Pennsylvania Regional Data Center","Allegheny_County_WIC_Vendor_Locations.csv","3174633","supermarket","Giant Eagle","1701 Lincoln Highway","North Versailles","PA",15137,"","","","",40.372166,-79.788541,"2","","",NA,1,NA,NA,NA,0,"0","lat/long invalid;no date/time info;state assumed PA;missing type",NA,NA,NA,"0"
35,"food-data/Cleaned_data_files//cleaned_agh_wic.csv","36","Western Pennsylvania Regional Data Center","Allegheny_County_WIC_Vendor_Locations.csv","2663456","supermarket","Giant Eagle","230 Rodi Road","Penn Hills","PA",15235,"","","","",40.461922,-79.825159,"2","","",NA,1,NA,NA,NA,0,"0","lat/long invalid;no date/time info;state assumed PA;missing type",NA,NA,NA,"0"
37,"food-data/Cleaned_data_files//cleaned_agh_wic.csv","38","Western Pennsylvania Regional Data Center","Allegheny_County_WIC_Vendor_Locations.csv","3158672","supermarket","Giant Eagle","155 Towne Centre Drive","Pine Township","PA",15090,"","","","",40.63379,-80.0554,"2","","",NA,1,NA,NA,NA,0,"0","lat/long invalid;no date/time info;state assumed PA;missing type",NA,NA,NA,"0"
38,"food-data/Cleaned_data_files//cleaned_agh_wic.csv","39","Western Pennsylvania Regional Data Center","Allegheny_County_WIC_Vendor_Locations.csv","3152683","supermarket","Giant Eagle","100 Settlers Ridge Center Drive","Robinson Twp.","PA",15205,"","","","",40.441646,-80.151352,"2","","",NA,1,NA,NA,NA,0,"0","lat/long invalid;no date/time info;state assumed PA;missing type",NA,NA,NA,"0"
39,"food-data/Cleaned_data_files//cleaned_agh_wic.csv","40","Western Pennsylvania Regional Data Center","Allegheny_County_WIC_Vendor_Locations.csv","2760795","supermarket","Giant Eagle","5550 Centre Avenue","Shadyside","PA",15232,"","","","",40.456474,-79.934462,"2","","",NA,1,NA,NA,NA,0,"0","lat/long invalid;no date/time info;state assumed PA;missing type",39,NA,NA,"0"
40,"food-data/Cleaned_data_files//cleaned_agh_wic.csv","41","Western Pennsylvania Regional Data Center","Allegheny_County_WIC_Vendor_Locations.csv","3155863","supermarket","Giant Eagle","1671 Butler Plank Road","Shaler","PA",15116,"","","","",40.537553,-79.964918,"2","","",NA,1,NA,NA,NA,0,"0","lat/long invalid;no date/time info;state assumed PA;missing type",NA,NA,NA,"0"
42,"food-data/Cleaned_data_files//cleaned_agh_wic.csv","43","Western Pennsylvania Regional Data Center","Allegheny_County_WIC_Vendor_Locations.csv","2929702","supermarket","Giant Eagle","2021 Wharton Street","South Side","PA",15203,"","","","",40.432044,-79.977774,"2","","",NA,1,NA,NA,NA,0,"0","lat/long invalid;no date/time info;state assumed PA;missing type",NA,NA,NA,"0"
43,"food-data/Cleaned_data_files//cleaned_agh_wic.csv","44","Western Pennsylvania Regional Data Center","Allegheny_County_WIC_Vendor_Locations.csv","2977355","supermarket","Giant Eagle","1901 Murray Avenue","Squirrel Hill","PA",15217,"","","","",40.435673,-79.922564,"2","","",NA,1,NA,NA,NA,0,"0","lat/long invalid;no date/time info;state assumed PA;missing type",43,NA,NA,"0"
44,"food-data/Cleaned_data_files//cleaned_agh_wic.csv","45","Western Pennsylvania Regional Data Center","Allegheny_County_WIC_Vendor_Locations.csv","2869549","supermarket","Giant Eagle","200 Allegheny River Boulevard","Verona","PA",15147,"","","","",40.49926,-79.844413,"2","","",NA,1,NA,NA,NA,0,"0","lat/long invalid;no date/time info;state assumed PA;missing type",NA,NA,NA,"0"
45,"food-data/Cleaned_data_files//cleaned_agh_wic.csv","46","Western Pennsylvania Regional Data Center","Allegheny_County_WIC_Vendor_Locations.csv","2914092","supermarket","Giant Eagle","7000 Oxford Drive","Village Square","PA",15102,"","","","",40.346817,-80.047257,"2","","",NA,1,NA,NA,NA,0,"0","lat/long invalid;no date/time info;state assumed PA;missing type",NA,NA,NA,"0"
46,"food-data/Cleaned_data_files//cleaned_agh_wic.csv","47","Western Pennsylvania Regional Data Center","Allegheny_County_WIC_Vendor_Locations.csv","2712572","supermarket","Giant Eagle","1717 Cochran Road","Virginia Manor","PA",15220,"","","","",40.39248,-80.06582,"2","","",NA,1,NA,NA,NA,0,"0","lat/long invalid;no date/time info;state assumed PA;missing type",NA,NA,NA,"0"
47,"food-data/Cleaned_data_files//cleaned_agh_wic.csv","48","Western Pennsylvania Regional Data Center","Allegheny_County_WIC_Vendor_Locations.csv","3141762","supermarket","Giant Eagle","1356 Hoffman Boulevard","West Mifflin","PA",15122,"","","","",40.384128,-79.868332,"2","","",NA,1,NA,NA,NA,0,"0","lat/long invalid;no date/time info;state assumed PA;missing type",NA,NA,NA,"0"
49,"food-data/Cleaned_data_files//cleaned_agh_wic.csv","50","Western Pennsylvania Regional Data Center","Allegheny_County_WIC_Vendor_Locations.csv","2976969","supermarket","Giant Eagle","2001 Lincoln Way","White Oak","PA",15131,"","","","",40.337059,-79.805657,"2","","",NA,1,NA,NA,NA,0,"0","lat/long invalid;no date/time info;state assumed PA;missing type",NA,NA,NA,"0"
50,"food-data/Cleaned_data_files//cleaned_agh_wic.csv","51","Western Pennsylvania Regional Data Center","Allegheny_County_WIC_Vendor_Locations.csv","3162107","supermarket","Giant Eagle Express","2611 Freeport Road","Harmar","PA",15238,"","","","",40.537821,-79.838774,"2","","",NA,1,NA,NA,NA,0,"0","lat/long invalid;no date/time info;state assumed PA;missing type",NA,NA,NA,"0"
51,"food-data/Cleaned_data_files//cleaned_agh_wic.csv","52","Western Pennsylvania Regional Data Center","Allegheny_County_WIC_Vendor_Locations.csv","3162338","","Gorkhali Store","2116 Brownsville Road","Mt. Oliver","PA",15210,"","","","",40.392705,-79.987105,"2","","",NA,1,NA,NA,NA,0,"0","lat/long invalid;no date/time info;state assumed PA;missing type",51,NA,NA,"0"
52,"food-data/Cleaned_data_files//cleaned_agh_wic.csv","53","Western Pennsylvania Regional Data Center","Allegheny_County_WIC_Vendor_Locations.csv","2796169","","Himalaya Grocery","3621 Brownsville Road","Brentwood","PA",15227,"","","","",40.373299,-79.975256,"2","","",NA,1,NA,NA,NA,0,"0","lat/long invalid;no date/time info;state assumed PA;missing type",NA,NA,NA,"0"
53,"food-data/Cleaned_data_files//cleaned_agh_wic.csv","54","Western Pennsylvania Regional Data Center","Allegheny_County_WIC_Vendor_Locations.csv","3136218","supermarket","Kuhn's","661 Lincoln Avenue","Bellevue","PA",15202,"","","","",40.49717,-80.060283,"2","","",NA,1,NA,NA,NA,0,"0","lat/long invalid;no date/time info;state assumed PA;missing type",53,NA,NA,"0"
54,"food-data/Cleaned_data_files//cleaned_agh_wic.csv","55","Western Pennsylvania Regional Data Center","Allegheny_County_WIC_Vendor_Locations.csv","78112","supermarket","Kuhn's","825 Beaver Grade Road","Moon Twp.","PA",15108,"","","","",40.517395,-80.219291,"2","","",NA,1,NA,NA,NA,0,"0","lat/long invalid;no date/time info;state assumed PA;missing type",54,NA,NA,"0"
55,"food-data/Cleaned_data_files//cleaned_agh_wic.csv","56","Western Pennsylvania Regional Data Center","Allegheny_County_WIC_Vendor_Locations.csv","2782779","supermarket","Kuhn's","4801 Mcknight Road","North Hills","PA",15237,"","","","",40.52485,-80.0077,"2","","",NA,1,NA,NA,NA,0,"0","lat/long invalid;no date/time info;state assumed PA;missing type",NA,NA,NA,"0"
56,"food-data/Cleaned_data_files//cleaned_agh_wic.csv","57","Western Pennsylvania Regional Data Center","Allegheny_County_WIC_Vendor_Locations.csv","9200","supermarket","Kuhn's","1130 Highwood Street","North Side","PA",15212,"","","","",40.468558,-80.026566,"2","","",NA,1,NA,NA,NA,0,"0","lat/long invalid;no date/time info;state assumed PA;missing type",56,NA,NA,"0"
57,"food-data/Cleaned_data_files//cleaned_agh_wic.csv","58","Western Pennsylvania Regional Data Center","Allegheny_County_WIC_Vendor_Locations.csv","84011","supermarket","Kuhn's","3125 Banksville Road","South Hills","PA",15216,"","","","",40.399808,-80.043455,"2","","",NA,1,NA,NA,NA,0,"0","lat/long invalid;no date/time info;state assumed PA;missing type",57,NA,NA,"0"
58,"food-data/Cleaned_data_files//cleaned_agh_wic.csv","59","Western Pennsylvania Regional Data Center","Allegheny_County_WIC_Vendor_Locations.csv","1093082","supermarket","Kuhn's","700 Buelah Road","Turtle Creek","PA",15145,"","","","",40.42695,-79.83493,"2","","",NA,1,NA,NA,NA,0,"0","lat/long invalid;no date/time info;state assumed PA;missing type",58,NA,NA,"0"
60,"food-data/Cleaned_data_files//cleaned_agh_wic.csv","61","Western Pennsylvania Regional Data Center","Allegheny_County_WIC_Vendor_Locations.csv","2804345","","Murray Avenue Kosher","1916 Murray Avenue","Squirrel Hill","PA",15217,"","","","",40.435512,-79.923029,"2","","",NA,1,NA,NA,NA,0,"0","lat/long invalid;no date/time info;state assumed PA;missing type",43,NA,NA,"0"
61,"food-data/Cleaned_data_files//cleaned_agh_wic.csv","62","Western Pennsylvania Regional Data Center","Allegheny_County_WIC_Vendor_Locations.csv","3175606","","Pittsburgh Commissary","79 Soldiers Lane","Moon Twp.","PA",15108,"","","","",40.501879,-80.218445,"2","","",NA,1,NA,NA,NA,0,"0","lat/long invalid;no date/time info;state assumed PA;missing type",NA,NA,NA,"0"
62,"food-data/Cleaned_data_files//cleaned_agh_wic.csv","63","Western Pennsylvania Regional Data Center","Allegheny_County_WIC_Vendor_Locations.csv","3040453","","Save A Lot","25 Foster Avenue","Crafton","PA",15205,"","","","",40.440703,-80.069422,"2","","",NA,1,NA,NA,NA,0,"0","lat/long invalid;no date/time info;state assumed PA;missing type",62,NA,NA,"0"
63,"food-data/Cleaned_data_files//cleaned_agh_wic.csv","64","Western Pennsylvania Regional Data Center","Allegheny_County_WIC_Vendor_Locations.csv","3168198","","Sav-A-Lot","9 Duquesne Plaza","Duquesne","PA",15110,"","","","",40.374697,-79.8469,"2","","",NA,1,NA,NA,NA,0,"0","lat/long invalid;no date/time info;state assumed PA;missing type",NA,NA,NA,"0"
64,"food-data/Cleaned_data_files//cleaned_agh_wic.csv","65","Western Pennsylvania Regional Data Center","Allegheny_County_WIC_Vendor_Locations.csv","3166464","","Sav-A-Lot","355 Lincoln Highway","North Versailles","PA",15137,"","","","",40.384491,-79.821281,"2","","",NA,1,NA,NA,NA,0,"0","lat/long invalid;no date/time info;state assumed PA;missing type",64,NA,NA,"0"
66,"food-data/Cleaned_data_files//cleaned_agh_wic.csv","67","Western Pennsylvania Regional Data Center","Allegheny_County_WIC_Vendor_Locations.csv","2691661","","Shop N Save","5001 Library Road","Bethel Park","PA",15102,"","","","",40.341029,-80.024486,"2","","",NA,1,NA,NA,NA,0,"0","lat/long invalid;no date/time info;state assumed PA;missing type",NA,NA,NA,"0"
67,"food-data/Cleaned_data_files//cleaned_agh_wic.csv","68","Western Pennsylvania Regional Data Center","Allegheny_County_WIC_Vendor_Locations.csv","48814","","Shop N Save","1119 Brownsville Road","Brentwood","PA",15210,"","","","",40.404833,-79.989725,"2","","",NA,1,NA,NA,NA,0,"0","lat/long invalid;no date/time info;state assumed PA;missing type",67,NA,NA,"0"
68,"food-data/Cleaned_data_files//cleaned_agh_wic.csv","69","Western Pennsylvania Regional Data Center","Allegheny_County_WIC_Vendor_Locations.csv","3015114","","Shop N Save","4647 Buttermilk Hollow Road","Buttermilk Hollow","PA",15122,"","","","",40.361,-79.906539,"2","","",NA,1,NA,NA,NA,0,"0","lat/long invalid;no date/time info;state assumed PA;missing type",NA,NA,NA,"0"
69,"food-data/Cleaned_data_files//cleaned_agh_wic.csv","70","Western Pennsylvania Regional Data Center","Allegheny_County_WIC_Vendor_Locations.csv","2739635","","Shop N Save","799 Castle Shannon Boulevard","Castle Shannon","PA",15234,"","","","",40.369204,-80.028635,"2","","",NA,1,NA,NA,NA,0,"0","lat/long invalid;no date/time info;state assumed PA;missing type",69,NA,NA,"0"
70,"food-data/Cleaned_data_files//cleaned_agh_wic.csv","71","Western Pennsylvania Regional Data Center","Allegheny_County_WIC_Vendor_Locations.csv","2896675","","Shop N Save","1850 Centre Avenue","Centre Ave","PA",15219,"","","","",40.44306,-79.98162,"2","","",NA,1,NA,NA,NA,0,"0","lat/long invalid;no date/time info;state assumed PA;missing type",70,NA,NA,"0"
71,"food-data/Cleaned_data_files//cleaned_agh_wic.csv","72","Western Pennsylvania Regional Data Center","Allegheny_County_WIC_Vendor_Locations.csv","28396","","Shop N Save","2381 Mountain View Drive","Century Square","PA",15122,"","","","",40.344918,-79.946601,"2","","",NA,1,NA,NA,NA,0,"0","lat/long invalid;no date/time info;state assumed PA;missing type",NA,NA,NA,"0"
72,"food-data/Cleaned_data_files//cleaned_agh_wic.csv","73","Western Pennsylvania Regional Data Center","Allegheny_County_WIC_Vendor_Locations.csv","3168274","","Shop N Save Village","1886 Homeville Road","Duquesne Village","PA",15122,"","","","",40.365402,-79.873246,"2","","",NA,1,NA,NA,NA,0,"0","lat/long invalid;no date/time info;state assumed PA;missing type",NA,NA,NA,"0"
73,"food-data/Cleaned_data_files//cleaned_agh_wic.csv","74","Western Pennsylvania Regional Data Center","Allegheny_County_WIC_Vendor_Locations.csv","3168229","","Shop N Save","917 Butler Street","Glenshaw","PA",15223,"","","","",40.511435,-79.949184,"2","","",NA,1,NA,NA,NA,0,"0","lat/long invalid;no date/time info;state assumed PA;missing type",NA,NA,NA,"0"
74,"food-data/Cleaned_data_files//cleaned_agh_wic.csv","75","Western Pennsylvania Regional Data Center","Allegheny_County_WIC_Vendor_Locations.csv","3123920","","Shop N Save","4548 Broadway Boulevard","Haymaker Village","PA",15146,"","","","",40.389155,-79.767195,"2","","",NA,1,NA,NA,NA,0,"0","lat/long invalid;no date/time info;state assumed PA;missing type",NA,NA,NA,"0"
75,"food-data/Cleaned_data_files//cleaned_agh_wic.csv","76","Western Pennsylvania Regional Data Center","Allegheny_County_WIC_Vendor_Locations.csv","2791443","","Shop N Save","2100 Washington Pike","Heidelberg","PA",15106,"","","","",40.38475,-80.09314,"2","","",NA,1,NA,NA,NA,0,"0","lat/long invalid;no date/time info;state assumed PA;missing type",75,NA,NA,"0"
76,"food-data/Cleaned_data_files//cleaned_agh_wic.csv","77","Western Pennsylvania Regional Data Center","Allegheny_County_WIC_Vendor_Locations.csv","3168120","","Shop N Save","2362 Golden Mile Highway","Holiday Park","PA",15239,"","","","",40.47533,-79.70729,"2","","",NA,1,NA,NA,NA,0,"0","lat/long invalid;no date/time info;state assumed PA;missing type",NA,NA,NA,"0"
77,"food-data/Cleaned_data_files//cleaned_agh_wic.csv","78","Western Pennsylvania Regional Data Center","Allegheny_County_WIC_Vendor_Locations.csv","3158901","","Shop N Save","600 Market Place Drive","Imperial","PA",15071,"","","","",40.440211,-80.241232,"2","","",NA,1,NA,NA,NA,0,"0","lat/long invalid;no date/time info;state assumed PA;missing type",NA,NA,NA,"0"
78,"food-data/Cleaned_data_files//cleaned_agh_wic.csv","79","Western Pennsylvania Regional Data Center","Allegheny_County_WIC_Vendor_Locations.csv","2805720","","Shop N Save","450 Sixth Street","Lawrenceville","PA",15201,"","","","",40.483229,-79.948619,"2","","",NA,1,NA,NA,NA,0,"0","lat/long invalid;no date/time info;state assumed PA;missing type",NA,NA,NA,"0"
80,"food-data/Cleaned_data_files//cleaned_agh_wic.csv","81","Western Pennsylvania Regional Data Center","Allegheny_County_WIC_Vendor_Locations.csv","2694562","","Shop N Save","125 Virginia Avenue","Mt. Washington","PA",15211,"","","","",40.429429,-80.007974,"2","","",NA,1,NA,NA,NA,0,"0","lat/long invalid;no date/time info;state assumed PA;missing type",80,NA,NA,"0"
81,"food-data/Cleaned_data_files//cleaned_agh_wic.csv","82","Western Pennsylvania Regional Data Center","Allegheny_County_WIC_Vendor_Locations.csv","2994319","","Shop N Save","2103 Noblestown Road","Noblestown","PA",15205,"","","","",40.430659,-80.052001,"2","","",NA,1,NA,NA,NA,0,"0","lat/long invalid;no date/time info;state assumed PA;missing type",NA,NA,NA,"0"
82,"food-data/Cleaned_data_files//cleaned_agh_wic.csv","83","Western Pennsylvania Regional Data Center","Allegheny_County_WIC_Vendor_Locations.csv","2984266","","Shop N Save","4313 Walnut Street","Olympia","PA",15132,"","","","",40.322228,-79.834027,"2","","",NA,1,NA,NA,NA,0,"0","lat/long invalid;no date/time info;state assumed PA;missing type",NA,NA,NA,"0"
83,"food-data/Cleaned_data_files//cleaned_agh_wic.csv","84","Western Pennsylvania Regional Data Center","Allegheny_County_WIC_Vendor_Locations.csv","3007247","","Shop N Save","1130 Perry Highway","Pines Plaza","PA",15237,"","","","",40.54783,-80.0351,"2","","",NA,1,NA,NA,NA,0,"0","lat/long invalid;no date/time info;state assumed PA;missing type",NA,NA,NA,"0"
84,"food-data/Cleaned_data_files//cleaned_agh_wic.csv","85","Western Pennsylvania Regional Data Center","Allegheny_County_WIC_Vendor_Locations.csv","3054998","","Shop N Save","184 Rochester Road","Rochester Road","PA",15229,"","","","",40.519815,-80.018107,"2","","",NA,1,NA,NA,NA,0,"0","lat/long invalid;no date/time info;state assumed PA;missing type",84,NA,NA,"0"
85,"food-data/Cleaned_data_files//cleaned_agh_wic.csv","86","Western Pennsylvania Regional Data Center","Allegheny_County_WIC_Vendor_Locations.csv","2844118","","Shop N Save","908 Little Deer Creek Valley Road","Russelton","PA",15076,"","","","",40.608671,-79.833507,"2","","",NA,1,NA,NA,NA,0,"0","lat/long invalid;no date/time info;state assumed PA;missing type",NA,NA,NA,"0"
86,"food-data/Cleaned_data_files//cleaned_agh_wic.csv","87","Western Pennsylvania Regional Data Center","Allegheny_County_WIC_Vendor_Locations.csv","2717654","","Shop N Save","1620 Babcock Boulevard","Shaler","PA",15209,"","","","",40.499484,-79.979598,"2","","",NA,1,NA,NA,NA,0,"0","lat/long invalid;no date/time info;state assumed PA;missing type",86,NA,NA,"0"
88,"food-data/Cleaned_data_files//cleaned_agh_wic.csv","89","Western Pennsylvania Regional Data Center","Allegheny_County_WIC_Vendor_Locations.csv","51225","","Shur Save","4401 Liberty Avenue","Bloomfield","PA",15224,"","","","",40.464046,-79.952134,"2","","",NA,1,NA,NA,NA,0,"0","lat/long invalid;no date/time info;state assumed PA;missing type",88,NA,NA,"0"
91,"food-data/Cleaned_data_files//cleaned_agh_wic.csv","92","Western Pennsylvania Regional Data Center","Allegheny_County_WIC_Vendor_Locations.csv","2840342","supermarket","Target","360 East Waterfront Drive","Homestead","PA",15120,"","","","",40.410877,-79.910615,"2","","",NA,1,NA,NA,NA,0,"0","lat/long invalid;no date/time info;state assumed PA;missing type",NA,NA,NA,"0"
92,"food-data/Cleaned_data_files//cleaned_agh_wic.csv","93","Western Pennsylvania Regional Data Center","Allegheny_County_WIC_Vendor_Locations.csv","2954381","supermarket","Target","4004 Monroeville Road","Monroeville","PA",15146,"","","","",40.43237,-79.7722,"2","","",NA,1,NA,NA,NA,0,"0","lat/long invalid;no date/time info;state assumed PA;missing type",29,NA,NA,"0"
93,"food-data/Cleaned_data_files//cleaned_agh_wic.csv","94","Western Pennsylvania Regional Data Center","Allegheny_County_WIC_Vendor_Locations.csv","2776154","supermarket","Target","600 Chauvet Drive","Robinson","PA",15275,"","","","",40.44629,-80.183546,"2","","",NA,1,NA,NA,NA,0,"0","lat/long invalid;no date/time info;state assumed PA;missing type",NA,NA,NA,"0"
94,"food-data/Cleaned_data_files//cleaned_agh_wic.csv","95","Western Pennsylvania Regional Data Center","Allegheny_County_WIC_Vendor_Locations.csv","91386","supermarket","Target","201 South Hills Village","South Hills Village","PA",15241,"","","","",40.343606,-80.057543,"2","","",NA,1,NA,NA,NA,0,"0","lat/long invalid;no date/time info;state assumed PA;missing type",NA,NA,NA,"0"
95,"food-data/Cleaned_data_files//cleaned_agh_wic.csv","96","Western Pennsylvania Regional Data Center","Allegheny_County_WIC_Vendor_Locations.csv","3148465","supermarket","Wal Mart","2200 Washington Pike","Carnegie","PA",15106,"","","","",40.38475,-80.09314,"2","","",NA,1,NA,NA,NA,0,"0","lat/long invalid;no date/time info;state assumed PA;missing type",75,NA,NA,"0"
96,"food-data/Cleaned_data_files//cleaned_agh_wic.csv","97","Western Pennsylvania Regional Data Center","Allegheny_County_WIC_Vendor_Locations.csv","91410","supermarket","Wal Mart","4015 Freeport Road","Natrona Heights","PA",15065,"","","","",40.646899,-79.710012,"2","","",NA,1,NA,NA,NA,0,"0","lat/long invalid;no date/time info;state assumed PA;missing type",96,NA,NA,"0"
97,"food-data/Cleaned_data_files//cleaned_agh_wic.csv","98","Western Pennsylvania Regional Data Center","Allegheny_County_WIC_Vendor_Locations.csv","2774136","supermarket","Wal Mart","250 Summit Park Drive","North Fayette","PA",15275,"","","","",40.44778,-80.18038,"2","","",NA,1,NA,NA,NA,0,"0","lat/long invalid;no date/time info;state assumed PA;missing type",NA,NA,NA,"0"
98,"food-data/Cleaned_data_files//cleaned_agh_wic.csv","99","Western Pennsylvania Regional Data Center","Allegheny_County_WIC_Vendor_Locations.csv","3159029","supermarket","Wal Mart","100 Wal Mart Drive","North Versailles","PA",15137,"","","","",40.38609,-79.82254,"2","","",NA,1,NA,NA,NA,0,"0","lat/long invalid;no date/time info;state assumed PA;missing type",98,NA,NA,"0"
99,"food-data/Cleaned_data_files//cleaned_agh_wic.csv","100","Western Pennsylvania Regional Data Center","Allegheny_County_WIC_Vendor_Locations.csv","2890876","supermarket","Wal Mart","2010 Village Center Drive","Tarentum","PA",15084,"","","","",40.564095,-79.804145,"2","","",NA,1,NA,NA,NA,0,"0","lat/long invalid;no date/time info;state assumed PA;missing type",NA,NA,NA,"0"
100,"food-data/Cleaned_data_files//cleaned_agh_wic.csv","101","Western Pennsylvania Regional Data Center","Allegheny_County_WIC_Vendor_Locations.csv","3153451","supermarket","Wal Mart","2351 Century Drive","West Mifflin","PA",15122,"","","","",40.342403,-79.94663,"2","","",NA,1,NA,NA,NA,0,"0","lat/long invalid;no date/time info;state assumed PA;missing type",NA,NA,NA,"0"
101,"food-data/Cleaned_data_files//cleaned_growpgh.csv","102","Western Pennsylvania Regional Data Center","growpghgardens201712_readin.xlsx","584","Grow PGH Garden","Angora Gardens","3 Muse Lane","White Oak","PA",15131,"","","","https://www.growpittsburgh.org/directory/garden/angora-gardens-1",40.404686,-79.862095,"5","","",1,0,1,1,0,0,"0","no date/time;no county info",101,NA,NA,"0"
102,"food-data/Cleaned_data_files//cleaned_growpgh.csv","103","Western Pennsylvania Regional Data Center","growpghgardens201712_readin.xlsx","586","Grow PGH Garden","Everybody's Garden","301 West Elizabeth Street","Pittsburgh","PA",15207,"","","","https://www.growpittsburgh.org/directory/garden/everybodys-garden",40.406546,-79.945442,"5","","",1,0,1,1,0,0,"0","no date/time;no county info",102,NA,NA,"0"
103,"food-data/Cleaned_data_files//cleaned_growpgh.csv","104","Western Pennsylvania Regional Data Center","growpghgardens201712_readin.xlsx","587","Grow PGH Garden","EvGard Extension","5108 Lytle Street","Pittsburgh","PA",15207,"","","","https://www.growpittsburgh.org/directory/garden/evgard-extension",40.406377,-79.945559,"5","","",1,0,1,1,0,0,"0","no date/time;no county info",102,NA,NA,"0"
104,"food-data/Cleaned_data_files//cleaned_growpgh.csv","105","Western Pennsylvania Regional Data Center","growpghgardens201712_readin.xlsx","588","Grow PGH Garden","Glen Hazel Communiuty Garden","Johnston Avenue At Roselle Drive","Pittsburgh","PA",15207,"","","","https://www.growpittsburgh.org/directory/garden/glen-hazel-communiuty-garden",40.40604,-79.931253,"5","","",1,0,1,1,0,0,"0","no date/time;no county info",NA,NA,NA,"0"
105,"food-data/Cleaned_data_files//cleaned_growpgh.csv","106","Western Pennsylvania Regional Data Center","growpghgardens201712_readin.xlsx","589","Grow PGH Garden","Grow Pittsburgh","6587 Hamilton Avenue #2w","Pittsburgh","PA",15206,"","","","https://www.growpittsburgh.org/directory/garden/grow-pittsburgh",40.458481,-79.911381,"5","","",1,0,1,1,0,0,"0","no date/time;no county info",NA,NA,NA,"0"
106,"food-data/Cleaned_data_files//cleaned_growpgh.csv","107","Western Pennsylvania Regional Data Center","growpghgardens201712_readin.xlsx","590","Grow PGH Garden","Lawrenceville Organic Community Garden","Allegheny Cemetery, 4734 Butler Street","Pittsburgh","PA",15201,"","","","https://www.growpittsburgh.org/directory/garden/lawrenceville-organic-community-garden",40.477158,-79.956114,"5","","",1,0,1,1,0,0,"0","no date/time;no county info",NA,NA,NA,"0"
107,"food-data/Cleaned_data_files//cleaned_growpgh.csv","108","Western Pennsylvania Regional Data Center","growpghgardens201712_readin.xlsx","591","Grow PGH Garden","Masjid al Mu'min Madinah Garden","159 Winslow Street","Pittsburgh","PA",15206,"","","","https://www.growpittsburgh.org/directory/garden/masjid-al-mumin-madinah-garden",40.46445,-79.911651,"5","","",1,0,1,1,0,0,"0","no date/time;no county info",NA,NA,NA,"0"
108,"food-data/Cleaned_data_files//cleaned_growpgh.csv","109","Western Pennsylvania Regional Data Center","growpghgardens201712_readin.xlsx","592","Grow PGH Garden","South Oakland Community Orchard","3213 Parkview Avenue","Pittsburgh","PA",15213,"","","","https://www.growpittsburgh.org/directory/garden/south-oakland-community-orchard",40.429834,-79.953578,"5","","",1,0,1,1,0,0,"0","no date/time;no county info",NA,NA,NA,"0"
110,"food-data/Cleaned_data_files//cleaned_growpgh.csv","111","Western Pennsylvania Regional Data Center","growpghgardens201712_readin.xlsx","594","Grow PGH Garden","Wiggins Garden","Near 3026 Wiggins Street","Pittsburgh","PA",15219,"","","","https://www.growpittsburgh.org/directory/garden/wiggins-garden",40.457618,-79.969499,"5","","",1,0,1,1,0,0,"0","no date/time;no county info",NA,NA,NA,"0"
111,"food-data/Cleaned_data_files//cleaned_growpgh.csv","112","Western Pennsylvania Regional Data Center","growpghgardens201712_readin.xlsx","663","Grow PGH Garden","The Samuel and Anna Mae Richardson Community Garden","5427 Willow Street","Bethel Park","PA",15102,"","","","https://www.growpittsburgh.org/directory/garden/the-samuel-and-anna-mae-richardson-community-garden",40.323229,-80.0405,"5","","",1,0,1,1,0,0,"0","no date/time;no county info",NA,NA,NA,"0"
112,"food-data/Cleaned_data_files//cleaned_growpgh.csv","113","Western Pennsylvania Regional Data Center","growpghgardens201712_readin.xlsx","664","Grow PGH Garden","Coraopolis Community Garden","411 Broadway Avenue","Coraopolis","PA",15108,"","","","https://www.growpittsburgh.org/directory/garden/coraopolis-community-garden",40.516753,-80.160618,"5","","",1,0,1,1,0,0,"0","no date/time;no county info",112,NA,NA,"0"
113,"food-data/Cleaned_data_files//cleaned_growpgh.csv","114","Western Pennsylvania Regional Data Center","growpghgardens201712_readin.xlsx","665","Grow PGH Garden","Crafton Community Farm","117 West Steuben Street","Crafton","PA",15205,"","","","https://www.growpittsburgh.org/directory/garden/crafton-community-farm",40.438964,-80.072817,"5","","",1,0,1,1,0,0,"0","no date/time;no county info",113,NA,NA,"0"
114,"food-data/Cleaned_data_files//cleaned_growpgh.csv","115","Western Pennsylvania Regional Data Center","growpghgardens201712_readin.xlsx","666","Grow PGH Garden","Community Human Services Teaching Garden","370 Lawn Street","Pittsburgh","PA",15213,"","","","https://www.growpittsburgh.org/directory/garden/community-human-services-teaching-garden",40.433691,-79.961356,"5","","",1,0,1,1,0,0,"0","no date/time;no county info",NA,NA,NA,"0"
115,"food-data/Cleaned_data_files//cleaned_growpgh.csv","116","Western Pennsylvania Regional Data Center","growpghgardens201712_readin.xlsx","667","Grow PGH Garden","Landslide Community Farm","3 Beelen Street","Pittsburgh","PA",15213,"","","","https://www.growpittsburgh.org/directory/garden/landslide-community-farm",40.43816,-79.97244,"5","","",1,0,1,1,0,0,"0","no date/time;no county info",NA,NA,NA,"0"
116,"food-data/Cleaned_data_files//cleaned_growpgh.csv","117","Western Pennsylvania Regional Data Center","growpghgardens201712_readin.xlsx","668","Grow PGH Garden","Rosalinda Sauro Sirianni Memorial Garden","119 Davis Avenue","Bellevue","PA",15202,"","","","https://www.growpittsburgh.org/directory/garden/rosalinda-sauro-sirianni-memorial-garden",40.48879,-80.049169,"5","","",1,0,1,1,0,0,"0","no date/time;no county info",NA,NA,NA,"0"
117,"food-data/Cleaned_data_files//cleaned_growpgh.csv","118","Western Pennsylvania Regional Data Center","growpghgardens201712_readin.xlsx","669","Grow PGH Garden","Second UP Garden","300 Hay Street","Pittsburgh","PA",15221,"","","","https://www.growpittsburgh.org/directory/garden/second-up-garden",40.438825,-79.888431,"5","","",1,0,1,1,0,0,"0","no date/time;no county info",NA,NA,NA,"0"
118,"food-data/Cleaned_data_files//cleaned_growpgh.csv","119","Western Pennsylvania Regional Data Center","growpghgardens201712_readin.xlsx","670","Grow PGH Garden","Earl Brooks Community Garden","222 Robinson Street","Pittsburgh","PA",15213,"","","","https://www.growpittsburgh.org/directory/garden/earl-brooks-community-garden",40.441165,-79.965404,"5","","",1,0,1,1,0,0,"0","no date/time;no county info",NA,NA,NA,"0"
120,"food-data/Cleaned_data_files//cleaned_growpgh.csv","121","Western Pennsylvania Regional Data Center","growpghgardens201712_readin.xlsx","672","Grow PGH Garden","Ballfield Farm","Crispen Street","Pittsburgh","PA",15214,"","","","https://www.growpittsburgh.org/directory/garden/ballfield-farm",40.46849,-80.016561,"5","","",1,0,1,1,0,0,"0","no date/time;no county info",NA,NA,NA,"0"
121,"food-data/Cleaned_data_files//cleaned_growpgh.csv","122","Western Pennsylvania Regional Data Center","growpghgardens201712_readin.xlsx","673","Grow PGH Garden","Boxy Caufield Memorial Garden: Allegheny YMCA","600 West North Avenue","Pittsburgh","PA",15212,"","","","https://www.growpittsburgh.org/directory/garden/boxy-caufield-memorial-garden-allegheny-ymca",40.454624,-80.012922,"5","","",1,0,1,1,0,0,"0","no date/time;no county info",121,NA,NA,"0"
122,"food-data/Cleaned_data_files//cleaned_growpgh.csv","123","Western Pennsylvania Regional Data Center","growpghgardens201712_readin.xlsx","674","Grow PGH Garden","Hazelwood YMCA Community Garden","4713 Chatsworth Avenue","Pittsburgh","PA",15207,"","","","https://www.growpittsburgh.org/directory/garden/hazelwood-ymca-community-garden",40.413082,-79.944132,"5","","",1,0,1,1,0,0,"0","no date/time;no county info",NA,NA,NA,"0"
123,"food-data/Cleaned_data_files//cleaned_growpgh.csv","124","Western Pennsylvania Regional Data Center","growpghgardens201712_readin.xlsx","675","Grow PGH Garden","Miss Mary's Garden: Homewood Brushton YMCA","7140 Bennett Street","Pittsburgh","PA",15208,"","","","https://www.growpittsburgh.org/directory/garden/miss-marys-garden-homewood-brushton-ymca",40.456529,-79.898291,"5","","",1,0,1,1,0,0,"0","no date/time;no county info",123,NA,NA,"0"
124,"food-data/Cleaned_data_files//cleaned_growpgh.csv","125","Western Pennsylvania Regional Data Center","growpghgardens201712_readin.xlsx","676","Grow PGH Garden","Sheridan Avenue Orchard","310 Sheridan Avenue","Pittsburgh","PA",15206,"","","","https://www.growpittsburgh.org/directory/garden/sheridan-avenue-orchard",40.463474,-79.921924,"5","","",1,0,1,1,0,0,"0","no date/time;no county info",NA,NA,NA,"0"
125,"food-data/Cleaned_data_files//cleaned_growpgh.csv","126","Western Pennsylvania Regional Data Center","growpghgardens201712_readin.xlsx","677","Grow PGH Garden","Centre Ave YMCA Garden","2621 Centre Avenue","Pittsburgh","PA",15219,"","","","https://www.growpittsburgh.org/directory/garden/centre-ave-ymca-garden-1",40.447201,-79.967894,"5","","",1,0,1,1,0,0,"0","no date/time;no county info",125,NA,NA,"0"
126,"food-data/Cleaned_data_files//cleaned_growpgh.csv","127","Western Pennsylvania Regional Data Center","growpghgardens201712_readin.xlsx","678","Grow PGH Garden","Allison Park Elementary Community Garden","803 Mcgovern Road","Houston","PA",15342,"","","","https://www.growpittsburgh.org/directory/garden/allison-park-elementary-community-garden-3",40.231664,-80.226758,"5","","",1,0,1,1,0,0,"0","no date/time;no county info",NA,NA,NA,"0"
127,"food-data/Cleaned_data_files//cleaned_growpgh.csv","128","Western Pennsylvania Regional Data Center","growpghgardens201712_readin.xlsx","679","Grow PGH Garden","Avonworth Middle School","258 Joseph's Lane","Pittsburgh","PA",15237,"","","","https://www.growpittsburgh.org/directory/garden/avonworth-middle-school-3",40.532346,-80.078434,"5","","",1,0,1,1,0,0,"0","no date/time;no county info",NA,NA,NA,"0"
128,"food-data/Cleaned_data_files//cleaned_growpgh.csv","129","Western Pennsylvania Regional Data Center","growpghgardens201712_readin.xlsx","680","Grow PGH Garden","Borland Green Cooperative","5806 Black Street","Pittsburgh","PA",15206,"","","","https://www.growpittsburgh.org/directory/garden/borland-green-cooperative-2",40.467393,-79.924427,"5","","",1,0,1,1,0,0,"0","no date/time;no county info",128,NA,NA,"0"
129,"food-data/Cleaned_data_files//cleaned_growpgh.csv","130","Western Pennsylvania Regional Data Center","growpghgardens201712_readin.xlsx","681","Grow PGH Garden","Carnegie Elementary School","301 Franklin Avenue","Carnegie","PA",15106,"","","","https://www.growpittsburgh.org/directory/garden/carnegie-elementary-school-2",40.401334,-80.081874,"5","","",1,0,1,1,0,0,"0","no date/time;no county info",NA,NA,NA,"0"
131,"food-data/Cleaned_data_files//cleaned_growpgh.csv","132","Western Pennsylvania Regional Data Center","growpghgardens201712_readin.xlsx","684","Grow PGH Garden","Colfax Elementary","2332 Beechwood Boulevard","Pittsburgh","PA",15217,"","","","https://www.growpittsburgh.org/directory/garden/colfax-elementary-2",40.433127,-79.915417,"5","","",1,0,1,1,0,0,"0","no date/time;no county info",NA,NA,NA,"0"
132,"food-data/Cleaned_data_files//cleaned_growpgh.csv","133","Western Pennsylvania Regional Data Center","growpghgardens201712_readin.xlsx","685","Grow PGH Garden","Community Day School of Pittsburgh","6424 Forward Avenue","Pittsburgh","PA",15217,"","","","https://www.growpittsburgh.org/directory/garden/community-day-school-of-pittsburgh-2",40.427442,-79.917825,"5","","",1,0,1,1,0,0,"0","no date/time;no county info",NA,NA,NA,"0"
133,"food-data/Cleaned_data_files//cleaned_growpgh.csv","134","Western Pennsylvania Regional Data Center","growpghgardens201712_readin.xlsx","686","Grow PGH Garden","Dilworth Traditional Academy","6200 Stanton Avenue","Pittsburgh","PA",15206,"","","","https://www.growpittsburgh.org/directory/garden/dilworth-traditional-academy-2",40.468805,-79.917808,"5","","",1,0,1,1,0,0,"0","no date/time;no county info",NA,NA,NA,"0"
134,"food-data/Cleaned_data_files//cleaned_growpgh.csv","135","Western Pennsylvania Regional Data Center","growpghgardens201712_readin.xlsx","687","Grow PGH Garden","Fort LeBoeuf Middle School","865 Cherry Street","Waterford","PA",16441,"","","","https://www.growpittsburgh.org/directory/garden/fort-leboeuf-middle-school-2",41.951436,-79.986455,"5","","",1,0,1,1,0,0,"0","no date/time;no county info",NA,NA,NA,"0"
135,"food-data/Cleaned_data_files//cleaned_growpgh.csv","136","Western Pennsylvania Regional Data Center","growpghgardens201712_readin.xlsx","688","Grow PGH Garden","Greenock Elementary School","1101 Greenock Buena Vista Road","McKeesport","PA",15135,"","","","https://www.growpittsburgh.org/directory/garden/greenock-elementary-school-2",40.311881,-79.8029,"5","","",1,0,1,1,0,0,"0","no date/time;no county info",NA,NA,NA,"0"
136,"food-data/Cleaned_data_files//cleaned_growpgh.csv","137","Western Pennsylvania Regional Data Center","growpghgardens201712_readin.xlsx","689","Grow PGH Garden","Iroquois Elementary School","4231 Morse Street","Erie","PA",16511,"","","","https://www.growpittsburgh.org/directory/garden/iroquois-elementary-school-2",42.153881,-80.012094,"5","","",1,0,1,1,0,0,"0","no date/time;no county info",NA,NA,NA,"0"
137,"food-data/Cleaned_data_files//cleaned_growpgh.csv","138","Western Pennsylvania Regional Data Center","growpghgardens201712_readin.xlsx","690","Grow PGH Garden","MAMS Community Garden","800 Thurston Road","Meadville","PA",16335,"","","","https://www.growpittsburgh.org/directory/garden/mams-community-garden-2",41.633276,-80.124376,"5","","",1,0,1,1,0,0,"0","no date/time;no county info",NA,NA,NA,"0"
138,"food-data/Cleaned_data_files//cleaned_growpgh.csv","139","Western Pennsylvania Regional Data Center","growpghgardens201712_readin.xlsx","691","Grow PGH Garden","Pittsburgh Arsenal","220 Zeroth Street","Pittsburgh","PA",15201,"","","","https://www.growpittsburgh.org/directory/garden/pittsburgh-arsenal-2",40.467734,-79.962522,"5","","",1,0,1,1,0,0,"0","no date/time;no county info",138,NA,NA,"0"
139,"food-data/Cleaned_data_files//cleaned_growpgh.csv","140","Western Pennsylvania Regional Data Center","growpghgardens201712_readin.xlsx","692","Grow PGH Garden","Pittsburgh Langley","2940 Sheraden Boulevard","Pittsburgh","PA",15204,"","","","https://www.growpittsburgh.org/directory/garden/pittsburgh-langley-2",40.453644,-80.054031,"5","","",1,0,1,1,0,0,"0","no date/time;no county info",139,NA,NA,"0"
140,"food-data/Cleaned_data_files//cleaned_growpgh.csv","141","Western Pennsylvania Regional Data Center","growpghgardens201712_readin.xlsx","693","Grow PGH Garden","Pittsburgh Linden School Garden","725 S Linden Avenue","Pittsburgh","PA",15208,"","","","https://www.growpittsburgh.org/directory/garden/pittsburgh-linden-school-garden-2",40.445514,-79.916283,"5","","",1,0,1,1,0,0,"0","no date/time;no county info",NA,NA,NA,"0"
141,"food-data/Cleaned_data_files//cleaned_growpgh.csv","142","Western Pennsylvania Regional Data Center","growpghgardens201712_readin.xlsx","694","Grow PGH Garden","Pittsburgh Miller African Centered Academy","2055 Bedford Avenue","Pittsburgh","PA",15219,"","","","https://www.growpittsburgh.org/directory/garden/pittsburgh-miller-african-centered-academy-2",40.447077,-79.981061,"5","","",1,0,1,1,0,0,"0","no date/time;no county info",NA,NA,NA,"0"
142,"food-data/Cleaned_data_files//cleaned_growpgh.csv","143","Western Pennsylvania Regional Data Center","growpghgardens201712_readin.xlsx","695","Grow PGH Garden","Pittsburgh Montessori PreK 5","201 S Graham Street","Pittsburgh","PA",15206,"","","","https://www.growpittsburgh.org/directory/garden/pittsburgh-montessori-prek-5-2",40.462489,-79.935596,"5","","",1,0,1,1,0,0,"0","no date/time;no county info",NA,NA,NA,"0"
144,"food-data/Cleaned_data_files//cleaned_growpgh.csv","145","Western Pennsylvania Regional Data Center","growpghgardens201712_readin.xlsx","697","Grow PGH Garden","Pittsburgh Urban Christian School","809 Center Street","Pittsburgh","PA",15221,"","","","https://www.growpittsburgh.org/directory/garden/pittsburgh-urban-christian-school-2",40.441483,-79.882937,"5","","",1,0,1,1,0,0,"0","no date/time;no county info",NA,NA,NA,"0"
146,"food-data/Cleaned_data_files//cleaned_growpgh.csv","147","Western Pennsylvania Regional Data Center","growpghgardens201712_readin.xlsx","699","Grow PGH Garden","SSA Farm at the Junior School","400 S. Braddock Avenue","Pittsburgh","PA",15221,"","","","https://www.growpittsburgh.org/directory/garden/ssa-farm-at-the-junior-school-2",40.444237,-79.897476,"5","","",1,0,1,1,0,0,"0","no date/time;no county info",NA,NA,NA,"0"
147,"food-data/Cleaned_data_files//cleaned_growpgh.csv","148","Western Pennsylvania Regional Data Center","growpghgardens201712_readin.xlsx","700","Grow PGH Garden","SSA Farm at the Middle School","500 Squaw Run Road East","Pittsburgh","PA",15238,"","","","https://www.growpittsburgh.org/directory/garden/ssa-farm-at-the-middle-school-2",40.52817,-79.880648,"5","","",1,0,1,1,0,0,"0","no date/time;no county info",NA,NA,NA,"0"
148,"food-data/Cleaned_data_files//cleaned_growpgh.csv","149","Western Pennsylvania Regional Data Center","growpghgardens201712_readin.xlsx","701","Grow PGH Garden","SSA Farm at the Senior School","423 Fox Chapel Road","Pittsburgh","PA",15238,"","","","https://www.growpittsburgh.org/directory/garden/ssa-farm-at-the-senior-school-2",40.52247,-79.882689,"5","","",1,0,1,1,0,0,"0","no date/time;no county info",NA,NA,NA,"0"
149,"food-data/Cleaned_data_files//cleaned_growpgh.csv","150","Western Pennsylvania Regional Data Center","growpghgardens201712_readin.xlsx","702","Grow PGH Garden","St. Paul African Methodist Episcopal Church","414 Orchard Place","Pittsburgh","PA",15210,"","","","https://www.growpittsburgh.org/directory/garden/st-paul-african-methodist-episcopal-church-2",40.41792,-79.995982,"5","","",1,0,1,1,0,0,"0","no date/time;no county info",NA,NA,NA,"0"
150,"food-data/Cleaned_data_files//cleaned_growpgh.csv","151","Western Pennsylvania Regional Data Center","growpghgardens201712_readin.xlsx","703","Grow PGH Garden","The Environmental Charter Lower School Edible Schoolyard","309 South Braddock Avenue","Pittsburgh","PA",15221,"","","","https://www.growpittsburgh.org/directory/garden/the-environmental-charter-lower-school-edible-schoolyard-2",40.444922,-79.895715,"5","","",1,0,1,1,0,0,"0","no date/time;no county info",NA,NA,NA,"0"
151,"food-data/Cleaned_data_files//cleaned_growpgh.csv","152","Western Pennsylvania Regional Data Center","growpghgardens201712_readin.xlsx","704","Grow PGH Garden","The Environmental Charter Upper School Living Laboratory","829 Milton Street","Pittsburgh","PA",15218,"","","","https://www.growpittsburgh.org/directory/garden/the-environmental-charter-upper-school-living-laboratory-2",40.436015,-79.89694,"5","","",1,0,1,1,0,0,"0","no date/time;no county info",151,NA,NA,"0"
152,"food-data/Cleaned_data_files//cleaned_growpgh.csv","153","Western Pennsylvania Regional Data Center","growpghgardens201712_readin.xlsx","705","Grow PGH Garden","The Neighborhood Academy","709 N Aiken Avenue","Pittsburgh","PA",15206,"","","","https://www.growpittsburgh.org/directory/garden/the-neighborhood-academy-2",40.472894,-79.932793,"5","","",1,0,1,1,0,0,"0","no date/time;no county info",NA,NA,NA,"0"
153,"food-data/Cleaned_data_files//cleaned_growpgh.csv","154","Western Pennsylvania Regional Data Center","growpghgardens201712_readin.xlsx","706","Grow PGH Garden","Urban League Charter School","327 N Negley Avenue","Pittsburgh","PA",15206,"","","","https://www.growpittsburgh.org/directory/garden/urban-league-charter-school-2",40.466733,-79.929864,"5","","",1,0,1,1,0,0,"0","no date/time;no county info",NA,NA,NA,"0"
154,"food-data/Cleaned_data_files//cleaned_growpgh.csv","155","Western Pennsylvania Regional Data Center","growpghgardens201712_readin.xlsx","707","Grow PGH Garden","Waldorf School of Pittsburgh","201 S Winebiddle Street","Pittsburgh","PA",15224,"","","","https://www.growpittsburgh.org/directory/garden/waldorf-school-of-pittsburgh-2",40.463958,-79.942294,"5","","",1,0,1,1,0,0,"0","no date/time;no county info",NA,NA,NA,"0"
155,"food-data/Cleaned_data_files//cleaned_growpgh.csv","156","Western Pennsylvania Regional Data Center","growpghgardens201712_readin.xlsx","708","Grow PGH Garden","West End Children's Center","42 Wabash Street","Pittsburgh","PA",15220,"","","","https://www.growpittsburgh.org/directory/garden/west-end-childrens-center-2",40.440192,-80.03457,"5","","",1,0,1,1,0,0,"0","no date/time;no county info",155,NA,NA,"0"
156,"food-data/Cleaned_data_files//cleaned_growpgh.csv","157","Western Pennsylvania Regional Data Center","growpghgardens201712_readin.xlsx","709","Grow PGH Garden","Frick Greenhouse","7227 Reynolds Street","Pittsburgh","PA",15208,"","","","https://www.growpittsburgh.org/directory/garden/frick-greenhouse-1",40.447816,-79.901057,"5","","",1,0,1,1,0,0,"0","no date/time;no county info",NA,NA,NA,"0"
157,"food-data/Cleaned_data_files//cleaned_growpgh.csv","158","Western Pennsylvania Regional Data Center","growpghgardens201712_readin.xlsx","710","Grow PGH Garden","Shiloh Farm","7227 Thomas Boulevard","Pittsburgh","PA",15208,"","","","https://www.growpittsburgh.org/directory/garden/shiloh-farm-1",40.450512,-79.898805,"5","","",1,0,1,1,0,0,"0","no date/time;no county info",157,NA,NA,"0"
159,"food-data/Cleaned_data_files//cleaned_growpgh.csv","160","Western Pennsylvania Regional Data Center","growpghgardens201712_readin.xlsx","712","Grow PGH Garden","Bandi Schaum Garden","2315 Sidney Street","Pittsburgh","PA",15203,"","","","https://www.growpittsburgh.org/directory/garden/bandi-schaum-garden",40.429303,-79.972425,"5","","",1,0,1,1,0,0,"0","no date/time;no county info",NA,NA,NA,"0"
160,"food-data/Cleaned_data_files//cleaned_growpgh.csv","161","Western Pennsylvania Regional Data Center","growpghgardens201712_readin.xlsx","713","Grow PGH Garden","East Field Cooperative Garden","5543 Black Street","Pittsburgh","PA",15206,"","","","https://www.growpittsburgh.org/directory/garden/east-field-cooperative-garden",40.469404,-79.928441,"5","","",1,0,1,1,0,0,"0","no date/time;no county info",160,NA,NA,"0"
161,"food-data/Cleaned_data_files//cleaned_growpgh.csv","162","Western Pennsylvania Regional Data Center","growpghgardens201712_readin.xlsx","715","Grow PGH Garden","Elliott Community Garden","706 Lorenz Avenue","Pittsburgh","PA",15220,"","","","https://www.growpittsburgh.org/directory/garden/elliott-community-garden-1",40.44501,-80.039497,"5","","",1,0,1,1,0,0,"0","no date/time;no county info",NA,NA,NA,"0"
162,"food-data/Cleaned_data_files//cleaned_growpgh.csv","163","Western Pennsylvania Regional Data Center","growpghgardens201712_readin.xlsx","716","Grow PGH Garden","Fineview Community Garden","13 Carrie Street","Pittsburgh","PA",15212,"","","","https://www.growpittsburgh.org/directory/garden/fineview-community-garden",40.461294,-80.002021,"5","","",1,0,1,1,0,0,"0","no date/time;no county info",NA,NA,NA,"0"
163,"food-data/Cleaned_data_files//cleaned_growpgh.csv","164","Western Pennsylvania Regional Data Center","growpghgardens201712_readin.xlsx","717","Grow PGH Garden","Frazier Farms Community Garden","3638 Frazier Street","Pittsburgh","PA",15213,"","","","https://www.growpittsburgh.org/directory/garden/frazier-farms-community-garden",40.429735,-79.954579,"5","","",1,0,1,1,0,0,"0","no date/time;no county info",NA,NA,NA,"0"
164,"food-data/Cleaned_data_files//cleaned_growpgh.csv","165","Western Pennsylvania Regional Data Center","growpghgardens201712_readin.xlsx","718","Grow PGH Garden","Garden of Etna","9 Short Alley","Pittsburgh","PA",15223,"","","","https://www.growpittsburgh.org/directory/garden/garden-of-etna",40.496077,-79.945871,"5","","",1,0,1,1,0,0,"0","no date/time;no county info",NA,NA,NA,"0"
165,"food-data/Cleaned_data_files//cleaned_growpgh.csv","166","Western Pennsylvania Regional Data Center","growpghgardens201712_readin.xlsx","719","Grow PGH Garden","Garden On Gearing","409-411 Gearing Avenue","Pittsburgh","PA",15210,"","","","https://www.growpittsburgh.org/directory/garden/garden-on-gearing",40.418085,-80.00523,"5","","",1,0,1,1,0,0,"0","no date/time;no county info",NA,NA,NA,"0"
166,"food-data/Cleaned_data_files//cleaned_growpgh.csv","167","Western Pennsylvania Regional Data Center","growpghgardens201712_readin.xlsx","720","Grow PGH Garden","Glenn Avenue Community Garden","Glenn Avenue & Swissvale Avenue","Pittsburgh","PA",15221,"","","","https://www.growpittsburgh.org/directory/garden/glenn-avenue-community-garden",40.444612,-79.875885,"5","","",1,0,1,1,0,0,"0","no date/time;no county info",NA,NA,NA,"0"
167,"food-data/Cleaned_data_files//cleaned_growpgh.csv","168","Western Pennsylvania Regional Data Center","growpghgardens201712_readin.xlsx","721","Grow PGH Garden","Harmar Street Community Garden","331 Harmar Street","Pittsburgh","PA",15219,"","","","https://www.growpittsburgh.org/directory/garden/harmar-street-community-garden",40.457406,-79.967969,"5","","",1,0,1,1,0,0,"0","no date/time;no county info",NA,NA,NA,"0"
168,"food-data/Cleaned_data_files//cleaned_growpgh.csv","169","Western Pennsylvania Regional Data Center","growpghgardens201712_readin.xlsx","722","Grow PGH Garden","Highland Park Community Gardens","Stanton Avenue","Pittsburgh","PA",15206,"","","","https://www.growpittsburgh.org/directory/garden/highland-park-community-gardens",40.472064,-79.913673,"5","","",1,0,1,1,0,0,"0","no date/time;no county info",NA,NA,NA,"0"
169,"food-data/Cleaned_data_files//cleaned_growpgh.csv","170","Western Pennsylvania Regional Data Center","growpghgardens201712_readin.xlsx","723","Grow PGH Garden","Kincaid Street Community Garden","5409 Kincaid Street","Pittsburgh","PA",15206,"","","","https://www.growpittsburgh.org/directory/garden/kincaid-street-community-garden",40.466375,-79.934859,"5","","",1,0,1,1,0,0,"0","no date/time;no county info",NA,NA,NA,"0"
170,"food-data/Cleaned_data_files//cleaned_growpgh.csv","171","Western Pennsylvania Regional Data Center","growpghgardens201712_readin.xlsx","728","Grow PGH Garden","Kiwanis Community Garden","2801 Jenny Lind Street","McKeesport","PA",15132,"","","","https://www.growpittsburgh.org/directory/garden/kiwanis-community-garden",40.339138,-79.844107,"5","","",1,0,1,1,0,0,"0","no date/time;no county info",NA,NA,NA,"0"
171,"food-data/Cleaned_data_files//cleaned_growpgh.csv","172","Western Pennsylvania Regional Data Center","growpghgardens201712_readin.xlsx","729","Grow PGH Garden","Larimer Community Garden","300 Larimer Avenue","Pittsburgh","PA",15206,"","","","https://www.growpittsburgh.org/directory/garden/larimer-community-garden",40.46432,-79.91601,"5","","",1,0,1,1,0,0,"0","no date/time;no county info",171,NA,NA,"0"
172,"food-data/Cleaned_data_files//cleaned_growpgh.csv","173","Western Pennsylvania Regional Data Center","growpghgardens201712_readin.xlsx","730","Grow PGH Garden","Lawrenceville Community Gardens","4200 Sherrod Street","Pittsburgh","PA",15201,"","","","https://www.growpittsburgh.org/directory/garden/lawrenceville-community-gardens",40.467567,-79.956557,"5","","",1,0,1,1,0,0,"0","no date/time;no county info",NA,NA,NA,"0"
173,"food-data/Cleaned_data_files//cleaned_growpgh.csv","174","Western Pennsylvania Regional Data Center","growpghgardens201712_readin.xlsx","731","Grow PGH Garden","Martin Luther King Jr. Community Garden","219 Kirkpatrick Street","Pittsburgh","PA",15219,"","","","https://www.growpittsburgh.org/directory/garden/martin-luther-king-jr-community-garden",40.440368,-79.983611,"5","","",1,0,1,1,0,0,"0","no date/time;no county info",NA,NA,NA,"0"
174,"food-data/Cleaned_data_files//cleaned_growpgh.csv","175","Western Pennsylvania Regional Data Center","growpghgardens201712_readin.xlsx","732","Grow PGH Garden","Morningside Community Garden","1924 Chislett Street","Pittsburgh","PA",15206,"","","","https://www.growpittsburgh.org/directory/garden/morningside-community-garden",40.486784,-79.923468,"5","","",1,0,1,1,0,0,"0","no date/time;no county info",NA,NA,NA,"0"
175,"food-data/Cleaned_data_files//cleaned_growpgh.csv","176","Western Pennsylvania Regional Data Center","growpghgardens201712_readin.xlsx","733","Grow PGH Garden","Mt. Oliver Borough Community Garden","Transverse Park","Mount Oliver","PA",15210,"","","","https://www.growpittsburgh.org/directory/garden/mt-oliver-borough-community-garden",40.406719,-79.984659,"5","","",1,0,1,1,0,0,"0","no date/time;no county info",NA,NA,NA,"0"
176,"food-data/Cleaned_data_files//cleaned_growpgh.csv","177","Western Pennsylvania Regional Data Center","growpghgardens201712_readin.xlsx","734","Grow PGH Garden","Penn Hills Community Garden","1162 Jefferson Road","Penn Hills","PA",15235,"","","","https://www.growpittsburgh.org/directory/garden/penn-hills-community-garden",40.447638,-79.798817,"5","","",1,0,1,1,0,0,"0","no date/time;no county info",NA,NA,NA,"0"
177,"food-data/Cleaned_data_files//cleaned_growpgh.csv","178","Western Pennsylvania Regional Data Center","growpghgardens201712_readin.xlsx","735","Grow PGH Garden","Stanton Heights Allegheny Cemetery Community Garden","Stanton Avenue","Pittsburgh","PA",15201,"","","","https://www.growpittsburgh.org/directory/garden/stanton-heights-allegheny-cemetery-community-garden",40.473711,-79.961237,"5","","",1,0,1,1,0,0,"0","no date/time;no county info",NA,NA,NA,"0"
178,"food-data/Cleaned_data_files//cleaned_growpgh.csv","179","Western Pennsylvania Regional Data Center","growpghgardens201712_readin.xlsx","736","Grow PGH Garden","The Harry Orlando Memorial Community Garden","2205 Fifth Avenue","Pittsburgh","PA",15219,"","","","https://www.growpittsburgh.org/directory/garden/the-harry-orlando-memorial-community-garden",40.438247,-79.973943,"5","","",1,0,1,1,0,0,"0","no date/time;no county info",NA,NA,NA,"0"
179,"food-data/Cleaned_data_files//cleaned_growpgh.csv","180","Western Pennsylvania Regional Data Center","growpghgardens201712_readin.xlsx","738","Grow PGH Garden","The Octopus Garden","133 S. Aiken Avenue","Pittsburgh","PA",15206,"","","","https://www.growpittsburgh.org/directory/garden/the-octopus-garden",40.463591,-79.936771,"5","","",1,0,1,1,0,0,"0","no date/time;no county info",NA,NA,NA,"0"
180,"food-data/Cleaned_data_files//cleaned_growpgh.csv","181","Western Pennsylvania Regional Data Center","growpghgardens201712_readin.xlsx","739","Grow PGH Garden","Tustin Street Community Garden","2021 Tustin Street","Pittsburgh","PA",15219,"","","","https://www.growpittsburgh.org/directory/garden/tustin-street-community-garden",40.436569,-79.977099,"5","","",1,0,1,1,0,0,"0","no date/time;no county info",NA,NA,NA,"0"
181,"food-data/Cleaned_data_files//cleaned_PA_SNAP.csv","182","USDA Food and Nutrition Service","SNAP_Store_Locations.csv","207","","Pit Stop Express","4501 Ohio River Boulevard","Pittsburgh","PA",15202,"ALLEGHENY","","","",40.491482,-80.061142,"4","","",1,NA,NA,NA,NA,0,"0","no type;no phone;no date/time info",181,NA,NA,"0"
182,"food-data/Cleaned_data_files//cleaned_PA_SNAP.csv","183","USDA Food and Nutrition Service","SNAP_Store_Locations.csv","254","","Bloomfield Groceria","237 Cedarville Street","Pittsburgh","PA",15224,"ALLEGHENY","","","",40.461876,-79.948547,"4","","",1,NA,NA,NA,NA,0,"0","no type;no phone;no date/time info",182,NA,NA,"0"
183,"food-data/Cleaned_data_files//cleaned_PA_SNAP.csv","184","USDA Food and Nutrition Service","SNAP_Store_Locations.csv","361","convenience store","Sunoco","7701 Penn Avenue","Pittsburgh","PA",15221,"ALLEGHENY","","","",40.446556,-79.89325,"4","","",1,NA,NA,NA,NA,0,"0","no type;no phone;no date/time info",183,NA,NA,"0"
184,"food-data/Cleaned_data_files//cleaned_PA_SNAP.csv","185","USDA Food and Nutrition Service","SNAP_Store_Locations.csv","869","","Ron's Corner Store","7289 Mount Carmel Road","Pittsburgh","PA",15235,"ALLEGHENY","","","",40.470867,-79.88784,"4","","",1,NA,NA,NA,NA,0,"0","no type;no phone;no date/time info",NA,NA,NA,"0"
185,"food-data/Cleaned_data_files//cleaned_PA_SNAP.csv","186","USDA Food and Nutrition Service","SNAP_Store_Locations.csv","876","","MAHROOSH ENTERPRISE INC","319 Ann Street","Mckeesport","PA",15132,"ALLEGHENY","","","",40.350628,-79.875084,"4","","",1,NA,NA,NA,NA,0,"0","no type;no phone;no date/time info",NA,NA,NA,"0"
186,"food-data/Cleaned_data_files//cleaned_PA_SNAP.csv","187","USDA Food and Nutrition Service","SNAP_Store_Locations.csv","1060","","Sitaram Oil Corporation","2000 S Braddock Avenue","Pittsburgh","PA",15218,"ALLEGHENY","","","",40.421906,-79.885368,"4","","",1,NA,NA,NA,NA,0,"0","no type;no phone;no date/time info",186,NA,NA,"0"
187,"food-data/Cleaned_data_files//cleaned_PA_SNAP.csv","188","USDA Food and Nutrition Service","SNAP_Store_Locations.csv","1365","","Stratmore Market","1511 Stratmore Street","Pittsburgh","PA",15205,"ALLEGHENY","","","",40.438206,-80.055969,"4","","",1,NA,NA,NA,NA,0,"0","no type;no phone;no date/time info",187,NA,NA,"0"
188,"food-data/Cleaned_data_files//cleaned_PA_SNAP.csv","189","USDA Food and Nutrition Service","SNAP_Store_Locations.csv","1447","","Bombay Market","4605 Centre Avenue","Pittsburgh","PA",15213,"ALLEGHENY","","","",40.452007,-79.951736,"4","","",1,NA,NA,NA,NA,0,"0","no type;no phone;no date/time info",188,NA,NA,"0"
189,"food-data/Cleaned_data_files//cleaned_PA_SNAP.csv","190","USDA Food and Nutrition Service","SNAP_Store_Locations.csv","2361","","Brother Tom's Bakery","808 Main Street","Pittsburgh","PA",15215,"ALLEGHENY","","","",40.494648,-79.934189,"4","","",1,NA,NA,NA,NA,0,"0","no type;no phone;no date/time info",189,NA,NA,"0"
190,"food-data/Cleaned_data_files//cleaned_PA_SNAP.csv","191","USDA Food and Nutrition Service","SNAP_Store_Locations.csv","2448","convenience store","Dollar Tree 6092","713 E Eighth Avenue","Homestead","PA",15120,"ALLEGHENY","","","",40.409012,-79.903984,"4","","",1,NA,NA,NA,NA,0,"0","no type;no phone;no date/time info",190,NA,NA,"0"
191,"food-data/Cleaned_data_files//cleaned_PA_SNAP.csv","192","USDA Food and Nutrition Service","SNAP_Store_Locations.csv","2733","","Bloomfield Bp","4006 Liberty Avenue","Pittsburgh","PA",15224,"ALLEGHENY","","","",40.462864,-79.956894,"4","","",1,NA,NA,NA,NA,0,"0","no type;no phone;no date/time info",191,NA,NA,"0"
192,"food-data/Cleaned_data_files//cleaned_PA_SNAP.csv","193","USDA Food and Nutrition Service","SNAP_Store_Locations.csv","3645","","Nataliya  European  Food  Market  Inc","4370 Murray Avenue Ste 1","Pittsburgh","PA",15217,"ALLEGHENY","","","",40.41996,-79.928391,"4","","",1,NA,NA,NA,NA,0,"0","no type;no phone;no date/time info",NA,NA,NA,"0"
193,"food-data/Cleaned_data_files//cleaned_PA_SNAP.csv","194","USDA Food and Nutrition Service","SNAP_Store_Locations.csv","3891","","Waad Mini Market","7006 Frankstown Avenue","Pittsburgh","PA",15208,"ALLEGHENY","","","",40.458382,-79.900787,"4","","",1,NA,NA,NA,NA,0,"0","no type;no phone;no date/time info",4,NA,NA,"0"
194,"food-data/Cleaned_data_files//cleaned_PA_SNAP.csv","195","USDA Food and Nutrition Service","SNAP_Store_Locations.csv","5658","convenience store","Dollar General 16488","2409 Rte 286","Plum","PA",15239,"ALLEGHENY","","","",40.464756,-79.705376,"4","","",1,NA,NA,NA,NA,0,"0","no type;no phone;no date/time info",NA,NA,NA,"0"
195,"food-data/Cleaned_data_files//cleaned_PA_SNAP.csv","196","USDA Food and Nutrition Service","SNAP_Store_Locations.csv","5765","","City News Arcade","418 Wood Street","Pittsburgh","PA",15222,"ALLEGHENY","","","",40.439873,-80.000946,"4","","",1,NA,NA,NA,NA,0,"0","no type;no phone;no date/time info",195,NA,NA,"0"
196,"food-data/Cleaned_data_files//cleaned_PA_SNAP.csv","197","USDA Food and Nutrition Service","SNAP_Store_Locations.csv","5797","convenience store","Sheetz 459","2175 Hulton Road","Verona","PA",15147,"ALLEGHENY","","","",40.526405,-79.816048,"4","","",1,NA,NA,NA,NA,0,"0","no type;no phone;no date/time info",NA,NA,NA,"0"
197,"food-data/Cleaned_data_files//cleaned_PA_SNAP.csv","198","USDA Food and Nutrition Service","SNAP_Store_Locations.csv","5815","","Las Palmas 2","326 Atwood Street","Pittsburgh","PA",15213,"ALLEGHENY","","","",40.439068,-79.95517,"4","","",1,NA,NA,NA,NA,0,"0","no type;no phone;no date/time info",NA,NA,NA,"0"
198,"food-data/Cleaned_data_files//cleaned_PA_SNAP.csv","199","USDA Food and Nutrition Service","SNAP_Store_Locations.csv","6277","","Donut Connection","2414 Brownsville Road","Pittsburgh","PA",15210,"ALLEGHENY","","","",40.386833,-79.982285,"4","","",1,NA,NA,NA,NA,0,"0","no type;no phone;no date/time info",198,NA,NA,"0"
199,"food-data/Cleaned_data_files//cleaned_PA_SNAP.csv","200","USDA Food and Nutrition Service","SNAP_Store_Locations.csv","7219","","Waltmire Pharmacy","1435 Spring Garden Avenue","Pittsburgh","PA",15212,"ALLEGHENY","","","",40.462692,-79.98687,"4","","",1,NA,NA,NA,NA,0,"0","no type;no phone;no date/time info",NA,NA,NA,"0"
200,"food-data/Cleaned_data_files//cleaned_PA_SNAP.csv","201","USDA Food and Nutrition Service","SNAP_Store_Locations.csv","7557","convenience store","CVS Pharmacy 2348","3422 Forbes Avenue","Pittsburgh","PA",15213,"ALLEGHENY","","","",40.438953,-79.960526,"4","","",1,NA,NA,NA,NA,0,"0","no type;no phone;no date/time info",NA,NA,NA,"0"
201,"food-data/Cleaned_data_files//cleaned_PA_SNAP.csv","202","USDA Food and Nutrition Service","SNAP_Store_Locations.csv","8293","convenience store","CVS PHARMACY 4091","7404 Church Street","Swissvale","PA",15218,"ALLEGHENY","","","",40.421921,-79.890182,"4","","",1,NA,NA,NA,NA,0,"0","no type;no phone;no date/time info",201,NA,NA,"0"
202,"food-data/Cleaned_data_files//cleaned_PA_SNAP.csv","203","USDA Food and Nutrition Service","SNAP_Store_Locations.csv","8296","convenience store","CVS Pharmacy 7612","237 Monroeville Avenue","Turtle Creek","PA",15145,"ALLEGHENY","","","",40.405937,-79.823128,"4","","",1,NA,NA,NA,NA,0,"0","no type;no phone;no date/time info",NA,NA,NA,"0"
203,"food-data/Cleaned_data_files//cleaned_PA_SNAP.csv","204","USDA Food and Nutrition Service","SNAP_Store_Locations.csv","8297","convenience store","CVS Pharmacy 4070","10600 Frankstown Road","Pittsburgh","PA",15235,"ALLEGHENY","","","",40.460537,-79.842117,"4","","",1,NA,NA,NA,NA,0,"0","no type;no phone;no date/time info",203,NA,NA,"0"
204,"food-data/Cleaned_data_files//cleaned_PA_SNAP.csv","205","USDA Food and Nutrition Service","SNAP_Store_Locations.csv","8361","","Kwik Fill 239","152 Mcgovern Boulevard","Crescent","PA",15046,"ALLEGHENY","","","",40.563625,-80.227875,"4","","",1,NA,NA,NA,NA,0,"0","no type;no phone;no date/time info",NA,NA,NA,"0"
205,"food-data/Cleaned_data_files//cleaned_PA_SNAP.csv","206","USDA Food and Nutrition Service","SNAP_Store_Locations.csv","8752","supermarket","Aldi 90","7350 Saltsburg Road","Penn Hills","PA",15235,"ALLEGHENY","","","",40.477737,-79.785881,"4","","",1,NA,NA,NA,NA,0,"0","no type;no phone;no date/time info",205,NA,NA,"0"
206,"food-data/Cleaned_data_files//cleaned_PA_SNAP.csv","207","USDA Food and Nutrition Service","SNAP_Store_Locations.csv","9125","","Oriental Market","4768 Mcknight Road","Pittsburgh","PA",15237,"ALLEGHENY","","","",40.523071,-80.005333,"4","","",1,NA,NA,NA,NA,0,"0","no type;no phone;no date/time info",206,NA,NA,"0"
207,"food-data/Cleaned_data_files//cleaned_PA_SNAP.csv","208","USDA Food and Nutrition Service","SNAP_Store_Locations.csv","9419","","CIO Stores, LLC 11 11","3739 Library Road","Pittsburgh","PA",15234,"ALLEGHENY","","","",40.36451,-80.021362,"4","","",1,NA,NA,NA,NA,0,"0","no type;no phone;no date/time info",NA,NA,NA,"0"
208,"food-data/Cleaned_data_files//cleaned_PA_SNAP.csv","209","USDA Food and Nutrition Service","SNAP_Store_Locations.csv","9765","","Haibouna Market Inc/Haibouna Market Inc","7521 Washington Avenue","Pittsburgh","PA",15218,"ALLEGHENY","","","",40.421143,-79.886414,"4","","",1,NA,NA,NA,NA,0,"0","no type;no phone;no date/time info",NA,NA,NA,"0"
210,"food-data/Cleaned_data_files//cleaned_PA_SNAP.csv","211","USDA Food and Nutrition Service","SNAP_Store_Locations.csv","10025","convenience store","Dollar General 19273","3600 Walnut Street","McKeesport","PA",15132,"ALLEGHENY","","","",40.327644,-79.840454,"4","","",1,NA,NA,NA,NA,0,"0","no type;no phone;no date/time info",210,NA,NA,"0"
211,"food-data/Cleaned_data_files//cleaned_PA_SNAP.csv","212","USDA Food and Nutrition Service","SNAP_Store_Locations.csv","10256","supermarket","Aldi 97","127 E Seventh Avenue","Homestead","PA",15120,"ALLEGHENY","","","",40.407085,-79.911819,"4","","",1,NA,NA,NA,NA,0,"0","no type;no phone;no date/time info",NA,NA,NA,"0"
212,"food-data/Cleaned_data_files//cleaned_PA_SNAP.csv","213","USDA Food and Nutrition Service","SNAP_Store_Locations.csv","10315","","Stop & Shop Convenience","2110 Ardmore Boulevard","Pittsburgh","PA",15221,"ALLEGHENY","","","",40.419338,-79.849854,"4","","",1,NA,NA,NA,NA,0,"0","no type;no phone;no date/time info",NA,NA,NA,"0"
213,"food-data/Cleaned_data_files//cleaned_PA_SNAP.csv","214","USDA Food and Nutrition Service","SNAP_Store_Locations.csv","11541","","ANN'S MARKET","2316 Webster Avenue","Pittsburgh","PA",15219,"ALLEGHENY","","","",40.448425,-79.975273,"4","","",1,NA,NA,NA,NA,0,"0","no type;no phone;no date/time info",213,NA,NA,"0"
214,"food-data/Cleaned_data_files//cleaned_PA_SNAP.csv","215","USDA Food and Nutrition Service","SNAP_Store_Locations.csv","11679","convenience store","Crossroad Sunoco Neighbourhood Market","4600 Homestead Duquesne Road","West Mifflin","PA",15122,"ALLEGHENY","","","",40.376308,-79.894196,"4","","",1,NA,NA,NA,NA,0,"0","no type;no phone;no date/time info",NA,NA,NA,"0"
215,"food-data/Cleaned_data_files//cleaned_PA_SNAP.csv","216","USDA Food and Nutrition Service","SNAP_Store_Locations.csv","11801","convenience store","Get Go 3650","4900 Steubenville Pike","Pittsburgh","PA",15205,"ALLEGHENY","","","",40.448792,-80.105774,"4","","",1,NA,NA,NA,NA,0,"0","no type;no phone;no date/time info",NA,NA,NA,"0"
216,"food-data/Cleaned_data_files//cleaned_PA_SNAP.csv","217","USDA Food and Nutrition Service","SNAP_Store_Locations.csv","11997","","Sweet Panda Asian Market","114 S Third Street","Pittsburgh","PA",15203,"ALLEGHENY","","","",40.427517,-79.973145,"4","","",1,NA,NA,NA,NA,0,"0","no type;no phone;no date/time info",NA,NA,NA,"0"
217,"food-data/Cleaned_data_files//cleaned_PA_SNAP.csv","218","USDA Food and Nutrition Service","SNAP_Store_Locations.csv","12684","convenience store","Uni Mart","2321 Worton Boulevard","West Mifflin","PA",15122,"ALLEGHENY","","","",40.360252,-79.87178,"4","","",1,NA,NA,NA,NA,0,"0","no type;no phone;no date/time info",NA,NA,NA,"0"
218,"food-data/Cleaned_data_files//cleaned_PA_SNAP.csv","219","USDA Food and Nutrition Service","SNAP_Store_Locations.csv","12696","","Everest Food","308 Curry Hollow Road","Pittsburgh","PA",15236,"ALLEGHENY","","","",40.335968,-79.973244,"4","","",1,NA,NA,NA,NA,0,"0","no type;no phone;no date/time info",NA,NA,NA,"0"
220,"food-data/Cleaned_data_files//cleaned_PA_SNAP.csv","221","USDA Food and Nutrition Service","SNAP_Store_Locations.csv","13772","supermarket","Aldi 47","239 Clairton Boulevard","West Mifflin","PA",15122,"ALLEGHENY","","","",40.337536,-79.937469,"4","","",1,NA,NA,NA,NA,0,"0","no type;no phone;no date/time info",NA,NA,NA,"0"
221,"food-data/Cleaned_data_files//cleaned_PA_SNAP.csv","222","USDA Food and Nutrition Service","SNAP_Store_Locations.csv","14701","supermarket","Giant Eagle 52","132 Ben Avon Heights Road","Pittsburgh","PA",15237,"ALLEGHENY","","","",40.522621,-80.068924,"4","","",1,NA,NA,NA,NA,0,"0","no type;no phone;no date/time info",NA,NA,NA,"0"
222,"food-data/Cleaned_data_files//cleaned_PA_SNAP.csv","223","USDA Food and Nutrition Service","SNAP_Store_Locations.csv","15030","supermarket","VERONA GIANT EAGLE","200 Allegheny River Boulevard","Verona","PA",15147,"ALLEGHENY","","","",40.500896,-79.843269,"4","","",1,NA,NA,NA,NA,0,"0","no type;no phone;no date/time info",222,NA,NA,"0"
223,"food-data/Cleaned_data_files//cleaned_PA_SNAP.csv","224","USDA Food and Nutrition Service","SNAP_Store_Locations.csv","15781","convenience store","Sheetz 190","2003 Golden Mile Highway","Pittsburgh","PA",15239,"ALLEGHENY","","","",40.45459,-79.71122,"4","","",1,NA,NA,NA,NA,0,"0","no type;no phone;no date/time info",NA,NA,NA,"0"
224,"food-data/Cleaned_data_files//cleaned_PA_SNAP.csv","225","USDA Food and Nutrition Service","SNAP_Store_Locations.csv","16403","convenience store","Rite Aid 10935","331 Penn Avenue","Wilkinsburg","PA",15221,"ALLEGHENY","","","",40.445736,-79.890709,"4","","",1,NA,NA,NA,NA,0,"0","no type;no phone;no date/time info",NA,NA,NA,"0"
225,"food-data/Cleaned_data_files//cleaned_PA_SNAP.csv","226","USDA Food and Nutrition Service","SNAP_Store_Locations.csv","16774","","Tiger Mart","5700 Homeville Road","West Mifflin","PA",15122,"ALLEGHENY","","","",40.367657,-79.871895,"4","","",1,NA,NA,NA,NA,0,"0","no type;no phone;no date/time info",NA,NA,NA,"0"
227,"food-data/Cleaned_data_files//cleaned_PA_SNAP.csv","228","USDA Food and Nutrition Service","SNAP_Store_Locations.csv","16975","convenience store","Sheetz 189","1505 Pittsburgh Street","Cheswick","PA",15024,"ALLEGHENY","","","",40.541519,-79.79892,"4","","",1,NA,NA,NA,NA,0,"0","no type;no phone;no date/time info",NA,NA,NA,"0"
228,"food-data/Cleaned_data_files//cleaned_PA_SNAP.csv","229","USDA Food and Nutrition Service","SNAP_Store_Locations.csv","17295","supermarket","Aldi 77","11800 Perry Highway","Wexford","PA",15090,"ALLEGHENY","","","",40.627735,-80.055565,"4","","",1,NA,NA,NA,NA,0,"0","no type;no phone;no date/time info",NA,NA,NA,"0"
229,"food-data/Cleaned_data_files//cleaned_PA_SNAP.csv","230","USDA Food and Nutrition Service","SNAP_Store_Locations.csv","17373","convenience store","Dollar General 14985","5800 Buttermilk Hollow Road","Pittsburgh","PA",15207,"ALLEGHENY","","","",40.365013,-79.908501,"4","","",1,NA,NA,NA,NA,0,"0","no type;no phone;no date/time info",NA,NA,NA,"0"
230,"food-data/Cleaned_data_files//cleaned_PA_SNAP.csv","231","USDA Food and Nutrition Service","SNAP_Store_Locations.csv","17584","","Betts Market","819 Brushton Avenue","Pittsburgh","PA",15208,"ALLEGHENY","","","",40.455303,-79.888222,"4","","",1,NA,NA,NA,NA,0,"0","no type;no phone;no date/time info",NA,NA,NA,"0"
231,"food-data/Cleaned_data_files//cleaned_PA_SNAP.csv","232","USDA Food and Nutrition Service","SNAP_Store_Locations.csv","17921","convenience store","Speedway 2909","6999 Clairton Road","West Mifflin","PA",15122,"ALLEGHENY","","","",40.345139,-79.938957,"4","","",1,NA,NA,NA,NA,0,"0","no type;no phone;no date/time info",231,NA,NA,"0"
232,"food-data/Cleaned_data_files//cleaned_PA_SNAP.csv","233","USDA Food and Nutrition Service","SNAP_Store_Locations.csv","17939","","Exxon","1405 N State Street","Clairton","PA",15025,"ALLEGHENY","","","",40.317894,-79.898903,"4","","",1,NA,NA,NA,NA,0,"0","no type;no phone;no date/time info",NA,NA,NA,"0"
233,"food-data/Cleaned_data_files//cleaned_PA_SNAP.csv","234","USDA Food and Nutrition Service","SNAP_Store_Locations.csv","18209","convenience store","Circle K 4235","200 Market Place Drive","Imperial","PA",15126,"ALLEGHENY","","","",40.484314,-80.351875,"4","","",1,NA,NA,NA,NA,0,"0","no type;no phone;no date/time info",NA,NA,NA,"0"
234,"food-data/Cleaned_data_files//cleaned_PA_SNAP.csv","235","USDA Food and Nutrition Service","SNAP_Store_Locations.csv","18458","","Himalayan Asian Grocery Llc","2122 Brownsville Road Ste 1","Pittsburgh","PA",15210,"ALLEGHENY","","","",40.392368,-79.986649,"4","","",1,NA,NA,NA,NA,0,"0","no type;no phone;no date/time info",51,NA,NA,"0"
235,"food-data/Cleaned_data_files//cleaned_PA_SNAP.csv","236","USDA Food and Nutrition Service","SNAP_Store_Locations.csv","18486","","The Elliotts Town Market","928 Chartiers Avenue","Pittsburgh","PA",15220,"ALLEGHENY","","","",40.443832,-80.040421,"4","","",1,NA,NA,NA,NA,0,"0","no type;no phone;no date/time info",NA,NA,NA,"0"
236,"food-data/Cleaned_data_files//cleaned_PA_SNAP.csv","237","USDA Food and Nutrition Service","SNAP_Store_Locations.csv","19043","","CIO Stores, LLC 15 15","2305 O'neil Boulevard","Mckeesport","PA",15132,"ALLEGHENY","","","",40.353027,-79.825424,"4","","",1,NA,NA,NA,NA,0,"0","no type;no phone;no date/time info",236,NA,NA,"0"
237,"food-data/Cleaned_data_files//cleaned_PA_SNAP.csv","238","USDA Food and Nutrition Service","SNAP_Store_Locations.csv","19273","convenience store","7- Eleven  170 F 170","429 Wood Street","Pittsburgh","PA",15222,"ALLEGHENY","","","",40.440178,-80.000771,"4","","",1,NA,NA,NA,NA,0,"0","no type;no phone;no date/time info",195,NA,NA,"0"
238,"food-data/Cleaned_data_files//cleaned_PA_SNAP.csv","239","USDA Food and Nutrition Service","SNAP_Store_Locations.csv","19531","","BFS Foods 64","3984 Monroeville Boulevard","Monroeville","PA",15146,"ALLEGHENY","","","",40.436333,-79.772949,"4","","",1,NA,NA,NA,NA,0,"0","no type;no phone;no date/time info",238,NA,NA,"0"
239,"food-data/Cleaned_data_files//cleaned_PA_SNAP.csv","240","USDA Food and Nutrition Service","SNAP_Store_Locations.csv","19579","","CIO Stores, LLC 14 14","1909 Painters Run Road","Pittsburgh","PA",15241,"ALLEGHENY","","","",40.362808,-80.083366,"4","","",1,NA,NA,NA,NA,0,"0","no type;no phone;no date/time info",NA,NA,NA,"0"
240,"food-data/Cleaned_data_files//cleaned_PA_SNAP.csv","241","USDA Food and Nutrition Service","SNAP_Store_Locations.csv","19742","convenience store","7-eleven Store 36189A","6250 Library Road","Bethel Park","PA",15102,"ALLEGHENY","","","",40.293461,-80.031151,"4","","",1,NA,NA,NA,NA,0,"0","no type;no phone;no date/time info",NA,NA,NA,"0"
241,"food-data/Cleaned_data_files//cleaned_PA_SNAP.csv","242","USDA Food and Nutrition Service","SNAP_Store_Locations.csv","19906","","Edna S Market & Deli","529 Mount Pleasant Road","Pittsburgh","PA",15214,"ALLEGHENY","","","",40.477821,-80.000206,"4","","",1,NA,NA,NA,NA,0,"0","no type;no phone;no date/time info",241,NA,NA,"0"
242,"food-data/Cleaned_data_files//cleaned_PA_SNAP.csv","243","USDA Food and Nutrition Service","SNAP_Store_Locations.csv","20408","","Jos Coffee Shop","3100 Versailles Avenue","McKeesport","PA",15131,"ALLEGHENY","","","",40.345139,-79.84082,"4","","",1,NA,NA,NA,NA,0,"0","no type;no phone;no date/time info",NA,NA,NA,"0"
243,"food-data/Cleaned_data_files//cleaned_PA_SNAP.csv","244","USDA Food and Nutrition Service","SNAP_Store_Locations.csv","20592","","Groceria Merante","3454 Bates Street","Pittsburgh","PA",15213,"ALLEGHENY","","","",40.436619,-79.955414,"4","","",1,NA,NA,NA,NA,0,"0","no type;no phone;no date/time info",NA,NA,NA,"0"
244,"food-data/Cleaned_data_files//cleaned_PA_SNAP.csv","245","USDA Food and Nutrition Service","SNAP_Store_Locations.csv","20877","supermarket","Giant Eagle 68","5990 University Boulevard","Coraopolis","PA",15108,"ALLEGHENY","","","",40.519936,-80.217804,"4","","",1,NA,NA,NA,NA,0,"0","no type;no phone;no date/time info",244,NA,NA,"0"
245,"food-data/Cleaned_data_files//cleaned_PA_SNAP.csv","246","USDA Food and Nutrition Service","SNAP_Store_Locations.csv","21088","","Fishes And Loaves Cooperative Ministries","131 E Elizabeth Street","Pittsburgh","PA",15207,"ALLEGHENY","","","",40.407532,-79.941986,"4","","",1,NA,NA,NA,NA,0,"0","no type;no phone;no date/time info",245,NA,NA,"0"
246,"food-data/Cleaned_data_files//cleaned_PA_SNAP.csv","247","USDA Food and Nutrition Service","SNAP_Store_Locations.csv","22654","convenience store","Rite Aid 10928","623 E Ohio Street","Pittsburgh","PA",15212,"ALLEGHENY","","","",40.453762,-79.998924,"4","","",1,NA,NA,NA,NA,0,"0","no type;no phone;no date/time info",246,NA,NA,"0"
248,"food-data/Cleaned_data_files//cleaned_PA_SNAP.csv","249","USDA Food and Nutrition Service","SNAP_Store_Locations.csv","24207","convenience store","Dollar Tree 4790","1701 Duncan Avenue Ste 10","Allison Park","PA",15101,"ALLEGHENY","","","",40.566422,-79.998596,"4","","",1,NA,NA,NA,NA,0,"0","no type;no phone;no date/time info",248,NA,NA,"0"
249,"food-data/Cleaned_data_files//cleaned_PA_SNAP.csv","250","USDA Food and Nutrition Service","SNAP_Store_Locations.csv","24579","","R-n-d Market","601 Lowell Street","Pittsburgh","PA",15206,"ALLEGHENY","","","",40.463612,-79.909187,"4","","",1,NA,NA,NA,NA,0,"0","no type;no phone;no date/time info",NA,NA,NA,"0"
250,"food-data/Cleaned_data_files//cleaned_PA_SNAP.csv","251","USDA Food and Nutrition Service","SNAP_Store_Locations.csv","25008","convenience store","Sheetz 468","3457 William Penn Highway","Pittsburgh","PA",15235,"ALLEGHENY","","","",40.429951,-79.810387,"4","","",1,NA,NA,NA,NA,0,"0","no type;no phone;no date/time info",NA,NA,NA,"0"
251,"food-data/Cleaned_data_files//cleaned_PA_SNAP.csv","252","USDA Food and Nutrition Service","SNAP_Store_Locations.csv","25208","supermarket","Trader Joes 630","1600 Washington Road Ste 1","Pittsburgh","PA",15228,"ALLEGHENY","","","",40.354389,-80.050247,"4","","",1,NA,NA,NA,NA,0,"0","no type;no phone;no date/time info",251,NA,NA,"0"
252,"food-data/Cleaned_data_files//cleaned_PA_SNAP.csv","253","USDA Food and Nutrition Service","SNAP_Store_Locations.csv","26056","","Podmilsaks Market Llc","200 Herron Avenue","Cheswick","PA",15024,"ALLEGHENY","","","",40.542793,-79.815094,"4","","",1,NA,NA,NA,NA,0,"0","no type;no phone;no date/time info",NA,NA,NA,"0"
253,"food-data/Cleaned_data_files//cleaned_PA_SNAP.csv","254","USDA Food and Nutrition Service","SNAP_Store_Locations.csv","26426","convenience store","7-eleven Store 36159A","1350 Wildwood Road","Gibsonia","PA",15044,"ALLEGHENY","","","",40.594669,-79.994194,"4","","",1,NA,NA,NA,NA,0,"0","no type;no phone;no date/time info",NA,NA,NA,"0"
254,"food-data/Cleaned_data_files//cleaned_PA_SNAP.csv","255","USDA Food and Nutrition Service","SNAP_Store_Locations.csv","26655","convenience store","GetGo 3280","1700 William Flynn Highway","Glenshaw","PA",15116,"ALLEGHENY","","","",40.538803,-79.962486,"4","","",1,NA,NA,NA,NA,0,"0","no type;no phone;no date/time info",254,NA,NA,"0"
255,"food-data/Cleaned_data_files//cleaned_PA_SNAP.csv","256","USDA Food and Nutrition Service","SNAP_Store_Locations.csv","26708","","PRODUCE PLUS MARKET & DELI","471 Lincoln Avenue","Bellevue","PA",15202,"ALLEGHENY","","","",40.495117,-80.054787,"4","","",1,NA,NA,NA,NA,0,"0","no type;no phone;no date/time info",255,NA,NA,"0"
256,"food-data/Cleaned_data_files//cleaned_PA_SNAP.csv","257","USDA Food and Nutrition Service","SNAP_Store_Locations.csv","27133","convenience store","Sheetz 327","2100 Mosside Boulevard","Monroeville","PA",15146,"ALLEGHENY","","","",40.398006,-79.768784,"4","","",1,NA,NA,NA,NA,0,"0","no type;no phone;no date/time info",NA,NA,NA,"0"
257,"food-data/Cleaned_data_files//cleaned_PA_SNAP.csv","258","USDA Food and Nutrition Service","SNAP_Store_Locations.csv","27327","","5th Avenue Smoke Shop","262 Fifth Avenue","Pittsburgh","PA",15222,"ALLEGHENY","","","",40.44088,-80.000992,"4","","",1,NA,NA,NA,NA,0,"0","no type;no phone;no date/time info",195,NA,NA,"0"
258,"food-data/Cleaned_data_files//cleaned_PA_SNAP.csv","259","USDA Food and Nutrition Service","SNAP_Store_Locations.csv","27383","","Puff Mart Of Pittsburgh Inc","798 Penn Avenue","Pittsburgh","PA",15221,"ALLEGHENY","","","",40.442608,-79.882164,"4","","",1,NA,NA,NA,NA,0,"0","no type;no phone;no date/time info",NA,NA,NA,"0"
259,"food-data/Cleaned_data_files//cleaned_PA_SNAP.csv","260","USDA Food and Nutrition Service","SNAP_Store_Locations.csv","28164","convenience store","Rite Aid 10943","2501 Saw Mill Run Boulevard","Pittsburgh","PA",15234,"ALLEGHENY","","","",40.382004,-79.995781,"4","","",1,NA,NA,NA,NA,0,"0","no type;no phone;no date/time info",NA,NA,NA,"0"
260,"food-data/Cleaned_data_files//cleaned_PA_SNAP.csv","261","USDA Food and Nutrition Service","SNAP_Store_Locations.csv","28792","convenience store","Rite Aid 10921","1915 E Carson Street","Pittsburgh","PA",15203,"ALLEGHENY","","","",40.428665,-79.978363,"4","","",1,NA,NA,NA,NA,0,"0","no type;no phone;no date/time info",NA,NA,NA,"0"
261,"food-data/Cleaned_data_files//cleaned_PA_SNAP.csv","262","USDA Food and Nutrition Service","SNAP_Store_Locations.csv","28794","convenience store","Rite Aid 10920","535 Lincoln Avenue","Bellevue","PA",15202,"ALLEGHENY","","","",40.496342,-80.057281,"4","","",1,NA,NA,NA,NA,0,"0","no type;no phone;no date/time info",261,NA,NA,"0"
262,"food-data/Cleaned_data_files//cleaned_PA_SNAP.csv","263","USDA Food and Nutrition Service","SNAP_Store_Locations.csv","28966","convenience store","Rite Aid 10922","200 Crafton Ingram Shp Ctr","Pittsburgh","PA",15205,"ALLEGHENY","","","",40.440399,-80.069771,"4","","",1,NA,NA,NA,NA,0,"0","no type;no phone;no date/time info",62,NA,NA,"0"
263,"food-data/Cleaned_data_files//cleaned_PA_SNAP.csv","264","USDA Food and Nutrition Service","SNAP_Store_Locations.csv","28968","convenience store","Rite Aid 10946","6200 Saltsburg Road","Pittsburgh","PA",15235,"ALLEGHENY","","","",40.484924,-79.817528,"4","","",1,NA,NA,NA,NA,0,"0","no type;no phone;no date/time info",263,NA,NA,"0"
264,"food-data/Cleaned_data_files//cleaned_PA_SNAP.csv","265","USDA Food and Nutrition Service","SNAP_Store_Locations.csv","29505","","Mega Deli","995 Greensburg Pike","East Pittsburgh","PA",15112,"ALLEGHENY","","","",40.416763,-79.839432,"4","","",1,NA,NA,NA,NA,0,"0","no type;no phone;no date/time info",264,NA,NA,"0"
265,"food-data/Cleaned_data_files//cleaned_PA_SNAP.csv","266","USDA Food and Nutrition Service","SNAP_Store_Locations.csv","30272","","International Food Emporium 1","4110 Saw Mill Run Boulevard","Pittsburgh","PA",15227,"ALLEGHENY","","","",40.36692,-79.984222,"4","","",1,NA,NA,NA,NA,0,"0","no type;no phone;no date/time info",NA,NA,NA,"0"
266,"food-data/Cleaned_data_files//cleaned_PA_SNAP.csv","267","USDA Food and Nutrition Service","SNAP_Store_Locations.csv","30632","","Pleasant Hills Shop N Save","649 Old Clairton Road","Pittsburgh","PA",15236,"ALLEGHENY","","","",40.324081,-79.957176,"4","","",1,NA,NA,NA,NA,0,"0","no type;no phone;no date/time info",NA,NA,NA,"0"
267,"food-data/Cleaned_data_files//cleaned_PA_SNAP.csv","268","USDA Food and Nutrition Service","SNAP_Store_Locations.csv","30701","convenience store","Sheetz 476","3025 Babcock Boulevard","Pittsburgh","PA",15237,"ALLEGHENY","","","",40.515194,-80.008842,"4","","",1,NA,NA,NA,NA,0,"0","no type;no phone;no date/time info",NA,NA,NA,"0"
268,"food-data/Cleaned_data_files//cleaned_PA_SNAP.csv","269","USDA Food and Nutrition Service","SNAP_Store_Locations.csv","31291","","News Corner Store","A15 Monroeville Mall","Monroeville","PA",15146,"ALLEGHENY","","","",40.43055,-79.79483,"4","","",1,NA,NA,NA,NA,0,"0","no type;no phone;no date/time info",NA,NA,NA,"0"
269,"food-data/Cleaned_data_files//cleaned_PA_SNAP.csv","270","USDA Food and Nutrition Service","SNAP_Store_Locations.csv","31666","","4TH E wood Market","245 Fourth Avenue","Pittsburgh","PA",15222,"ALLEGHENY","","","",40.439518,-80.001625,"4","","",1,NA,NA,NA,NA,0,"0","no type;no phone;no date/time info",195,NA,NA,"0"
270,"food-data/Cleaned_data_files//cleaned_PA_SNAP.csv","271","USDA Food and Nutrition Service","SNAP_Store_Locations.csv","31928","convenience store","Sheetz 678","973 William Flynn Highway","Glenshaw","PA",15116,"ALLEGHENY","","","",40.513885,-79.952347,"4","","",1,NA,NA,NA,NA,0,"0","no type;no phone;no date/time info",NA,NA,NA,"0"
272,"food-data/Cleaned_data_files//cleaned_PA_SNAP.csv","273","USDA Food and Nutrition Service","SNAP_Store_Locations.csv","32651","","One Stop Mini Mart","751 E Warrington Avenue","Pittsburgh","PA",15210,"ALLEGHENY","","","",40.421852,-79.994423,"4","","",1,NA,NA,NA,NA,0,"0","no type;no phone;no date/time info",9,NA,NA,"0"
273,"food-data/Cleaned_data_files//cleaned_PA_SNAP.csv","274","USDA Food and Nutrition Service","SNAP_Store_Locations.csv","33165","","Rojels Foods LLC/ Bethel Park Shop N Save","5001 Library Road","Bethel Park","PA",15102,"ALLEGHENY","","","",40.342155,-80.025978,"4","","",1,NA,NA,NA,NA,0,"0","no type;no phone;no date/time info",273,NA,NA,"0"
274,"food-data/Cleaned_data_files//cleaned_PA_SNAP.csv","275","USDA Food and Nutrition Service","SNAP_Store_Locations.csv","33699","","Stop N Shop","2101 Freeport Road","Natrona Heights","PA",15065,"ALLEGHENY","","","",40.627029,-79.721565,"4","","",1,NA,NA,NA,NA,0,"0","no type;no phone;no date/time info",NA,NA,NA,"0"
275,"food-data/Cleaned_data_files//cleaned_PA_SNAP.csv","276","USDA Food and Nutrition Service","SNAP_Store_Locations.csv","34282","convenience store","CVS Pharmacy 4008","242 Fifth Avenue","Pittsburgh","PA",15222,"ALLEGHENY","","","",40.440914,-80.000961,"4","","",1,NA,NA,NA,NA,0,"0","no type;no phone;no date/time info",NA,NA,NA,"0"
276,"food-data/Cleaned_data_files//cleaned_PA_SNAP.csv","277","USDA Food and Nutrition Service","SNAP_Store_Locations.csv","34283","convenience store","CVS Pharmacy 4085","6100 Penn Avenue","Pittsburgh","PA",15206,"ALLEGHENY","","","",40.461014,-79.923668,"4","","",1,NA,NA,NA,NA,0,"0","no type;no phone;no date/time info",276,NA,NA,"0"
277,"food-data/Cleaned_data_files//cleaned_PA_SNAP.csv","278","USDA Food and Nutrition Service","SNAP_Store_Locations.csv","34284","convenience store","CVS Pharmacy 4133","520 Penn Avenue","Wilkinsburg","PA",15221,"ALLEGHENY","","","",40.444298,-79.886826,"4","","",1,NA,NA,NA,NA,0,"0","no type;no phone;no date/time info",NA,NA,NA,"0"
278,"food-data/Cleaned_data_files//cleaned_PA_SNAP.csv","279","USDA Food and Nutrition Service","SNAP_Store_Locations.csv","34484","","PENN HILLS SHOP N SAVE","2820 Main Street","Pittsburgh","PA",15235,"ALLEGHENY","","","",40.475769,-79.78627,"4","","",1,NA,NA,NA,NA,0,"0","no type;no phone;no date/time info",NA,NA,NA,"0"
279,"food-data/Cleaned_data_files//cleaned_PA_SNAP.csv","280","USDA Food and Nutrition Service","SNAP_Store_Locations.csv","34606","convenience store","Rite Aid 10936","519 Penn Avenue","Pittsburgh","PA",15222,"ALLEGHENY","","","",40.442417,-80.003326,"4","","",1,NA,NA,NA,NA,0,"0","no type;no phone;no date/time info",NA,NA,NA,"0"
280,"food-data/Cleaned_data_files//cleaned_PA_SNAP.csv","281","USDA Food and Nutrition Service","SNAP_Store_Locations.csv","34611","convenience store","Rite Aid 10910","4927 Homeville Road","West Mifflin","PA",15122,"ALLEGHENY","","","",40.381924,-79.87751,"4","","",1,NA,NA,NA,NA,0,"0","no type;no phone;no date/time info",NA,NA,NA,"0"
281,"food-data/Cleaned_data_files//cleaned_PA_SNAP.csv","282","USDA Food and Nutrition Service","SNAP_Store_Locations.csv","35894","convenience store","Rite Aid 10926","1222 Brownsville Road","Pittsburgh","PA",15210,"ALLEGHENY","","","",40.403358,-79.989929,"4","","",1,NA,NA,NA,NA,0,"0","no type;no phone;no date/time info",281,NA,NA,"0"
282,"food-data/Cleaned_data_files//cleaned_PA_SNAP.csv","283","USDA Food and Nutrition Service","SNAP_Store_Locations.csv","35915","","Mckeesport Valero","231 Fifth Avenue","McKeesport","PA",15132,"ALLEGHENY","","","",40.351181,-79.865479,"4","","",1,NA,NA,NA,NA,0,"0","no type;no phone;no date/time info",282,NA,NA,"0"
283,"food-data/Cleaned_data_files//cleaned_PA_SNAP.csv","284","USDA Food and Nutrition Service","SNAP_Store_Locations.csv","36013","convenience store","7-ELEVEN 36140","1001 Western Avenue","Pittsburgh","PA",15233,"ALLEGHENY","","","",40.451183,-80.019157,"4","","",1,NA,NA,NA,NA,0,"0","no type;no phone;no date/time info",NA,NA,NA,"0"
284,"food-data/Cleaned_data_files//cleaned_PA_SNAP.csv","285","USDA Food and Nutrition Service","SNAP_Store_Locations.csv","36086","","Carrick Pharmacy","2717 Brownsville Road","Pittsburgh","PA",15227,"ALLEGHENY","","","",40.383907,-79.977432,"4","","",1,NA,NA,NA,NA,0,"0","no type;no phone;no date/time info",209,NA,NA,"0"
285,"food-data/Cleaned_data_files//cleaned_PA_SNAP.csv","286","USDA Food and Nutrition Service","SNAP_Store_Locations.csv","36166","convenience store","Dollar General 19008","1215 Brighton Road","Pittsburgh","PA",15233,"ALLEGHENY","","","",40.454773,-80.014885,"4","","",1,NA,NA,NA,NA,0,"0","no type;no phone;no date/time info",NA,NA,NA,"0"
286,"food-data/Cleaned_data_files//cleaned_PA_SNAP.csv","287","USDA Food and Nutrition Service","SNAP_Store_Locations.csv","36291","","Super Mart","1761 Pine Hollow Road","McKees Rocks","PA",15136,"ALLEGHENY","","","",40.475864,-80.100143,"4","","",1,NA,NA,NA,NA,0,"0","no type;no phone;no date/time info",NA,NA,NA,"0"
287,"food-data/Cleaned_data_files//cleaned_PA_SNAP.csv","288","USDA Food and Nutrition Service","SNAP_Store_Locations.csv","36582","convenience store","7-eleven Store 36144A","95 Warrendale Bayne Road","Warrendale","PA",15086,"ALLEGHENY","","","",40.653961,-80.082291,"4","","",1,NA,NA,NA,NA,0,"0","no type;no phone;no date/time info",NA,NA,NA,"0"
288,"food-data/Cleaned_data_files//cleaned_PA_SNAP.csv","289","USDA Food and Nutrition Service","SNAP_Store_Locations.csv","36821","supermarket","GIANT EAGLE 6379","420 Waterfront Drive E","Homestead","PA",15120,"ALLEGHENY","","","",40.412422,-79.910011,"4","","",1,NA,NA,NA,NA,0,"0","no type;no phone;no date/time info",288,NA,NA,"0"
289,"food-data/Cleaned_data_files//cleaned_PA_SNAP.csv","290","USDA Food and Nutrition Service","SNAP_Store_Locations.csv","38389","","Rimal Brothers Llc","4040 Saw Mill Run Boulevard","Pittsburgh","PA",15227,"ALLEGHENY","","","",40.367867,-79.983757,"4","","",1,NA,NA,NA,NA,0,"0","no type;no phone;no date/time info",289,NA,NA,"0"
290,"food-data/Cleaned_data_files//cleaned_PA_SNAP.csv","291","USDA Food and Nutrition Service","SNAP_Store_Locations.csv","38797","convenience store","Speedway 2911","1200 Long Run Road","White Oak","PA",15131,"ALLEGHENY","","","",40.333549,-79.812927,"4","","",1,NA,NA,NA,NA,0,"0","no type;no phone;no date/time info",NA,NA,NA,"0"
291,"food-data/Cleaned_data_files//cleaned_PA_SNAP.csv","292","USDA Food and Nutrition Service","SNAP_Store_Locations.csv","39006","convenience store","Sheetz 677","3109 Washington Pike","Bridgeville","PA",15017,"ALLEGHENY","","","",40.348637,-80.111542,"4","","",1,NA,NA,NA,NA,0,"0","no type;no phone;no date/time info",NA,NA,NA,"0"
292,"food-data/Cleaned_data_files//cleaned_PA_SNAP.csv","293","USDA Food and Nutrition Service","SNAP_Store_Locations.csv","39021","","Mama Lena's Italian Deli","647 Broadway Avenue","McKees Rocks","PA",15136,"ALLEGHENY","","","",40.471928,-80.072762,"4","","",1,NA,NA,NA,NA,0,"0","no type;no phone;no date/time info",292,NA,NA,"0"
293,"food-data/Cleaned_data_files//cleaned_PA_SNAP.csv","294","USDA Food and Nutrition Service","SNAP_Store_Locations.csv","39166","supermarket","Aldi 96","1160 Washington Avenue","Carnegie","PA",15106,"ALLEGHENY","","","",40.396835,-80.084763,"4","","",1,NA,NA,NA,NA,0,"0","no type;no phone;no date/time info",NA,NA,NA,"0"
294,"food-data/Cleaned_data_files//cleaned_PA_SNAP.csv","295","USDA Food and Nutrition Service","SNAP_Store_Locations.csv","39531","","Center Point","4061 Perrysville Avenue","Pittsburgh","PA",15214,"ALLEGHENY","","","",40.492413,-80.021538,"4","","",1,NA,NA,NA,NA,0,"0","no type;no phone;no date/time info",NA,NA,NA,"0"
295,"food-data/Cleaned_data_files//cleaned_PA_SNAP.csv","296","USDA Food and Nutrition Service","SNAP_Store_Locations.csv","39717","","Moon Township Farmer's Market","1000 Beaver Grade Road","Moon Township","PA",15108,"ALLEGHENY","","","",40.505177,-80.207275,"4","","",1,NA,NA,NA,NA,0,"0","no type;no phone;no date/time info",NA,NA,NA,"0"
296,"food-data/Cleaned_data_files//cleaned_PA_SNAP.csv","297","USDA Food and Nutrition Service","SNAP_Store_Locations.csv","40211","","Shop Mart","625 Ardmore Boulevard","Pittsburgh","PA",15221,"ALLEGHENY","","","",40.437172,-79.873596,"4","","",1,NA,NA,NA,NA,0,"0","no type;no phone;no date/time info",NA,NA,NA,"0"
297,"food-data/Cleaned_data_files//cleaned_PA_SNAP.csv","298","USDA Food and Nutrition Service","SNAP_Store_Locations.csv","40328","","Galaxy Supermarket Inc","801 Broadway Avenue","McKees Rocks","PA",15136,"ALLEGHENY","","","",40.472935,-80.074753,"4","","",1,NA,NA,NA,NA,0,"0","no type;no phone;no date/time info",297,NA,NA,"0"
298,"food-data/Cleaned_data_files//cleaned_PA_SNAP.csv","299","USDA Food and Nutrition Service","SNAP_Store_Locations.csv","40574","","Just Harvest - Larimer Farmers Market","311 Larimer Avenue","Pittsburgh","PA",15206,"ALLEGHENY","","","",40.464596,-79.915649,"4","","",1,NA,NA,NA,NA,0,"0","no type;no phone;no date/time info",171,NA,NA,"0"
299,"food-data/Cleaned_data_files//cleaned_PA_SNAP.csv","300","USDA Food and Nutrition Service","SNAP_Store_Locations.csv","40652","","Memes Market","1608 Walz Street","Pittsburgh","PA",15212,"ALLEGHENY","","","",40.463306,-79.991203,"4","","",1,NA,NA,NA,NA,0,"0","no type;no phone;no date/time info",NA,NA,NA,"0"
