"file_name","id","source_org","source_file","original_id","type","name","address","city","state","zip_code","county","location_description","phone","url","latitude","longitude","latlng_source","date_from","date_to","SNAP","WIC","FMNP","fresh_produce","food_bucks","free_distribution","open_to_spec_group","data_issues","group_by_cluster","group_id","fuzzy_group_within_cluster","merged_record"
"food-data/Cleaned_data_files//additional_food_bucks_sites.csv","2","The Food Trust","Additional Food Bucks sites.xlsx","","","MAIN STREET FARMERS MARKET","139 S Main Street","Washington","PA",15301,"Allegheny","","","",40.172985,-80.246581,"Mapbox Geocode","","",1,NA,NA,NA,1,0,"","",NA,NA,NA,"0"
"food-data/Cleaned_data_files//bridgeway_capital_hffi.csv","4","Pittsburgh Food Policy Council","Bridgeway Capital - HFFI Funds.xlsx","","supermarket","52ND STREET MARKET","601 52nd Street","Pittsburgh","PA",15201,"Allegheny","","","",40.478792,-79.951927,"Mapbox Geocode","","",NA,NA,NA,1,NA,0,"","",NA,NA,NA,"0"
"food-data/Cleaned_data_files//bridgeway_capital_hffi.csv","5","Pittsburgh Food Policy Council","Bridgeway Capital - HFFI Funds.xlsx","","supermarket","PERRY'S HONEYDRIPPER","7006 Frankstown Avenue","Pittsburgh","PA",15208,"Allegheny","","","",40.458207,-79.900861,"Mapbox Geocode","","",NA,NA,NA,1,NA,0,"","",4,NA,NA,"0"
"food-data/Cleaned_data_files//bridgeway_capital_hffi.csv","7","Pittsburgh Food Policy Council","Bridgeway Capital - HFFI Funds.xlsx","","supermarket","BUTCHER ON BUTLER","5145 Butler Street","Pittsburgh","PA",15201,"Allegheny","","","",40.479645,-79.955229,"Mapbox Geocode","","",NA,NA,NA,1,NA,0,"","",NA,NA,NA,"0"
"food-data/Cleaned_data_files//bridgeway_capital_hffi.csv","8","Pittsburgh Food Policy Council","Bridgeway Capital - HFFI Funds.xlsx","","supermarket","GLUTEN FREE GOAT","4905 Penn Avenue","Pittsburgh","PA",15224,"Allegheny","","","",40.465487,-79.944923,"Mapbox Geocode","","",NA,NA,NA,1,NA,0,"","",7,NA,NA,"0"
"food-data/Cleaned_data_files//bridgeway_capital_hffi.csv","9","Pittsburgh Food Policy Council","Bridgeway Capital - HFFI Funds.xlsx","","supermarket","LA MARKET","511 Larimer Avenue","Pittsburgh","PA",15206,"Allegheny","","","",40.465564,-79.914164,"Mapbox Geocode","","",NA,NA,NA,1,NA,0,"","",8,NA,NA,"0"
"food-data/Cleaned_data_files//bridgeway_capital_hffi.csv","10","Pittsburgh Food Policy Council","Bridgeway Capital - HFFI Funds.xlsx","","supermarket","DAY LA SOUL","829-831 E. Warrington Avenue","Pittsburgh","PA",15210,"Allegheny","","","",40.4216501,-79.9951377,"Mapbox Geocode","","",NA,NA,NA,1,NA,0,"","",9,NA,NA,"0"
"food-data/Cleaned_data_files//cleaned_growpgh.csv","11","Grow Pittsburgh","GP garden directory_listing-20210322.csv","","Grow PGH Garden","ANGORA GARDENS","3 Muse Lane","White Oak","PA",15131,"","community-farm","412.675.8556","http://www.angoragardens.com",40.342338,-79.788348,"Grow Pittsburgh","","",1,0,1,1,0,0,"0","no date/time;no county info",NA,NA,NA,"0"
"food-data/Cleaned_data_files//cleaned_growpgh.csv","12","Grow Pittsburgh","GP garden directory_listing-20210322.csv","","Grow PGH Garden","EVERYBODY'S GARDEN","301 West Elizabeth Street","Pittsburgh","PA",15207,"","other","","",40.406546,-79.945442,"Grow Pittsburgh","","",1,0,1,1,0,0,"0","no date/time;no county info",NA,NA,NA,"0"
"food-data/Cleaned_data_files//cleaned_growpgh.csv","13","Grow Pittsburgh","GP garden directory_listing-20210322.csv","","Grow PGH Garden","GLEN HAZEL COMMUNIUTY GARDEN","Johnston Avenue At Roselle Drive","Pittsburgh","PA",15207,"","other","","",40.40604,-79.931253,"Grow Pittsburgh","","",1,0,1,1,0,0,"0","no date/time;no county info",NA,NA,NA,"0"
"food-data/Cleaned_data_files//cleaned_growpgh.csv","14","Grow Pittsburgh","GP garden directory_listing-20210322.csv","","Grow PGH Garden","GROW PITTSBURGH","6587 Hamilton Avenue #2w","Pittsburgh","PA",15206,"","grow-pittsburgh-site","412 362 GROW (4769)","http://www.growpittsburgh.org/",40.458481,-79.911381,"Grow Pittsburgh","","",1,0,1,1,0,0,"0","no date/time;no county info",NA,NA,NA,"0"
"food-data/Cleaned_data_files//cleaned_growpgh.csv","15","Grow Pittsburgh","GP garden directory_listing-20210322.csv","","Grow PGH Garden","LAWRENCEVILLE ORGANIC COMMUNITY GARDEN","Allegheny Cemetery 4734 Butler Street","Pittsburgh","PA",15201,"","other","412 427 8814","",40.477158,-79.956114,"Grow Pittsburgh","","",1,0,1,1,0,0,"0","no date/time;no county info",NA,NA,NA,"0"
"food-data/Cleaned_data_files//cleaned_growpgh.csv","16","Grow Pittsburgh","GP garden directory_listing-20210322.csv","","Grow PGH Garden","MASJID AL MU'MIN MADINAH GARDEN","159 Winslow Street","Pittsburgh","PA",15206,"","other","412 363 1237","",40.46445,-79.911651,"Grow Pittsburgh","","",1,0,1,1,0,0,"0","no date/time;no county info",NA,NA,NA,"0"
"food-data/Cleaned_data_files//cleaned_growpgh.csv","17","Grow Pittsburgh","GP garden directory_listing-20210322.csv","","Grow PGH Garden","SOUTH OAKLAND COMMUNITY ORCHARD","3213 Parkview Avenue","Pittsburgh","PA",15213,"","other","","http://southoaklandpgh.org/",40.429834,-79.953578,"Grow Pittsburgh","","",1,0,1,1,0,0,"0","no date/time;no county info",NA,NA,NA,"0"
"food-data/Cleaned_data_files//cleaned_growpgh.csv","19","Grow Pittsburgh","GP garden directory_listing-20210322.csv","","Grow PGH Garden","WIGGINS GARDEN","Near 3026 Wiggins Street","Pittsburgh","PA",15219,"","other","412 681 1950","http://phcapgh.org/",40.457618,-79.969499,"Grow Pittsburgh","","",1,0,1,1,0,0,"0","no date/time;no county info",NA,NA,NA,"0"
"food-data/Cleaned_data_files//cleaned_growpgh.csv","20","Grow Pittsburgh","GP garden directory_listing-20210322.csv","","Grow PGH Garden","THE SAMUEL AND ANNA MAE RICHARDSON COMMUNITY GARDEN","5427 Willow Street","Bethel Park","PA",15102,"","community-farm","412.523.8019","https://www.facebook.com/pg/theSamuelandAnnaMaeRichardsonCommunityGarden/",40.323229,-80.0405,"Grow Pittsburgh","","",1,0,1,1,0,0,"0","no date/time;no county info",NA,NA,NA,"0"
"food-data/Cleaned_data_files//cleaned_growpgh.csv","21","Grow Pittsburgh","GP garden directory_listing-20210322.csv","","Grow PGH Garden","CORAOPOLIS COMMUNITY GARDEN","411 Broadway Avenue","Coraopolis","PA",15108,"","community-farm","(412) 329-8247","https://coraopolisfoundation.org/community-garden/",40.516753,-80.160618,"Grow Pittsburgh","","",1,0,1,1,0,0,"0","no date/time;no county info",20,NA,NA,"0"
"food-data/Cleaned_data_files//cleaned_growpgh.csv","22","Grow Pittsburgh","GP garden directory_listing-20210322.csv","","Grow PGH Garden","CRAFTON COMMUNITY FARM","117 West Steuben Street","Crafton","PA",15205,"","community-farm","412) 921-0752","https://www.facebook.com/craftoncommunityfarm",40.438964,-80.072817,"Grow Pittsburgh","","",1,0,1,1,0,0,"0","no date/time;no county info",21,NA,NA,"0"
"food-data/Cleaned_data_files//cleaned_growpgh.csv","23","Grow Pittsburgh","GP garden directory_listing-20210322.csv","","Grow PGH Garden","COMMUNITY HUMAN SERVICES TEACHING GARDEN","370 Lawn Street","Pittsburgh","PA",15213,"","community-farm","","",40.433691,-79.961356,"Grow Pittsburgh","","",1,0,1,1,0,0,"0","no date/time;no county info",NA,NA,NA,"0"
"food-data/Cleaned_data_files//cleaned_growpgh.csv","24","Grow Pittsburgh","GP garden directory_listing-20210322.csv","","Grow PGH Garden","LANDSLIDE COMMUNITY FARM","3 Beelen Street","Pittsburgh","PA",15213,"","community-farm","","https://www.facebook.com/LandslideCommunityFarm",40.43816,-79.97244,"Grow Pittsburgh","","",1,0,1,1,0,0,"0","no date/time;no county info",NA,NA,NA,"0"
"food-data/Cleaned_data_files//cleaned_growpgh.csv","25","Grow Pittsburgh","GP garden directory_listing-20210322.csv","","Grow PGH Garden","ROSALINDA SAURO SIRIANNI MEMORIAL GARDEN","119 Davis Avenue","Bellevue","PA",15202,"","community-farm","412 307 0069 x 3311","https://nhco.org/garden/",40.48879,-80.049169,"Grow Pittsburgh","","",1,0,1,1,0,0,"0","no date/time;no county info",NA,NA,NA,"0"
"food-data/Cleaned_data_files//cleaned_growpgh.csv","26","Grow Pittsburgh","GP garden directory_listing-20210322.csv","","Grow PGH Garden","SECOND UP GARDEN","300 Hay Street","Pittsburgh","PA",15221,"","community-farm","412 242 4430","https://www.secondup.net",40.438825,-79.888431,"Grow Pittsburgh","","",1,0,1,1,0,0,"0","no date/time;no county info",NA,NA,NA,"0"
"food-data/Cleaned_data_files//cleaned_growpgh.csv","27","Grow Pittsburgh","GP garden directory_listing-20210322.csv","","Grow PGH Garden","EARL BROOKS COMMUNITY GARDEN","222 Robinson Street","Pittsburgh","PA",15213,"","community-farm","(412) 692 5315","",40.441165,-79.965404,"Grow Pittsburgh","","",1,0,1,1,0,0,"0","no date/time;no county info",NA,NA,NA,"0"
"food-data/Cleaned_data_files//cleaned_growpgh.csv","29","Grow Pittsburgh","GP garden directory_listing-20210322.csv","","Grow PGH Garden","BALLFIELD FARM","Crispen Street","Pittsburgh","PA",15214,"","community-farm","4125270538","http://www.ballfieldfarm.com",40.46849,-80.016561,"Grow Pittsburgh","","",1,0,1,1,0,0,"0","no date/time;no county info",NA,NA,NA,"0"
"food-data/Cleaned_data_files//cleaned_growpgh.csv","30","Grow Pittsburgh","GP garden directory_listing-20210322.csv","","Grow PGH Garden","BOXY CAUFIELD MEMORIAL GARDEN: ALLEGHENY YMCA","600 West North Avenue","Pittsburgh","PA",15212,"","community-farm","","http://www.ymcaofpittsburgh.org/gardens/",40.454624,-80.012922,"Grow Pittsburgh","","",1,0,1,1,0,0,"0","no date/time;no county info",29,NA,NA,"0"
"food-data/Cleaned_data_files//cleaned_growpgh.csv","31","Grow Pittsburgh","GP garden directory_listing-20210322.csv","","Grow PGH Garden","HAZELWOOD COMMUNITY GARDEN","4713 Chatsworth Avenue","Pittsburgh","PA",15207,"","community-farm","","http://www.hazelwoodinitiative.org/page14.html",40.413082,-79.944132,"Grow Pittsburgh","","",1,0,1,1,0,0,"0","no date/time;no county info",NA,NA,NA,"0"
"food-data/Cleaned_data_files//cleaned_growpgh.csv","32","Grow Pittsburgh","GP garden directory_listing-20210322.csv","","Grow PGH Garden","MISS MARY'S GARDEN : HOMEWOOD BRUSHTON YMCA","7140 Bennett Street","Pittsburgh","PA",15208,"","community-farm","847.404.3347","http://www.ymcapgh.org",40.456529,-79.898291,"Grow Pittsburgh","","",1,0,1,1,0,0,"0","no date/time;no county info",31,NA,NA,"0"
"food-data/Cleaned_data_files//cleaned_growpgh.csv","33","Grow Pittsburgh","GP garden directory_listing-20210322.csv","","Grow PGH Garden","SHERIDAN AVENUE ORCHARD","310 Sheridan Avenue","Pittsburgh","PA",15206,"","community-farm","","http://werepair.org/category/pittsburgh/",40.463474,-79.921924,"Grow Pittsburgh","","",1,0,1,1,0,0,"0","no date/time;no county info",NA,NA,NA,"0"
"food-data/Cleaned_data_files//cleaned_growpgh.csv","34","Grow Pittsburgh","GP garden directory_listing-20210322.csv","","Grow PGH Garden","CENTRE AVE YMCA GARDEN","2621 Centre Avenue","Pittsburgh","PA",15219,"","community-farm","412-567-1256 x0306","http://www.ymcapgh.org",40.447201,-79.967894,"Grow Pittsburgh","","",1,0,1,1,0,0,"0","no date/time;no county info",33,NA,NA,"0"
"food-data/Cleaned_data_files//cleaned_growpgh.csv","35","Grow Pittsburgh","GP garden directory_listing-20210322.csv","","Grow PGH Garden","ALLISON PARK ELEMENTARY COMMUNITY GARDEN","803 Mcgovern Road","Houston","PA",15342,"","school-garden","","",40.231664,-80.226758,"Grow Pittsburgh","","",1,0,1,1,0,0,"0","no date/time;no county info",NA,NA,NA,"0"
"food-data/Cleaned_data_files//cleaned_growpgh.csv","36","Grow Pittsburgh","GP garden directory_listing-20210322.csv","","Grow PGH Garden","AVONWORTH MIDDLE SCHOOL","258 Joseph's Lane","Pittsburgh","PA",15237,"","school-garden","","http://www.avonworthplants.weebly.com",40.532346,-80.078434,"Grow Pittsburgh","","",1,0,1,1,0,0,"0","no date/time;no county info",NA,NA,NA,"0"
"food-data/Cleaned_data_files//cleaned_growpgh.csv","37","Grow Pittsburgh","GP garden directory_listing-20210322.csv","","Grow PGH Garden","BORLAND GREEN COOPERATIVE","5806 Black Street","Pittsburgh","PA",15206,"","community-garden","412 361 1581","http://www.borlandgreen.com",40.467393,-79.924427,"Grow Pittsburgh","","",1,0,1,1,0,0,"0","no date/time;no county info",NA,NA,NA,"0"
"food-data/Cleaned_data_files//cleaned_growpgh.csv","38","Grow Pittsburgh","GP garden directory_listing-20210322.csv","","Grow PGH Garden","CARNEGIE ELEMENTARY SCHOOL","301 Franklin Avenue","Carnegie","PA",15106,"","school-garden","","",40.401334,-80.081874,"Grow Pittsburgh","","",1,0,1,1,0,0,"0","no date/time;no county info",NA,NA,NA,"0"
"food-data/Cleaned_data_files//cleaned_growpgh.csv","39","Grow Pittsburgh","GP garden directory_listing-20210322.csv","","Grow PGH Garden","CLAIRTON EDUCATION CENTER","501 Waddell Avenue","Clairton","PA",15025,"","school-garden","","",40.294148,-79.885294,"Grow Pittsburgh","","",1,0,1,1,0,0,"0","no date/time;no county info",NA,NA,NA,"0"
"food-data/Cleaned_data_files//cleaned_growpgh.csv","40","Grow Pittsburgh","GP garden directory_listing-20210322.csv","","Grow PGH Garden","COLFAX ELEMENTARY","2332 Beechwood Boulevard","Pittsburgh","PA",15217,"","school-garden","","http://edibleschoolyardpgh.org",40.433127,-79.915417,"Grow Pittsburgh","","",1,0,1,1,0,0,"0","no date/time;no county info",NA,NA,NA,"0"
"food-data/Cleaned_data_files//cleaned_growpgh.csv","41","Grow Pittsburgh","GP garden directory_listing-20210322.csv","","Grow PGH Garden","COMMUNITY DAY SCHOOL OF PITTSBURGH","6424 Forward Avenue","Pittsburgh","PA",15217,"","school-garden","","",40.427442,-79.917825,"Grow Pittsburgh","","",1,0,1,1,0,0,"0","no date/time;no county info",NA,NA,NA,"0"
"food-data/Cleaned_data_files//cleaned_growpgh.csv","42","Grow Pittsburgh","GP garden directory_listing-20210322.csv","","Grow PGH Garden","DILWORTH TRADITIONAL ACADEMY","6200 Stanton Avenue","Pittsburgh","PA",15206,"","school-garden","","",40.468805,-79.917808,"Grow Pittsburgh","","",1,0,1,1,0,0,"0","no date/time;no county info",NA,NA,NA,"0"
"food-data/Cleaned_data_files//cleaned_growpgh.csv","43","Grow Pittsburgh","GP garden directory_listing-20210322.csv","","Grow PGH Garden","FORT LEBOEUF MIDDLE SCHOOL","865 Cherry Street","Waterford","PA",16441,"","school-garden","","",41.951436,-79.986455,"Grow Pittsburgh","","",1,0,1,1,0,0,"0","no date/time;no county info",NA,NA,NA,"0"
"food-data/Cleaned_data_files//cleaned_growpgh.csv","44","Grow Pittsburgh","GP garden directory_listing-20210322.csv","","Grow PGH Garden","GREENOCK ELEMENTARY SCHOOL","1101 Greenock Buena Vista Road","McKeesport","PA",15135,"","school-garden","","",40.311881,-79.8029,"Grow Pittsburgh","","",1,0,1,1,0,0,"0","no date/time;no county info",NA,NA,NA,"0"
"food-data/Cleaned_data_files//cleaned_growpgh.csv","46","Grow Pittsburgh","GP garden directory_listing-20210322.csv","","Grow PGH Garden","MAMS COMMUNITY GARDEN","800 Thurston Road","Meadville","PA",16335,"","school-garden","","http://farmmeadville.com/directory/community gardens/community garden at the marc/",41.633276,-80.124376,"Grow Pittsburgh","","",1,0,1,1,0,0,"0","no date/time;no county info",NA,NA,NA,"0"
"food-data/Cleaned_data_files//cleaned_growpgh.csv","47","Grow Pittsburgh","GP garden directory_listing-20210322.csv","","Grow PGH Garden","PITTSBURGH ARSENAL","220 Zeroth Street","Pittsburgh","PA",15201,"","school-garden","","",40.467734,-79.962522,"Grow Pittsburgh","","",1,0,1,1,0,0,"0","no date/time;no county info",45,NA,NA,"0"
"food-data/Cleaned_data_files//cleaned_growpgh.csv","48","Grow Pittsburgh","GP garden directory_listing-20210322.csv","","Grow PGH Garden","PITTSBURGH LANGLEY","2940 Sheraden Boulevard","Pittsburgh","PA",15204,"","school-garden","","",40.453644,-80.054031,"Grow Pittsburgh","","",1,0,1,1,0,0,"0","no date/time;no county info",46,NA,NA,"0"
"food-data/Cleaned_data_files//cleaned_growpgh.csv","49","Grow Pittsburgh","GP garden directory_listing-20210322.csv","","Grow PGH Garden","PITTSBURGH LINDEN SCHOOL GARDEN","725 S Linden Avenue","Pittsburgh","PA",15208,"","school-garden","","http://pghlindenpta.wordpress.com",40.445514,-79.916283,"Grow Pittsburgh","","",1,0,1,1,0,0,"0","no date/time;no county info",NA,NA,NA,"0"
"food-data/Cleaned_data_files//cleaned_growpgh.csv","50","Grow Pittsburgh","GP garden directory_listing-20210322.csv","","Grow PGH Garden","PITTSBURGH MILLER AFRICAN CENTERED ACADEMY","2055 Bedford Avenue","Pittsburgh","PA",15219,"","school-garden","","",40.447077,-79.981061,"Grow Pittsburgh","","",1,0,1,1,0,0,"0","no date/time;no county info",NA,NA,NA,"0"
"food-data/Cleaned_data_files//cleaned_growpgh.csv","51","Grow Pittsburgh","GP garden directory_listing-20210322.csv","","Grow PGH Garden","PITTSBURGH MONTESSORI PREK 5","201 S Graham Street","Pittsburgh","PA",15206,"","school-garden","","",40.462489,-79.935596,"Grow Pittsburgh","","",1,0,1,1,0,0,"0","no date/time;no county info",NA,NA,NA,"0"
"food-data/Cleaned_data_files//cleaned_growpgh.csv","53","Grow Pittsburgh","GP garden directory_listing-20210322.csv","","Grow PGH Garden","PITTSBURGH URBAN CHRISTIAN SCHOOL","809 Center Street","Pittsburgh","PA",15221,"","school-garden","","http://pucs.org",40.441483,-79.882937,"Grow Pittsburgh","","",1,0,1,1,0,0,"0","no date/time;no county info",NA,NA,NA,"0"
"food-data/Cleaned_data_files//cleaned_growpgh.csv","54","Grow Pittsburgh","GP garden directory_listing-20210322.csv","","Grow PGH Garden","PROPEL HOMESTEAD","129 E Zeroth Avenue","Homestead","PA",15120,"","school-garden","","",40.405408,-79.910342,"Grow Pittsburgh","","",1,0,1,1,0,0,"0","no date/time;no county info",NA,NA,NA,"0"
"food-data/Cleaned_data_files//cleaned_growpgh.csv","55","Grow Pittsburgh","GP garden directory_listing-20210322.csv","","Grow PGH Garden","SSA FARM AT THE JUNIOR SCHOOL","400 S. Braddock","Pittsburgh","PA",15221,"","school-garden","","http://www.shadysideacademy.org/ssafarm",40.444237,-79.897476,"Grow Pittsburgh","","",1,0,1,1,0,0,"0","no date/time;no county info",NA,NA,NA,"0"
"food-data/Cleaned_data_files//cleaned_growpgh.csv","56","Grow Pittsburgh","GP garden directory_listing-20210322.csv","","Grow PGH Garden","SSA FARM AT THE MIDDLE SCHOOL","500 Squaw Run Road East","Pittsburgh","PA",15238,"","school-garden","","http://www.shadysideacademy.org/ssafarm",40.52817,-79.880648,"Grow Pittsburgh","","",1,0,1,1,0,0,"0","no date/time;no county info",NA,NA,NA,"0"
"food-data/Cleaned_data_files//cleaned_growpgh.csv","57","Grow Pittsburgh","GP garden directory_listing-20210322.csv","","Grow PGH Garden","SSA FARM AT THE SENIOR SCHOOL","423 Fox Chapel Road","Pittsburgh","PA",15238,"","school-garden","","http://www.shadysideacademy.org/ssafarm",40.52247,-79.882689,"Grow Pittsburgh","","",1,0,1,1,0,0,"0","no date/time;no county info",NA,NA,NA,"0"
"food-data/Cleaned_data_files//cleaned_growpgh.csv","58","Grow Pittsburgh","GP garden directory_listing-20210322.csv","","Grow PGH Garden","ST. PAUL AFRICAN METHODIST EPISCOPAL CHURCH","414 Orchard Place","Pittsburgh","PA",15210,"","school-garden","","",40.41792,-79.995982,"Grow Pittsburgh","","",1,0,1,1,0,0,"0","no date/time;no county info",NA,NA,NA,"0"
"food-data/Cleaned_data_files//cleaned_growpgh.csv","59","Grow Pittsburgh","GP garden directory_listing-20210322.csv","","Grow PGH Garden","THE ENVIRONMENTAL CHARTER LOWER SCHOOL EDIBLE SCHOOLYARD","309 South Braddock","Pittsburgh","PA",15221,"","school-garden","","http://www.environmentalcharterschool.org",40.444922,-79.895715,"Grow Pittsburgh","","",1,0,1,1,0,0,"0","no date/time;no county info",NA,NA,NA,"0"
"food-data/Cleaned_data_files//cleaned_growpgh.csv","60","Grow Pittsburgh","GP garden directory_listing-20210322.csv","","Grow PGH Garden","THE ENVIRONMENTAL CHARTER UPPER SCHOOL LIVING LABORATORY","829 Milton Street","Pittsburgh","PA",15218,"","school-garden","","http://www.environmentalcharterschool.org",40.436015,-79.89694,"Grow Pittsburgh","","",1,0,1,1,0,0,"0","no date/time;no county info",NA,NA,NA,"0"
"food-data/Cleaned_data_files//cleaned_growpgh.csv","61","Grow Pittsburgh","GP garden directory_listing-20210322.csv","","Grow PGH Garden","THE NEIGHBORHOOD ACADEMY","709 N Aiken Avenue","Pittsburgh","PA",15206,"","school-garden","","",40.472894,-79.932793,"Grow Pittsburgh","","",1,0,1,1,0,0,"0","no date/time;no county info",NA,NA,NA,"0"
"food-data/Cleaned_data_files//cleaned_growpgh.csv","62","Grow Pittsburgh","GP garden directory_listing-20210322.csv","","Grow PGH Garden","URBAN LEAGUE CHARTER SCHOOL","327 N Negley Avenue","Pittsburgh","PA",15206,"","school-garden","","",40.466733,-79.929864,"Grow Pittsburgh","","",1,0,1,1,0,0,"0","no date/time;no county info",NA,NA,NA,"0"
"food-data/Cleaned_data_files//cleaned_growpgh.csv","63","Grow Pittsburgh","GP garden directory_listing-20210322.csv","","Grow PGH Garden","WALDORF SCHOOL OF PITTSBURGH","201 S Winebiddle Street","Pittsburgh","PA",15224,"","school-garden","","",40.463958,-79.942294,"Grow Pittsburgh","","",1,0,1,1,0,0,"0","no date/time;no county info",NA,NA,NA,"0"
"food-data/Cleaned_data_files//cleaned_growpgh.csv","64","Grow Pittsburgh","GP garden directory_listing-20210322.csv","","Grow PGH Garden","WEST END CHILDREN'S CENTER","42 Wabash Street","Pittsburgh","PA",15220,"","school-garden","","",40.440192,-80.03457,"Grow Pittsburgh","","",1,0,1,1,0,0,"0","no date/time;no county info",NA,NA,NA,"0"
"food-data/Cleaned_data_files//cleaned_growpgh.csv","65","Grow Pittsburgh","GP garden directory_listing-20210322.csv","","Grow PGH Garden","FRICK GREENHOUSE","7227 Reynolds Street","Pittsburgh","PA",15208,"","commercial-urban-farm;grow-pittsburgh-site","","https://www.growpittsburgh.org/about-us/locations/frick-greenhouse/",40.447816,-79.901057,"Grow Pittsburgh","","",1,0,1,1,0,0,"0","no date/time;no county info",NA,NA,NA,"0"
"food-data/Cleaned_data_files//cleaned_growpgh.csv","68","Grow Pittsburgh","GP garden directory_listing-20210322.csv","","Grow PGH Garden","EAST FIELD COOPERATIVE GARDEN","5543 Black Street","Pittsburgh","PA",15206,"","community-garden","412.365.5716","https://www.facebook.com/groups/EastFieldGarden",40.469404,-79.928441,"Grow Pittsburgh","","",1,0,1,1,0,0,"0","no date/time;no county info",NA,NA,NA,"0"
"food-data/Cleaned_data_files//cleaned_growpgh.csv","69","Grow Pittsburgh","GP garden directory_listing-20210322.csv","","Grow PGH Garden","ELLIOTT COMMUNITY GARDEN","706 Lorenz Avenue","Pittsburgh","PA",15220,"","community-garden","4126575969","",40.44501,-80.039497,"Grow Pittsburgh","","",1,0,1,1,0,0,"0","no date/time;no county info",NA,NA,NA,"0"
"food-data/Cleaned_data_files//cleaned_growpgh.csv","70","Grow Pittsburgh","GP garden directory_listing-20210322.csv","","Grow PGH Garden","FINEVIEW COMMUNITY GARDEN","13 Carrie Street","Pittsburgh","PA",15212,"","community-garden","412 323 8288","",40.461294,-80.002021,"Grow Pittsburgh","","",1,0,1,1,0,0,"0","no date/time;no county info",NA,NA,NA,"0"
"food-data/Cleaned_data_files//cleaned_growpgh.csv","71","Grow Pittsburgh","GP garden directory_listing-20210322.csv","","Grow PGH Garden","FRAZIER FARMS COMMUNITY GARDEN","3638 Frazier Street","Pittsburgh","PA",15213,"","school-garden","","http://southoaklandpgh.org/",40.429735,-79.954579,"Grow Pittsburgh","","",1,0,1,1,0,0,"0","no date/time;no county info",NA,NA,NA,"0"
"food-data/Cleaned_data_files//cleaned_growpgh.csv","72","Grow Pittsburgh","GP garden directory_listing-20210322.csv","","Grow PGH Garden","GARDEN OF ETNA","9 Short Alley","Pittsburgh","PA",15223,"","community-garden","412 486 3831","",40.496077,-79.945871,"Grow Pittsburgh","","",1,0,1,1,0,0,"0","no date/time;no county info",NA,NA,NA,"0"
"food-data/Cleaned_data_files//cleaned_growpgh.csv","73","Grow Pittsburgh","GP garden directory_listing-20210322.csv","","Grow PGH Garden","GARDEN ON GEARING","409-411gearing Avenue","Pittsburgh","PA",15210,"","community-garden","412 613 4663","https://groundedpgh.org/projects/garden-on-gearing/",40.418085,-80.00523,"Grow Pittsburgh","","",1,0,1,1,0,0,"0","no date/time;no county info",NA,NA,NA,"0"
"food-data/Cleaned_data_files//cleaned_growpgh.csv","74","Grow Pittsburgh","GP garden directory_listing-20210322.csv","","Grow PGH Garden","GRACE & FRUIT POLLINATOR GARDENS AND ORCHARD","Glenn Avenue & Swissvale Avenue","Pittsburgh","PA",15221,"","community-garden","4128246991","",40.444612,-79.875885,"Grow Pittsburgh","","",1,0,1,1,0,0,"0","no date/time;no county info",NA,NA,NA,"0"
"food-data/Cleaned_data_files//cleaned_growpgh.csv","75","Grow Pittsburgh","GP garden directory_listing-20210322.csv","","Grow PGH Garden","HARMAR STREET COMMUNITY GARDEN","331 Harmar Street","Pittsburgh","PA",15219,"","community-garden","412 378 3823","http://www.phcapgh.org/",40.457406,-79.967969,"Grow Pittsburgh","","",1,0,1,1,0,0,"0","no date/time;no county info",NA,NA,NA,"0"
"food-data/Cleaned_data_files//cleaned_growpgh.csv","76","Grow Pittsburgh","GP garden directory_listing-20210322.csv","","Grow PGH Garden","HIGHLAND PARK COMMUNITY GARDENS","Stanton Avenue","Pittsburgh","PA",15206,"","community-garden","412-255-8850","",40.472064,-79.913673,"Grow Pittsburgh","","",1,0,1,1,0,0,"0","no date/time;no county info",NA,NA,NA,"0"
"food-data/Cleaned_data_files//cleaned_growpgh.csv","77","Grow Pittsburgh","GP garden directory_listing-20210322.csv","","Grow PGH Garden","KINCAID STREET COMMUNITY GARDEN","5409 Kincaid Street","Pittsburgh","PA",15206,"","community-garden","(412) 545-3050","",40.466375,-79.934859,"Grow Pittsburgh","","",1,0,1,1,0,0,"0","no date/time;no county info",NA,NA,NA,"0"
"food-data/Cleaned_data_files//cleaned_growpgh.csv","78","Grow Pittsburgh","GP garden directory_listing-20210322.csv","","Grow PGH Garden","KIWANIS COMMUNITY GARDEN","2801 Jenny Lind Street","McKeesport","PA",15132,"","community-garden","412 678 1340","http://www.mckha.org/programs/mckeesport-community-garden/",40.339138,-79.844107,"Grow Pittsburgh","","",1,0,1,1,0,0,"0","no date/time;no county info",NA,NA,NA,"0"
"food-data/Cleaned_data_files//cleaned_growpgh.csv","79","Grow Pittsburgh","GP garden directory_listing-20210322.csv","","Grow PGH Garden","LARIMER COMMUNITY GARDEN","300 Larimer Avenue","Pittsburgh","PA",15206,"","community-garden","(412) 661 8751","",40.46432,-79.91601,"Grow Pittsburgh","","",1,0,1,1,0,0,"0","no date/time;no county info",77,NA,NA,"0"
"food-data/Cleaned_data_files//cleaned_growpgh.csv","80","Grow Pittsburgh","GP garden directory_listing-20210322.csv","","Grow PGH Garden","LAWRENCEVILLE COMMUNITY GARDENS","4200 Sherrod Street","Pittsburgh","PA",15201,"","community-garden","","",40.467567,-79.956557,"Grow Pittsburgh","","",1,0,1,1,0,0,"0","no date/time;no county info",NA,NA,NA,"0"
"food-data/Cleaned_data_files//cleaned_growpgh.csv","81","Grow Pittsburgh","GP garden directory_listing-20210322.csv","","Grow PGH Garden","MARTIN LUTHER KING JR. COMMUNITY GARDEN","219 Kirkpatrick Street","Pittsburgh","PA",15219,"","community-farm;community-garden","412-255-8850","",40.440128,-79.973628,"Grow Pittsburgh","","",1,0,1,1,0,0,"0","no date/time;no county info",NA,NA,NA,"0"
"food-data/Cleaned_data_files//cleaned_growpgh.csv","82","Grow Pittsburgh","GP garden directory_listing-20210322.csv","","Grow PGH Garden","MORNINGSIDE COMMUNITY GARDEN","1118 Chislett Street","Pittsburgh","PA",15206,"","community-garden","412-255-8850","",40.477202,-79.92881,"Grow Pittsburgh","","",1,0,1,1,0,0,"0","no date/time;no county info",NA,NA,NA,"0"
"food-data/Cleaned_data_files//cleaned_growpgh.csv","83","Grow Pittsburgh","GP garden directory_listing-20210322.csv","","Grow PGH Garden","MT. OLIVER BOROUGH COMMUNITY GARDEN","Transverse Park","Mount Oliver","PA",15210,"","community-garden","412 668 3197","",40.406719,-79.984659,"Grow Pittsburgh","","",1,0,1,1,0,0,"0","no date/time;no county info",NA,NA,NA,"0"
"food-data/Cleaned_data_files//cleaned_growpgh.csv","84","Grow Pittsburgh","GP garden directory_listing-20210322.csv","","Grow PGH Garden","PENN HILLS COMMUNITY GARDEN","1162 Jefferson Road","Penn Hills","PA",15235,"","community-garden","","https://www.PennHillsGarden.org",40.447638,-79.798817,"Grow Pittsburgh","","",1,0,1,1,0,0,"0","no date/time;no county info",NA,NA,NA,"0"
"food-data/Cleaned_data_files//cleaned_growpgh.csv","85","Grow Pittsburgh","GP garden directory_listing-20210322.csv","","Grow PGH Garden","THE HARRY ORLANDO MEMORIAL COMMUNITY GARDEN","2205 Fifth Avenue","Pittsburgh","PA",15219,"","community-garden","412 377 9926","",40.438247,-79.973943,"Grow Pittsburgh","","",1,0,1,1,0,0,"0","no date/time;no county info",NA,NA,NA,"0"
"food-data/Cleaned_data_files//cleaned_growpgh.csv","86","Grow Pittsburgh","GP garden directory_listing-20210322.csv","","Grow PGH Garden","THE OCTOPUS GARDEN","133 South Aiken Avenue","Pittsburgh","PA",15206,"","community-garden","","https://www.facebook.com/octopusgardenpittsburgh/",40.463591,-79.936771,"Grow Pittsburgh","","",1,0,1,1,0,0,"0","no date/time;no county info",NA,NA,NA,"0"
"food-data/Cleaned_data_files//cleaned_growpgh.csv","87","Grow Pittsburgh","GP garden directory_listing-20210322.csv","","Grow PGH Garden","TUSTIN STREET COMMUNITY GARDEN","2021 Tustin Street","Pittsburgh","PA",15219,"","community-garden","412.862.9925","http://www.uptownpartners.org/community_programs/tustin-st-community-garden/",40.436569,-79.977099,"Grow Pittsburgh","","",1,0,1,1,0,0,"0","no date/time;no county info",NA,NA,NA,"0"
"food-data/Cleaned_data_files//cleaned_growpgh.csv","88","Grow Pittsburgh","GP garden directory_listing-20210322.csv","","Grow PGH Garden","OSBORNE ELEMENTARY OUTDOOR CLASSROOM AND GARTEN","1414 Beaver Street","Sewickley","PA",15143,"","school-garden","414.803.5409","",40.530559,-80.1686,"Grow Pittsburgh","","",1,0,1,1,0,0,"0","no date/time;no county info",NA,NA,NA,"0"
"food-data/Cleaned_data_files//cleaned_growpgh.csv","89","Grow Pittsburgh","GP garden directory_listing-20210322.csv","","Grow PGH Garden","DORMONT ELEMENTARY GARDEN","3200 Annapolis Avenue","Pittsburgh","PA",15216,"","school-garden","","",40.394718,-80.043794,"Grow Pittsburgh","","",1,0,1,1,0,0,"0","no date/time;no county info",NA,NA,NA,"0"
"food-data/Cleaned_data_files//cleaned_growpgh.csv","90","Grow Pittsburgh","GP garden directory_listing-20210322.csv","","Grow PGH Garden","NORTH AVENUE BIRD HABITAT & POLLINATION GARDEN","718 North Avenue","Pittsburgh","PA",15221,"","","4128493434","",40.444754,-79.883043,"Grow Pittsburgh","","",1,0,1,1,0,0,"0","no date/time;no county info",NA,NA,NA,"0"
"food-data/Cleaned_data_files//cleaned_growpgh.csv","91","Grow Pittsburgh","GP garden directory_listing-20210322.csv","","Grow PGH Garden","SAINT JOAN OF ARC CHURCH COMMUNITY GARDEN","6454 Library Road","South Park Township","PA",15129,"","community-garden","412.833.2400","https://mystjoan.org",40.287464,-80.026439,"Grow Pittsburgh","","",1,0,1,1,0,0,"0","no date/time;no county info",NA,NA,NA,"0"
"food-data/Cleaned_data_files//cleaned_growpgh.csv","92","Grow Pittsburgh","GP garden directory_listing-20210322.csv","","Grow PGH Garden","STONE SOUP COMMUNITY GARDEN","1229 Franklin Avenue","Pittsburgh","PA",15221,"","community-garden","4122718414","",40.438237,-79.875904,"Grow Pittsburgh","","",1,0,1,1,0,0,"0","no date/time;no county info",NA,NA,NA,"0"
"food-data/Cleaned_data_files//cleaned_growpgh.csv","93","Grow Pittsburgh","GP garden directory_listing-20210322.csv","","Grow PGH Garden","FOOD CITY COMMUNITY GARDEN","849 Tripoli Street","Pittsburgh","PA",15212,"","community-farm","","http://www.facebook.com/foodcitypgh",40.45675,-79.99582,"Grow Pittsburgh","","",1,0,1,1,0,0,"0","no date/time;no county info",NA,NA,NA,"0"
"food-data/Cleaned_data_files//cleaned_growpgh.csv","94","Grow Pittsburgh","GP garden directory_listing-20210322.csv","","Grow PGH Garden","ENRIGHT COMMUNITY GARDEN","214 South Saint Clair Street","Pittsburgh","PA",15206,"","community-garden;school-garden","","https://www.facebook.com/enrightgarden/",40.461166,-79.929837,"Grow Pittsburgh","","",1,0,1,1,0,0,"0","no date/time;no county info",NA,NA,NA,"0"
"food-data/Cleaned_data_files//cleaned_growpgh.csv","95","Grow Pittsburgh","GP garden directory_listing-20210322.csv","","Grow PGH Garden","AMITY HARVEST COMMUNITY GARDEN","609 Amity Street","Homestead","PA",15120,"","community-farm","","https://www.facebook.com/AmityHarvestCommunityGarden/",40.40783,-79.911485,"Grow Pittsburgh","","",1,0,1,1,0,0,"0","no date/time;no county info",93,NA,NA,"0"
"food-data/Cleaned_data_files//cleaned_growpgh.csv","96","Grow Pittsburgh","GP garden directory_listing-20210322.csv","","Grow PGH Garden","GARDENS OF MILLVALE","12 Butler Street","Pittsburgh","PA",15209,"","community-garden;community-farm","412-584-1665","https://www.facebook.com/The-Gardens-of-Millvale/",40.479221,-79.973279,"Grow Pittsburgh","","",1,0,1,1,0,0,"0","no date/time;no county info",NA,NA,NA,"0"
"food-data/Cleaned_data_files//cleaned_growpgh.csv","97","Grow Pittsburgh","GP garden directory_listing-20210322.csv","","Grow PGH Garden","WINTHROP STREET COMMUNITY GARDEN","4636 Winthrop Street","Pittsburgh","PA",15213,"","community-garden;school-garden","","https://cmusustainability.weebly.com/winthrop-comunity-garden.html",40.445755,-79.947281,"Grow Pittsburgh","","",1,0,1,1,0,0,"0","no date/time;no county info",NA,NA,NA,"0"
"food-data/Cleaned_data_files//cleaned_growpgh.csv","98","Grow Pittsburgh","GP garden directory_listing-20210322.csv","","Grow PGH Garden","MULFORD COMMUNITY TEACHING GARDEN","337 Hale Street","Pittsburgh","PA",15208,"","community-garden","412-805-0584","",40.451904,-79.887827,"Grow Pittsburgh","","",1,0,1,1,0,0,"0","no date/time;no county info",NA,NA,NA,"0"
"food-data/Cleaned_data_files//cleaned_growpgh.csv","100","Grow Pittsburgh","GP garden directory_listing-20210322.csv","","Grow PGH Garden","CORNERSTONE PREP COURTYARD GARDEN","1900 Clairton Road","West Mifflin","PA",15122,"","school-garden","","",40.334422,-79.934775,"Grow Pittsburgh","","",1,0,1,1,0,0,"0","no date/time;no county info",NA,NA,NA,"0"
"food-data/Cleaned_data_files//cleaned_growpgh.csv","101","Grow Pittsburgh","GP garden directory_listing-20210322.csv","","Grow PGH Garden","CLAIRTON COMMUNITY GARDEN","300 Saint Clair Avenue","Clairton","PA",15025,"","community-garden","412-414-1512","",40.29203,-79.882047,"Grow Pittsburgh","","",1,0,1,1,0,0,"0","no date/time;no county info",NA,NA,NA,"0"
"food-data/Cleaned_data_files//cleaned_growpgh.csv","102","Grow Pittsburgh","GP garden directory_listing-20210322.csv","","Grow PGH Garden","WHITEHALL PEACE AND COMMUNITY GARDEN","4935 East Willock Road","Pittsburgh","PA",15227,"","community-garden","","http://www.shimcares.org",40.358027,-79.967387,"Grow Pittsburgh","","",1,0,1,1,0,0,"0","no date/time;no county info",NA,NA,NA,"0"
"food-data/Cleaned_data_files//cleaned_growpgh.csv","103","Grow Pittsburgh","GP garden directory_listing-20210322.csv","","Grow PGH Garden","GREG BLYTHE FRIENDSHIP GARDEN IN TARENTUM","700 East First Avenue","Tarentum","PA",15084,"","community-garden","","https://www.facebook.com/TarentumFriendshipGarden/",40.602387,-79.745117,"Grow Pittsburgh","","",1,0,1,1,0,0,"0","no date/time;no county info",NA,NA,NA,"0"
"food-data/Cleaned_data_files//cleaned_growpgh.csv","104","Grow Pittsburgh","GP garden directory_listing-20210322.csv","","Grow PGH Garden","HAMNETT PLACE COMMUNITY GARDEN","502 Jeanette Street","Pittsburgh","PA",15221,"","community-garden","","https://hamnettgarden.wordpress.com",40.438734,-79.884733,"Grow Pittsburgh","","",1,0,1,1,0,0,"0","no date/time;no county info",NA,NA,NA,"0"
"food-data/Cleaned_data_files//cleaned_growpgh.csv","105","Grow Pittsburgh","GP garden directory_listing-20210322.csv","","Grow PGH Garden","LAWRENCEVILLE ORGANIC COMMUNITY GARDEN: MCCANDLESS","117 Mccandless Avenue","Pittsburgh","PA",15201,"","community-garden","","https://www.facebook.com/groups/lvgarden/",40.480798,-79.952311,"Grow Pittsburgh","","",1,0,1,1,0,0,"0","no date/time;no county info",NA,NA,NA,"0"
"food-data/Cleaned_data_files//cleaned_growpgh.csv","106","Grow Pittsburgh","GP garden directory_listing-20210322.csv","","Grow PGH Garden","LAWRENCEVILLE ORGANIC COMMUNITY GARDEN: ALLEGHENY CEMETERY","1148 Stanton Avenue","Pittsburgh","PA",15224,"","community-farm","","https://www.facebook.com/groups/lvgarden/about/",40.478175,-79.955595,"Grow Pittsburgh","","",1,0,1,1,0,0,"0","no date/time;no county info",NA,NA,NA,"0"
"food-data/Cleaned_data_files//cleaned_growpgh.csv","108","Grow Pittsburgh","GP garden directory_listing-20210322.csv","","Grow PGH Garden","FALLEN STARS OF NORTHVIEW HEIGHTS COMMUNITY GARDEN NORTHVIEW HEIGHTS","168 Penfort Street","Pittsburgh","PA",15214,"","community-garden","","",40.47608,-80.000025,"Grow Pittsburgh","","",1,0,1,1,0,0,"0","no date/time;no county info",NA,NA,NA,"0"
"food-data/Cleaned_data_files//cleaned_growpgh.csv","109","Grow Pittsburgh","GP garden directory_listing-20210322.csv","","Grow PGH Garden","MEYER'S RIDGE COMMUNITY GARDEN","901 Gray Street","McKees Rocks","PA",15136,"","community-farm","","",40.469338,-80.06541,"Grow Pittsburgh","","",1,0,1,1,0,0,"0","no date/time;no county info",107,NA,NA,"0"
"food-data/Cleaned_data_files//cleaned_growpgh.csv","110","Grow Pittsburgh","GP garden directory_listing-20210322.csv","","Grow PGH Garden","NATRONA GROWS COMMUNITY GARDEN","46 Federal Street","Natrona Heights","PA",15065,"","community-garden","","",40.615675,-79.721049,"Grow Pittsburgh","","",1,0,1,1,0,0,"0","no date/time;no county info",NA,NA,NA,"0"
"food-data/Cleaned_data_files//cleaned_growpgh.csv","111","Grow Pittsburgh","GP garden directory_listing-20210322.csv","","Grow PGH Garden","TURTLE CREEK HOMEPLATE COMMUNITY GARDEN","115 Hamilton Avenue","Turtle Creek","PA",15145,"","community-farm","","",40.412612,-79.820006,"Grow Pittsburgh","","",1,0,1,1,0,0,"0","no date/time;no county info",NA,NA,NA,"0"
"food-data/Cleaned_data_files//cleaned_growpgh.csv","112","Grow Pittsburgh","GP garden directory_listing-20210322.csv","","Grow PGH Garden","RIVERVIEW COMMUNITY GARDEN OF BRIGHTON HEIGHTS","1500 Letort Street","Pittsburgh","PA",15212,"","community-farm;community-garden","","",40.48,-80.03735,"Grow Pittsburgh","","",1,0,1,1,0,0,"0","no date/time;no county info",NA,NA,NA,"0"
"food-data/Cleaned_data_files//cleaned_growpgh.csv","113","Grow Pittsburgh","GP garden directory_listing-20210322.csv","","Grow PGH Garden","MOUNT WASHINGTON COMMUNITY GARDEN AT REAM PARK","321 Merrimac Street","Pittsburgh","PA",15211,"","community-garden","412-255-8850","https://www.facebook.com/mtwashingtongarden/",40.43097,-80.01323,"Grow Pittsburgh","","",1,0,1,1,0,0,"0","no date/time;no county info",111,NA,NA,"0"
"food-data/Cleaned_data_files//cleaned_growpgh.csv","114","Grow Pittsburgh","GP garden directory_listing-20210322.csv","","Grow PGH Garden","MOUNTAIN VIEW COMMUNITY GARDEN","1592 Crucible Street","Pittsburgh","PA",15205,"","community-farm","412-583-7136","http://mtvcommunity.com/",40.445623,-80.051358,"Grow Pittsburgh","","",1,0,1,1,0,0,"0","no date/time;no county info",NA,NA,NA,"0"
"food-data/Cleaned_data_files//cleaned_growpgh.csv","115","Grow Pittsburgh","GP garden directory_listing-20210322.csv","","Grow PGH Garden","DUQUESNE COMMUNITY VICTORY GARDEN","719 Duquesne Boulevard","Duquesne","PA",15110,"","community-garden","412-714-6670","http://facebook.com/duquesnecommunityvictorygarden",40.381652,-79.856757,"Grow Pittsburgh","","",1,0,1,1,0,0,"0","no date/time;no county info",NA,NA,NA,"0"
"food-data/Cleaned_data_files//cleaned_growpgh.csv","117","Grow Pittsburgh","GP garden directory_listing-20210322.csv","","Grow PGH Garden","DUNCAN PARK","5314 Duncan Street","Pittsburgh","PA",15201,"","other","412.802.7220","http://www.lunited.org",40.480313,-79.948474,"Grow Pittsburgh","","",1,0,1,1,0,0,"0","no date/time;no county info",NA,NA,NA,"0"
"food-data/Cleaned_data_files//cleaned_growpgh.csv","118","Grow Pittsburgh","GP garden directory_listing-20210322.csv","","Grow PGH Garden","TROY HILL CITIZENS - LOOKOUT ST. COMMUNITY GARDEN","1905 Lookout Street","Pittsburgh","PA",15212,"","community-garden","","http://troyhillpittsburgh.com/community-gardens/",40.468962,-79.977067,"Grow Pittsburgh","","",1,0,1,1,0,0,"0","no date/time;no county info",NA,NA,NA,"0"
"food-data/Cleaned_data_files//cleaned_growpgh.csv","119","Grow Pittsburgh","GP garden directory_listing-20210322.csv","","Grow PGH Garden","TROY HILL CITIZENS - ELBOW ST. COMMUNITY GARDEN","1819 Elbow Street","Pittsburgh","PA",15212,"","community-garden","","http://troyhillpittsburgh.com/community-gardens/",40.464737,-79.980626,"Grow Pittsburgh","","",1,0,1,1,0,0,"0","no date/time;no county info",NA,NA,NA,"0"
"food-data/Cleaned_data_files//cleaned_growpgh.csv","120","Grow Pittsburgh","GP garden directory_listing-20210322.csv","","Grow PGH Garden","PGH LINCOLN K-5 LEARNING GARDEN","328 Lincoln Avenue","Pittsburgh","PA",15206,"","school-garden","","",40.460174,-79.911921,"Grow Pittsburgh","","",1,0,1,1,0,0,"0","no date/time;no county info",NA,NA,NA,"0"
"food-data/Cleaned_data_files//cleaned_growpgh.csv","121","Grow Pittsburgh","GP garden directory_listing-20210322.csv","","Grow PGH Garden","SPIRIT COMMUNITY GARDEN","242 First Street","Pittsburgh","PA",15201,"","community-garden","","",40.47864,-79.956582,"Grow Pittsburgh","","",1,0,1,1,0,0,"0","no date/time;no county info",NA,NA,NA,"0"
"food-data/Cleaned_data_files//cleaned_growpgh.csv","122","Grow Pittsburgh","GP garden directory_listing-20210322.csv","","Grow PGH Garden","NORTHSIDE GOOD FOOD TO THE NEIGHBORHOOD GARDEN","1601 Brighton Road","Pittsburgh","PA",15212,"","community-garden","412-323-1163","",40.458071,-80.016331,"Grow Pittsburgh","","",1,0,1,1,0,0,"0","no date/time;no county info",120,NA,NA,"0"
"food-data/Cleaned_data_files//cleaned_growpgh.csv","123","Grow Pittsburgh","GP garden directory_listing-20210322.csv","","Grow PGH Garden","OAKLAND GARDEN","246 Oakland Avenue","Pittsburgh","PA",15213,"","community-farm;school-garden","","",40.440373,-79.955804,"Grow Pittsburgh","","",1,0,1,1,0,0,"0","no date/time;no county info",NA,NA,NA,"0"
"food-data/Cleaned_data_files//cleaned_growpgh.csv","124","Grow Pittsburgh","GP garden directory_listing-20210322.csv","","Grow PGH Garden","STANTON HEIGHTS COMMUNITY GARDEN @ ALLEGHENY CEMETERY","","Pittsburgh","PA",15224,"","community-garden","","",40.47822,-79.944911,"Grow Pittsburgh","","",1,0,1,1,0,0,"0","no date/time;no county info",NA,NA,NA,"0"
"food-data/Cleaned_data_files//cleaned_growpgh.csv","125","Grow Pittsburgh","GP garden directory_listing-20210322.csv","","Grow PGH Garden","PEOPLE'S GARDEN OF CORAOPOLIS (CORY CAB)","1526 Vance Avenue","Coraopolis","PA",15108,"","other","","",40.511612,-80.157098,"Grow Pittsburgh","","",1,0,1,1,0,0,"0","no date/time;no county info",NA,NA,NA,"0"
"food-data/Cleaned_data_files//cleaned_growpgh.csv","126","Grow Pittsburgh","GP garden directory_listing-20210322.csv","","Grow PGH Garden","TEMPLE EMANUEL SHIM GARDEN","1250 Bower Hill Road","Pittsburgh","PA",15243,"","community-farm","(412) 279-7600","http://www.templeemanuelpgh.org/",40.376254,-80.074621,"Grow Pittsburgh","","",1,0,1,1,0,0,"0","no date/time;no county info",NA,NA,NA,"0"
"food-data/Cleaned_data_files//cleaned_growpgh.csv","127","Grow Pittsburgh","GP garden directory_listing-20210322.csv","","Grow PGH Garden","SWISSVALE COMMUNITY GARDEN","7301 Denniston Avenue","Pittsburgh","PA",15218,"","community-farm","13308811733","http://www.swissvalegarden.com",40.417298,-79.890549,"Grow Pittsburgh","","",1,0,1,1,0,0,"0","no date/time;no county info",NA,NA,NA,"0"
"food-data/Cleaned_data_files//cleaned_growpgh.csv","128","Grow Pittsburgh","GP garden directory_listing-20210322.csv","","Grow PGH Garden","BANDI SCHAUM COMMUNITY GARDEN","84 Barry Street","Pittsburgh","PA",15203,"","community-garden","412-255-8850","",40.422634,-79.970575,"Grow Pittsburgh","","",1,0,1,1,0,0,"0","no date/time;no county info",NA,NA,NA,"0"
"food-data/Cleaned_data_files//cleaned_growpgh.csv","129","Grow Pittsburgh","GP garden directory_listing-20210322.csv","","Grow PGH Garden","ST. LOUISE CMF SHIM GARDEN","320 Mcmurray Road","Upper Saint Clair","PA",15241,"","community-farm","724-350-6671","",40.315844,-80.071719,"Grow Pittsburgh","","",1,0,1,1,0,0,"0","no date/time;no county info",NA,NA,NA,"0"
"food-data/Cleaned_data_files//cleaned_growpgh.csv","130","Grow Pittsburgh","GP garden directory_listing-20210322.csv","","Grow PGH Garden","1 SOUND FARM","1245 Liverpool Street","Pittsburgh","PA",15233,"","community-garden","","",40.455143,-80.024551,"Grow Pittsburgh","","",1,0,1,1,0,0,"0","no date/time;no county info",NA,NA,NA,"0"
"food-data/Cleaned_data_files//cleaned_growpgh.csv","131","Grow Pittsburgh","GP garden directory_listing-20210322.csv","","Grow PGH Garden","PEACE AND FRIENDSHIP FARM","678 Somers Street","Pittsburgh","PA",15219,"","community-farm;community-garden","412 533 3837","http://plcpgh.org/",40.448372,-79.974881,"Grow Pittsburgh","","",1,0,1,1,0,0,"0","no date/time;no county info",129,NA,NA,"0"
"food-data/Cleaned_data_files//cleaned_growpgh.csv","132","Grow Pittsburgh","GP garden directory_listing-20210322.csv","","Grow PGH Garden","THE HOMEWOOD HISTORICAL FARM","7012 Monticello Street","Pittsburgh","PA",15208,"","commercial-urban-farm","412-377-9926","http://bugfpc.com",40.460031,-79.899781,"Grow Pittsburgh","","",1,0,1,1,0,0,"0","no date/time;no county info",NA,NA,NA,"0"
"food-data/Cleaned_data_files//cleaned_growpgh.csv","133","Grow Pittsburgh","GP garden directory_listing-20210322.csv","","Grow PGH Garden","COLLIER KIDS GARDEN","1029 Nike Site Road","Oakdale","PA",15071,"","other","7246930780","http://www.colliertownship.net",40.397379,-80.161188,"Grow Pittsburgh","","",1,0,1,1,0,0,"0","no date/time;no county info",NA,NA,NA,"0"
"food-data/Cleaned_data_files//cleaned_growpgh.csv","134","Grow Pittsburgh","GP garden directory_listing-20210322.csv","","Grow PGH Garden","SALLY & HOWARD LEVIN CLUBHOUSE GARDEN","2625 Beechwood Boulevard","Pittsburgh","PA",15217,"","community-farm","4124221850","http://shlclubhouse.org/",40.427036,-79.916458,"Grow Pittsburgh","","",1,0,1,1,0,0,"0","no date/time;no county info",NA,NA,NA,"0"
"food-data/Cleaned_data_files//cleaned_growpgh.csv","135","Grow Pittsburgh","GP garden directory_listing-20210322.csv","","Grow PGH Garden","FAISON SCHOOL GARDEN","7500 Tioga Street","Pittsburgh","PA",15208,"","school-garden","4125292305","",40.452357,-79.892925,"Grow Pittsburgh","","",1,0,1,1,0,0,"0","no date/time;no county info",NA,NA,NA,"0"
"food-data/Cleaned_data_files//cleaned_growpgh.csv","136","Grow Pittsburgh","GP garden directory_listing-20210322.csv","","Grow PGH Garden","CARNEGIE COMMUNITY DEVELOPMENT CORPORATION COMMUNITY GARDEN","7 West Main Street","Carnegie","PA",15106,"","community-farm","4122795456","http://visitcarnegie.com",40.406337,-80.088384,"Grow Pittsburgh","","",1,0,1,1,0,0,"0","no date/time;no county info",NA,NA,NA,"0"
"food-data/Cleaned_data_files//cleaned_growpgh.csv","137","Grow Pittsburgh","GP garden directory_listing-20210322.csv","","Grow PGH Garden","GEORGE FLOYD COMMUNITY GARDEN","744 South Avenue","Pittsburgh","PA",15221,"","community-farm","14128670992","https://civicarts211.wixsite.com/website-1",40.441219,-79.884064,"Grow Pittsburgh","","",1,0,1,1,0,0,"0","no date/time;no county info",NA,NA,NA,"0"
"food-data/Cleaned_data_files//cleaned_growpgh.csv","138","Grow Pittsburgh","GP garden directory_listing-20210322.csv","","Grow PGH Garden","ALLENDALE ACRES COMMUNITY GARDEN","","Pittsburgh","PA",15204,"","community-garden","5182698388","http://pittsburghurbangardens.com/allendale-acres-community-garden",40.455471,-80.060751,"Grow Pittsburgh","","",1,0,1,1,0,0,"0","no date/time;no county info",NA,NA,NA,"0"
"food-data/Cleaned_data_files//cleaned_growpgh.csv","139","Grow Pittsburgh","GP garden directory_listing-20210322.csv","","Grow PGH Garden","WEST PENN COMMUNITY FARM","","Pittsburgh","PA",15219,"","","(412) 450-0765","http://Instagram @westpenncommunityfarm",40.456539,-79.97014,"Grow Pittsburgh","","",1,0,1,1,0,0,"0","no date/time;no county info",NA,NA,NA,"0"
"food-data/Cleaned_data_files//cleaned_growpgh.csv","140","Grow Pittsburgh","GP garden directory_listing-20210322.csv","","Grow PGH Garden","WESTINGHOUSE LEARNING GARDEN","1101 North Murtland Street","Pittsburgh","PA",15208,"","school-garden","412-529-3940","",40.461539,-79.901728,"Grow Pittsburgh","","",1,0,1,1,0,0,"0","no date/time;no county info",138,NA,NA,"0"
"food-data/Cleaned_data_files//cleaned_growpgh.csv","141","Grow Pittsburgh","GP garden directory_listing-20210322.csv","","Grow PGH Garden","MCCHESNEY FARM","25 Lewin Lane","Pittsburgh","PA",15235,"","community-farm","","",40.43605,-79.844249,"Grow Pittsburgh","","",1,0,1,1,0,0,"0","no date/time;no county info",NA,NA,NA,"0"
"food-data/Cleaned_data_files//cleaned_growpgh.csv","142","Grow Pittsburgh","GP garden directory_listing-20210322.csv","","Grow PGH Garden","YODER-MERAZ BACK YARD","1716 Cecil Street","Sharpsburg","PA",15215,"","other","","",40.495883,-79.922703,"Grow Pittsburgh","","",1,0,1,1,0,0,"0","no date/time;no county info",NA,NA,NA,"0"
"food-data/Cleaned_data_files//cleaned_growpgh.csv","143","Grow Pittsburgh","GP garden directory_listing-20210322.csv","","Grow PGH Garden","ELLWOOD CITY COMMUNITY GARDEN","327 Sims Street","Ellwood City","PA",16117,"","community-garden","724-758-7777","",40.864081,-80.275161,"Grow Pittsburgh","","",1,0,1,1,0,0,"0","no date/time;no county info",NA,NA,NA,"0"
"food-data/Cleaned_data_files//cleaned_growpgh.csv","144","Grow Pittsburgh","GP garden directory_listing-20210322.csv","","Grow PGH Garden","MON VALLEY SCHOOL GARDEN","555 North Lewis Run Road","Jefferson Hills","PA",15025,"","school-garden","412-469-2551","https://www.aiu3.net/site/Default.aspx?PageID=1079",40.32371,-79.938862,"Grow Pittsburgh","","",1,0,1,1,0,0,"0","no date/time;no county info",NA,NA,NA,"0"
"food-data/Cleaned_data_files//cleaned_growpgh.csv","145","Grow Pittsburgh","GP garden directory_listing-20210322.csv","","Grow PGH Garden","STEEL VALLEY GROWS GARDEN","220 East Oliver Road","Munhall","PA",15120,"","school-garden","412-464-3600","",40.389744,-79.898516,"Grow Pittsburgh","","",1,0,1,1,0,0,"0","no date/time;no county info",NA,NA,NA,"0"
"food-data/Cleaned_data_files//cleaned_growpgh.csv","147","Grow Pittsburgh","GP garden directory_listing-20210322.csv","","Grow PGH Garden","STS ISIDORE AND MARIA COMMUNITY GARDEN","310 Kane Boulevard","Pittsburgh","PA",15243,"","community-farm","412-561-6021","",40.373264,-80.085202,"Grow Pittsburgh","","",1,0,1,1,0,0,"0","no date/time;no county info",NA,NA,NA,"0"
"food-data/Cleaned_data_files//cleaned_growpgh.csv","148","Grow Pittsburgh","GP garden directory_listing-20210322.csv","","Grow PGH Garden","BEECHVIEW COMMUNITY GARDEN","1229 Rockland Avenue","Pittsburgh","PA",15216,"","community-garden","","http://www.prettyupbeechview.org/beechview-community-garden/",40.41429,-80.020218,"Grow Pittsburgh","","",1,0,1,1,0,0,"0","no date/time;no county info",NA,NA,NA,"0"
"food-data/Cleaned_data_files//cleaned_PA_SNAP.csv","149","USDA Food and Nutrition Service","https://services1.arcgis.com/RLQu0rK7h4kbsBq5/arcgis/rest/services/Store_Locations/FeatureServer","27","supermarket","BLOOMFIELD GROCERIA","237 Cedarville Street","Pittsburgh","PA",15224,"ALLEGHENY","","","",40.461876,-79.948547,"USDA Food and Nutrition Service","","",1,NA,NA,NA,NA,0,"0","no type;no phone;no date/time info",147,NA,NA,"0"
"food-data/Cleaned_data_files//cleaned_PA_SNAP.csv","150","USDA Food and Nutrition Service","https://services1.arcgis.com/RLQu0rK7h4kbsBq5/arcgis/rest/services/Store_Locations/FeatureServer","313","convenience store","SUNOCO","7701 Penn Avenue","Pittsburgh","PA",15221,"ALLEGHENY","","","",40.446556,-79.89325,"USDA Food and Nutrition Service","","",1,NA,NA,NA,NA,0,"0","no type;no phone;no date/time info",148,NA,NA,"0"
"food-data/Cleaned_data_files//cleaned_PA_SNAP.csv","151","USDA Food and Nutrition Service","https://services1.arcgis.com/RLQu0rK7h4kbsBq5/arcgis/rest/services/Store_Locations/FeatureServer","605","","PIT STOP EXPRESS","4501 Ohio River Boulevard","Pittsburgh","PA",15202,"ALLEGHENY","","","",40.491482,-80.061142,"USDA Food and Nutrition Service","","",1,NA,NA,NA,NA,0,"0","no type;no phone;no date/time info",149,NA,NA,"0"
"food-data/Cleaned_data_files//cleaned_PA_SNAP.csv","152","USDA Food and Nutrition Service","https://services1.arcgis.com/RLQu0rK7h4kbsBq5/arcgis/rest/services/Store_Locations/FeatureServer","766","","RON'S CORNER STORE","7289 Mount Carmel Road","Pittsburgh","PA",15235,"ALLEGHENY","","","",40.470867,-79.88784,"USDA Food and Nutrition Service","","",1,NA,NA,NA,NA,0,"0","no type;no phone;no date/time info",NA,NA,NA,"0"
"food-data/Cleaned_data_files//cleaned_PA_SNAP.csv","153","USDA Food and Nutrition Service","https://services1.arcgis.com/RLQu0rK7h4kbsBq5/arcgis/rest/services/Store_Locations/FeatureServer","773","","MAHROOSH ENTERPRISE INC","319 Ann Street","Mckeesport","PA",15132,"ALLEGHENY","","","",40.350628,-79.875084,"USDA Food and Nutrition Service","","",1,NA,NA,NA,NA,0,"0","no type;no phone;no date/time info",NA,NA,NA,"0"
"food-data/Cleaned_data_files//cleaned_PA_SNAP.csv","154","USDA Food and Nutrition Service","https://services1.arcgis.com/RLQu0rK7h4kbsBq5/arcgis/rest/services/Store_Locations/FeatureServer","1430","","HIGHLAND PARK MARKET","5826 Jackson Street","Pittsburgh","PA",15206,"ALLEGHENY","","","",40.471298,-79.921387,"USDA Food and Nutrition Service","","",1,NA,NA,NA,NA,0,"0","no type;no phone;no date/time info",NA,NA,NA,"0"
"food-data/Cleaned_data_files//cleaned_PA_SNAP.csv","155","USDA Food and Nutrition Service","https://services1.arcgis.com/RLQu0rK7h4kbsBq5/arcgis/rest/services/Store_Locations/FeatureServer","1584","","STRATMORE MARKET","1511 Stratmore Street","Pittsburgh","PA",15205,"ALLEGHENY","","","",40.438206,-80.055969,"USDA Food and Nutrition Service","","",1,NA,NA,NA,NA,0,"0","no type;no phone;no date/time info",NA,NA,NA,"0"
"food-data/Cleaned_data_files//cleaned_PA_SNAP.csv","156","USDA Food and Nutrition Service","https://services1.arcgis.com/RLQu0rK7h4kbsBq5/arcgis/rest/services/Store_Locations/FeatureServer","1892","","JACKS MARKET & BEAUTY SUPPLIES INC","245 E Eighth Avenue","Homestead","PA",15120,"ALLEGHENY","","","",40.408012,-79.90963,"USDA Food and Nutrition Service","","",1,NA,NA,NA,NA,0,"0","no type;no phone;no date/time info",154,NA,NA,"0"
"food-data/Cleaned_data_files//cleaned_PA_SNAP.csv","157","USDA Food and Nutrition Service","https://services1.arcgis.com/RLQu0rK7h4kbsBq5/arcgis/rest/services/Store_Locations/FeatureServer","2714","","SITARAM OIL CORPORATION","2000 S Braddock Avenue","Pittsburgh","PA",15218,"ALLEGHENY","","","",40.421906,-79.885368,"USDA Food and Nutrition Service","","",1,NA,NA,NA,NA,0,"0","no type;no phone;no date/time info",155,NA,NA,"0"
"food-data/Cleaned_data_files//cleaned_PA_SNAP.csv","158","USDA Food and Nutrition Service","https://services1.arcgis.com/RLQu0rK7h4kbsBq5/arcgis/rest/services/Store_Locations/FeatureServer","2859","","BLOOMFIELD BP","4006 Liberty Avenue","Pittsburgh","PA",15224,"ALLEGHENY","","","",40.462864,-79.956894,"USDA Food and Nutrition Service","","",1,NA,NA,NA,NA,0,"0","no type;no phone;no date/time info",NA,NA,NA,"0"
"food-data/Cleaned_data_files//cleaned_PA_SNAP.csv","159","USDA Food and Nutrition Service","https://services1.arcgis.com/RLQu0rK7h4kbsBq5/arcgis/rest/services/Store_Locations/FeatureServer","3634","","NATALIYA EUROPEAN FOOD MARKET INC","4370 Murray Avenue Ste 1","Pittsburgh","PA",15217,"ALLEGHENY","","","",40.41996,-79.928391,"USDA Food and Nutrition Service","","",1,NA,NA,NA,NA,0,"0","no type;no phone;no date/time info",NA,NA,NA,"0"
"food-data/Cleaned_data_files//cleaned_PA_SNAP.csv","160","USDA Food and Nutrition Service","https://services1.arcgis.com/RLQu0rK7h4kbsBq5/arcgis/rest/services/Store_Locations/FeatureServer","3762","convenience store","DOLLAR TREE 6092","713 E Eighth Avenue","Homestead","PA",15120,"ALLEGHENY","","","",40.409012,-79.903984,"USDA Food and Nutrition Service","","",1,NA,NA,NA,NA,0,"0","no type;no phone;no date/time info",158,NA,NA,"0"
"food-data/Cleaned_data_files//cleaned_PA_SNAP.csv","161","USDA Food and Nutrition Service","https://services1.arcgis.com/RLQu0rK7h4kbsBq5/arcgis/rest/services/Store_Locations/FeatureServer","4426","","WAAD MINI MARKET","7006 Frankstown Avenue","Pittsburgh","PA",15208,"ALLEGHENY","","","",40.458382,-79.900787,"USDA Food and Nutrition Service","","",1,NA,NA,NA,NA,0,"0","no type;no phone;no date/time info",4,NA,NA,"0"
"food-data/Cleaned_data_files//cleaned_PA_SNAP.csv","162","USDA Food and Nutrition Service","https://services1.arcgis.com/RLQu0rK7h4kbsBq5/arcgis/rest/services/Store_Locations/FeatureServer","5399","supermarket","LAS PALMAS 2","326 Atwood Street","Pittsburgh","PA",15213,"ALLEGHENY","","","",40.439068,-79.95517,"USDA Food and Nutrition Service","","",1,NA,NA,NA,NA,0,"0","no type;no phone;no date/time info",NA,NA,NA,"0"
"food-data/Cleaned_data_files//cleaned_PA_SNAP.csv","163","USDA Food and Nutrition Service","https://services1.arcgis.com/RLQu0rK7h4kbsBq5/arcgis/rest/services/Store_Locations/FeatureServer","6082","","DONUT CONNECTION","2414 Brownsville Road","Pittsburgh","PA",15210,"ALLEGHENY","","","",40.386833,-79.982285,"USDA Food and Nutrition Service","","",1,NA,NA,NA,NA,0,"0","no type;no phone;no date/time info",161,NA,NA,"0"
"food-data/Cleaned_data_files//cleaned_PA_SNAP.csv","164","USDA Food and Nutrition Service","https://services1.arcgis.com/RLQu0rK7h4kbsBq5/arcgis/rest/services/Store_Locations/FeatureServer","6320","","HAYMAKER VILLAGE SUPERMARKETS","4548 Broadway Boulevard","Monroeville","PA",15146,"ALLEGHENY","","","",40.389145,-79.767189,"USDA Food and Nutrition Service","","",1,NA,NA,NA,NA,0,"0","no type;no phone;no date/time info",NA,NA,NA,"0"
"food-data/Cleaned_data_files//cleaned_PA_SNAP.csv","165","USDA Food and Nutrition Service","https://services1.arcgis.com/RLQu0rK7h4kbsBq5/arcgis/rest/services/Store_Locations/FeatureServer","6444","","CITY NEWS ARCADE","418 Wood Street","Pittsburgh","PA",15222,"ALLEGHENY","","","",40.439873,-80.000946,"USDA Food and Nutrition Service","","",1,NA,NA,NA,NA,0,"0","no type;no phone;no date/time info",163,NA,NA,"0"
"food-data/Cleaned_data_files//cleaned_PA_SNAP.csv","166","USDA Food and Nutrition Service","https://services1.arcgis.com/RLQu0rK7h4kbsBq5/arcgis/rest/services/Store_Locations/FeatureServer","6476","convenience store","SHEETZ 459","2175 Hulton Road","Verona","PA",15147,"ALLEGHENY","","","",40.526405,-79.816048,"USDA Food and Nutrition Service","","",1,NA,NA,NA,NA,0,"0","no type;no phone;no date/time info",NA,NA,NA,"0"
"food-data/Cleaned_data_files//cleaned_PA_SNAP.csv","167","USDA Food and Nutrition Service","https://services1.arcgis.com/RLQu0rK7h4kbsBq5/arcgis/rest/services/Store_Locations/FeatureServer","6518","convenience store","DOLLAR GENERAL 16488","2409 Rte 286","Plum","PA",15239,"ALLEGHENY","","","",40.464756,-79.705376,"USDA Food and Nutrition Service","","",1,NA,NA,NA,NA,0,"0","no type;no phone;no date/time info",NA,NA,NA,"0"
"food-data/Cleaned_data_files//cleaned_PA_SNAP.csv","168","USDA Food and Nutrition Service","https://services1.arcgis.com/RLQu0rK7h4kbsBq5/arcgis/rest/services/Store_Locations/FeatureServer","6587","","KOHLI'S INDIAN IMPORTS 1","319 S Craig Street","Pittsburgh","PA",15213,"ALLEGHENY","","","",40.445095,-79.948479,"USDA Food and Nutrition Service","","",1,NA,NA,NA,NA,0,"0","no type;no phone;no date/time info",NA,NA,NA,"0"
"food-data/Cleaned_data_files//cleaned_PA_SNAP.csv","169","USDA Food and Nutrition Service","https://services1.arcgis.com/RLQu0rK7h4kbsBq5/arcgis/rest/services/Store_Locations/FeatureServer","7775","convenience store","7-ELEVEN STORE #40106A 40106A","195 N Craig Street","Pittsburgh","PA",15213,"ALLEGHENY","","","",40.449333,-79.951042,"USDA Food and Nutrition Service","","",1,NA,NA,NA,NA,0,"0","no type;no phone;no date/time info",NA,NA,NA,"0"
"food-data/Cleaned_data_files//cleaned_PA_SNAP.csv","170","USDA Food and Nutrition Service","https://services1.arcgis.com/RLQu0rK7h4kbsBq5/arcgis/rest/services/Store_Locations/FeatureServer","7782","","WALTMIRE PHARMACY","1435 Spring Garden Avenue","Pittsburgh","PA",15212,"ALLEGHENY","","","",40.462692,-79.98687,"USDA Food and Nutrition Service","","",1,NA,NA,NA,NA,0,"0","no type;no phone;no date/time info",NA,NA,NA,"0"
"food-data/Cleaned_data_files//cleaned_PA_SNAP.csv","171","USDA Food and Nutrition Service","https://services1.arcgis.com/RLQu0rK7h4kbsBq5/arcgis/rest/services/Store_Locations/FeatureServer","8130","","TRIANGLE FOOD MART CORPORATION 1","101 Amanda Avenue","Pittsburgh","PA",15210,"ALLEGHENY","","","",40.414532,-79.988235,"USDA Food and Nutrition Service","","",1,NA,NA,NA,NA,0,"0","no type;no phone;no date/time info",169,NA,NA,"0"
"food-data/Cleaned_data_files//cleaned_PA_SNAP.csv","172","USDA Food and Nutrition Service","https://services1.arcgis.com/RLQu0rK7h4kbsBq5/arcgis/rest/services/Store_Locations/FeatureServer","8228","convenience store","SHEETZ 679","1297 Washington Pike","Bridgeville","PA",15017,"ALLEGHENY","","","",40.37608,-80.098251,"USDA Food and Nutrition Service","","",1,NA,NA,NA,NA,0,"0","no type;no phone;no date/time info",NA,NA,NA,"0"
"food-data/Cleaned_data_files//cleaned_PA_SNAP.csv","173","USDA Food and Nutrition Service","https://services1.arcgis.com/RLQu0rK7h4kbsBq5/arcgis/rest/services/Store_Locations/FeatureServer","8230","","KWIK FILL 239","152 Mcgovern Boulevard","Crescent","PA",15046,"ALLEGHENY","","","",40.563625,-80.227875,"USDA Food and Nutrition Service","","",1,NA,NA,NA,NA,0,"0","no type;no phone;no date/time info",NA,NA,NA,"0"
"food-data/Cleaned_data_files//cleaned_PA_SNAP.csv","174","USDA Food and Nutrition Service","https://services1.arcgis.com/RLQu0rK7h4kbsBq5/arcgis/rest/services/Store_Locations/FeatureServer","8470","convenience store","CVS PHARMACY 4091","7404 Church Street","Swissvale","PA",15218,"ALLEGHENY","","","",40.421921,-79.890182,"USDA Food and Nutrition Service","","",1,NA,NA,NA,NA,0,"0","no type;no phone;no date/time info",172,NA,NA,"0"
"food-data/Cleaned_data_files//cleaned_PA_SNAP.csv","175","USDA Food and Nutrition Service","https://services1.arcgis.com/RLQu0rK7h4kbsBq5/arcgis/rest/services/Store_Locations/FeatureServer","8473","convenience store","CVS PHARMACY 7612","237 Monroeville Avenue","Turtle Creek","PA",15145,"ALLEGHENY","","","",40.405937,-79.823128,"USDA Food and Nutrition Service","","",1,NA,NA,NA,NA,0,"0","no type;no phone;no date/time info",NA,NA,NA,"0"
"food-data/Cleaned_data_files//cleaned_PA_SNAP.csv","176","USDA Food and Nutrition Service","https://services1.arcgis.com/RLQu0rK7h4kbsBq5/arcgis/rest/services/Store_Locations/FeatureServer","8474","convenience store","CVS PHARMACY 4070","10600 Frankstown Road","Pittsburgh","PA",15235,"ALLEGHENY","","","",40.460537,-79.842117,"USDA Food and Nutrition Service","","",1,NA,NA,NA,NA,0,"0","no type;no phone;no date/time info",174,NA,NA,"0"
"food-data/Cleaned_data_files//cleaned_PA_SNAP.csv","177","USDA Food and Nutrition Service","https://services1.arcgis.com/RLQu0rK7h4kbsBq5/arcgis/rest/services/Store_Locations/FeatureServer","8635","convenience store","CVS PHARMACY 2348","3422 Forbes Avenue","Pittsburgh","PA",15213,"ALLEGHENY","","","",40.438953,-79.960526,"USDA Food and Nutrition Service","","",1,NA,NA,NA,NA,0,"0","no type;no phone;no date/time info",NA,NA,NA,"0"
"food-data/Cleaned_data_files//cleaned_PA_SNAP.csv","178","USDA Food and Nutrition Service","https://services1.arcgis.com/RLQu0rK7h4kbsBq5/arcgis/rest/services/Store_Locations/FeatureServer","9105","convenience store","CIO STORES, LLC 11 11","3739 Library Road","Pittsburgh","PA",15234,"ALLEGHENY","","","",40.36451,-80.021362,"USDA Food and Nutrition Service","","",1,NA,NA,NA,NA,0,"0","no type;no phone;no date/time info",NA,NA,NA,"0"
"food-data/Cleaned_data_files//cleaned_PA_SNAP.csv","179","USDA Food and Nutrition Service","https://services1.arcgis.com/RLQu0rK7h4kbsBq5/arcgis/rest/services/Store_Locations/FeatureServer","9126","supermarket","ALDI 90","7350 Saltsburg Road","Penn Hills","PA",15235,"ALLEGHENY","","","",40.477737,-79.785881,"USDA Food and Nutrition Service","","",1,NA,NA,NA,NA,0,"0","no type;no phone;no date/time info",177,NA,NA,"0"
"food-data/Cleaned_data_files//cleaned_PA_SNAP.csv","180","USDA Food and Nutrition Service","https://services1.arcgis.com/RLQu0rK7h4kbsBq5/arcgis/rest/services/Store_Locations/FeatureServer","9285","","ORIENTAL MARKET","4768 Mcknight Road","Pittsburgh","PA",15237,"ALLEGHENY","","","",40.523071,-80.005333,"USDA Food and Nutrition Service","","",1,NA,NA,NA,NA,0,"0","no type;no phone;no date/time info",178,NA,NA,"0"
"food-data/Cleaned_data_files//cleaned_PA_SNAP.csv","181","USDA Food and Nutrition Service","https://services1.arcgis.com/RLQu0rK7h4kbsBq5/arcgis/rest/services/Store_Locations/FeatureServer","9879","","HAIBOUNA MARKET INC/HAIBOUNA MARKET INC","7521 Washington Avenue","Pittsburgh","PA",15218,"ALLEGHENY","","","",40.421143,-79.886414,"USDA Food and Nutrition Service","","",1,NA,NA,NA,NA,0,"0","no type;no phone;no date/time info",179,NA,NA,"0"
"food-data/Cleaned_data_files//cleaned_PA_SNAP.csv","182","USDA Food and Nutrition Service","https://services1.arcgis.com/RLQu0rK7h4kbsBq5/arcgis/rest/services/Store_Locations/FeatureServer","10549","convenience store","DOLLAR GENERAL 19273","3600 Walnut Street","McKeesport","PA",15132,"ALLEGHENY","","","",40.327644,-79.840454,"USDA Food and Nutrition Service","","",1,NA,NA,NA,NA,0,"0","no type;no phone;no date/time info",180,NA,NA,"0"
"food-data/Cleaned_data_files//cleaned_PA_SNAP.csv","184","USDA Food and Nutrition Service","https://services1.arcgis.com/RLQu0rK7h4kbsBq5/arcgis/rest/services/Store_Locations/FeatureServer","11459","convenience store","CROSSROAD SUNOCO NEIGHBOURHOOD MARKET","4600 Homestead Duquesne Road","West Mifflin","PA",15122,"ALLEGHENY","","","",40.376308,-79.894196,"USDA Food and Nutrition Service","","",1,NA,NA,NA,NA,0,"0","no type;no phone;no date/time info",NA,NA,NA,"0"
"food-data/Cleaned_data_files//cleaned_PA_SNAP.csv","185","USDA Food and Nutrition Service","https://services1.arcgis.com/RLQu0rK7h4kbsBq5/arcgis/rest/services/Store_Locations/FeatureServer","11552","supermarket","ALDI 69097 69097","127 E Seventh Avenue","Homestead","PA",15120,"ALLEGHENY","","","",40.407085,-79.911819,"USDA Food and Nutrition Service","","",1,NA,NA,NA,NA,0,"0","no type;no phone;no date/time info",93,NA,NA,"0"
"food-data/Cleaned_data_files//cleaned_PA_SNAP.csv","186","USDA Food and Nutrition Service","https://services1.arcgis.com/RLQu0rK7h4kbsBq5/arcgis/rest/services/Store_Locations/FeatureServer","11963","convenience store","GET GO 3650","4900 Steubenville Pike","Pittsburgh","PA",15205,"ALLEGHENY","","","",40.448792,-80.105774,"USDA Food and Nutrition Service","","",1,NA,NA,NA,NA,0,"0","no type;no phone;no date/time info",NA,NA,NA,"0"
"food-data/Cleaned_data_files//cleaned_PA_SNAP.csv","187","USDA Food and Nutrition Service","https://services1.arcgis.com/RLQu0rK7h4kbsBq5/arcgis/rest/services/Store_Locations/FeatureServer","12023","","SWEET PANDA ASIAN MARKET","114 S Third Street","Pittsburgh","PA",15203,"ALLEGHENY","","","",40.427517,-79.973145,"USDA Food and Nutrition Service","","",1,NA,NA,NA,NA,0,"0","no type;no phone;no date/time info",NA,NA,NA,"0"
"food-data/Cleaned_data_files//cleaned_PA_SNAP.csv","189","USDA Food and Nutrition Service","https://services1.arcgis.com/RLQu0rK7h4kbsBq5/arcgis/rest/services/Store_Locations/FeatureServer","12961","convenience store","UNI MART","2321 Worton Boulevard","West Mifflin","PA",15122,"ALLEGHENY","","","",40.360252,-79.87178,"USDA Food and Nutrition Service","","",1,NA,NA,NA,NA,0,"0","no type;no phone;no date/time info",NA,NA,NA,"0"
"food-data/Cleaned_data_files//cleaned_PA_SNAP.csv","190","USDA Food and Nutrition Service","https://services1.arcgis.com/RLQu0rK7h4kbsBq5/arcgis/rest/services/Store_Locations/FeatureServer","13642","supermarket","TARGET 2757","6231 Penn Avenue","Pittsburgh","PA",15206,"ALLEGHENY","","","",40.460236,-79.92141,"USDA Food and Nutrition Service","","",1,NA,NA,NA,NA,0,"0","no type;no phone;no date/time info",NA,NA,NA,"0"
"food-data/Cleaned_data_files//cleaned_PA_SNAP.csv","191","USDA Food and Nutrition Service","https://services1.arcgis.com/RLQu0rK7h4kbsBq5/arcgis/rest/services/Store_Locations/FeatureServer","13922","supermarket","ALDI 47","239 Clairton Boulevard","West Mifflin","PA",15122,"ALLEGHENY","","","",40.337536,-79.937469,"USDA Food and Nutrition Service","","",1,NA,NA,NA,NA,0,"0","no type;no phone;no date/time info",NA,NA,NA,"0"
"food-data/Cleaned_data_files//cleaned_PA_SNAP.csv","192","USDA Food and Nutrition Service","https://services1.arcgis.com/RLQu0rK7h4kbsBq5/arcgis/rest/services/Store_Locations/FeatureServer","14955","supermarket","GIANT EAGLE 52","132 Ben Avon Heights Road","Pittsburgh","PA",15237,"ALLEGHENY","","","",40.522621,-80.068924,"USDA Food and Nutrition Service","","",1,NA,NA,NA,NA,0,"0","no type;no phone;no date/time info",NA,NA,NA,"0"
"food-data/Cleaned_data_files//cleaned_PA_SNAP.csv","193","USDA Food and Nutrition Service","https://services1.arcgis.com/RLQu0rK7h4kbsBq5/arcgis/rest/services/Store_Locations/FeatureServer","15214","convenience store","SHEETZ 190","2003 Golden Mile Highway","Pittsburgh","PA",15239,"ALLEGHENY","","","",40.45459,-79.71122,"USDA Food and Nutrition Service","","",1,NA,NA,NA,NA,0,"0","no type;no phone;no date/time info",NA,NA,NA,"0"
"food-data/Cleaned_data_files//cleaned_PA_SNAP.csv","194","USDA Food and Nutrition Service","https://services1.arcgis.com/RLQu0rK7h4kbsBq5/arcgis/rest/services/Store_Locations/FeatureServer","15784","convenience store","DOLLAR GENERAL 8740","4500 Broadway Boulevard","Monroeville","PA",15146,"ALLEGHENY","","","",40.3908,-79.767181,"USDA Food and Nutrition Service","","",1,NA,NA,NA,NA,0,"0","no type;no phone;no date/time info",NA,NA,NA,"0"
"food-data/Cleaned_data_files//cleaned_PA_SNAP.csv","195","USDA Food and Nutrition Service","https://services1.arcgis.com/RLQu0rK7h4kbsBq5/arcgis/rest/services/Store_Locations/FeatureServer","16183","supermarket","VERONA GIANT EAGLE","200 Allegheny River Boulevard","Verona","PA",15147,"ALLEGHENY","","","",40.500896,-79.843269,"USDA Food and Nutrition Service","","",1,NA,NA,NA,NA,0,"0","no type;no phone;no date/time info",193,NA,NA,"0"
"food-data/Cleaned_data_files//cleaned_PA_SNAP.csv","196","USDA Food and Nutrition Service","https://services1.arcgis.com/RLQu0rK7h4kbsBq5/arcgis/rest/services/Store_Locations/FeatureServer","16386","convenience store","RITE AID 10935","331 Penn Avenue","Wilkinsburg","PA",15221,"ALLEGHENY","","","",40.445736,-79.890709,"USDA Food and Nutrition Service","","",1,NA,NA,NA,NA,0,"0","no type;no phone;no date/time info",NA,NA,NA,"0"
"food-data/Cleaned_data_files//cleaned_PA_SNAP.csv","197","USDA Food and Nutrition Service","https://services1.arcgis.com/RLQu0rK7h4kbsBq5/arcgis/rest/services/Store_Locations/FeatureServer","16698","convenience store","SHEETZ 189","1505 Pittsburgh Street","Cheswick","PA",15024,"ALLEGHENY","","","",40.541519,-79.79892,"USDA Food and Nutrition Service","","",1,NA,NA,NA,NA,0,"0","no type;no phone;no date/time info",NA,NA,NA,"0"
"food-data/Cleaned_data_files//cleaned_PA_SNAP.csv","198","USDA Food and Nutrition Service","https://services1.arcgis.com/RLQu0rK7h4kbsBq5/arcgis/rest/services/Store_Locations/FeatureServer","17163","convenience store","SPEEDWAY 2909","6999 Clairton Road","West Mifflin","PA",15122,"ALLEGHENY","","","",40.345139,-79.938957,"USDA Food and Nutrition Service","","",1,NA,NA,NA,NA,0,"0","no type;no phone;no date/time info",196,NA,NA,"0"
"food-data/Cleaned_data_files//cleaned_PA_SNAP.csv","199","USDA Food and Nutrition Service","https://services1.arcgis.com/RLQu0rK7h4kbsBq5/arcgis/rest/services/Store_Locations/FeatureServer","17187","","EXXON","1405 N State Street","Clairton","PA",15025,"ALLEGHENY","","","",40.317894,-79.898903,"USDA Food and Nutrition Service","","",1,NA,NA,NA,NA,0,"0","no type;no phone;no date/time info",NA,NA,NA,"0"
"food-data/Cleaned_data_files//cleaned_PA_SNAP.csv","200","USDA Food and Nutrition Service","https://services1.arcgis.com/RLQu0rK7h4kbsBq5/arcgis/rest/services/Store_Locations/FeatureServer","17264","supermarket","GIANT EAGLE 91","318 Cedar Avenue","Pittsburgh","PA",15212,"ALLEGHENY","","","",40.45145,-80.001038,"USDA Food and Nutrition Service","","",1,NA,NA,NA,NA,0,"0","no type;no phone;no date/time info",198,NA,NA,"0"
"food-data/Cleaned_data_files//cleaned_PA_SNAP.csv","201","USDA Food and Nutrition Service","https://services1.arcgis.com/RLQu0rK7h4kbsBq5/arcgis/rest/services/Store_Locations/FeatureServer","17393","","BETTS MARKET","819 Brushton Avenue","Pittsburgh","PA",15208,"ALLEGHENY","","","",40.455303,-79.888222,"USDA Food and Nutrition Service","","",1,NA,NA,NA,NA,0,"0","no type;no phone;no date/time info",NA,NA,NA,"0"
"food-data/Cleaned_data_files//cleaned_PA_SNAP.csv","202","USDA Food and Nutrition Service","https://services1.arcgis.com/RLQu0rK7h4kbsBq5/arcgis/rest/services/Store_Locations/FeatureServer","17475","supermarket","ALDI 77","11800 Perry Highway","Wexford","PA",15090,"ALLEGHENY","","","",40.627735,-80.055565,"USDA Food and Nutrition Service","","",1,NA,NA,NA,NA,0,"0","no type;no phone;no date/time info",NA,NA,NA,"0"
"food-data/Cleaned_data_files//cleaned_PA_SNAP.csv","203","USDA Food and Nutrition Service","https://services1.arcgis.com/RLQu0rK7h4kbsBq5/arcgis/rest/services/Store_Locations/FeatureServer","17540","convenience store","DOLLAR GENERAL 14985","5800 Buttermilk Hollow Road","Pittsburgh","PA",15207,"ALLEGHENY","","","",40.365013,-79.908501,"USDA Food and Nutrition Service","","",1,NA,NA,NA,NA,0,"0","no type;no phone;no date/time info",NA,NA,NA,"0"
"food-data/Cleaned_data_files//cleaned_PA_SNAP.csv","204","USDA Food and Nutrition Service","https://services1.arcgis.com/RLQu0rK7h4kbsBq5/arcgis/rest/services/Store_Locations/FeatureServer","17624","","TIGER MART","5700 Homeville Road","West Mifflin","PA",15122,"ALLEGHENY","","","",40.367657,-79.871895,"USDA Food and Nutrition Service","","",1,NA,NA,NA,NA,0,"0","no type;no phone;no date/time info",NA,NA,NA,"0"
"food-data/Cleaned_data_files//cleaned_PA_SNAP.csv","205","USDA Food and Nutrition Service","https://services1.arcgis.com/RLQu0rK7h4kbsBq5/arcgis/rest/services/Store_Locations/FeatureServer","18251","","THE ELLIOTTS TOWN MARKET","928 Chartiers Avenue","Pittsburgh","PA",15220,"ALLEGHENY","","","",40.443832,-80.040421,"USDA Food and Nutrition Service","","",1,NA,NA,NA,NA,0,"0","no type;no phone;no date/time info",NA,NA,NA,"0"
"food-data/Cleaned_data_files//cleaned_PA_SNAP.csv","206","USDA Food and Nutrition Service","https://services1.arcgis.com/RLQu0rK7h4kbsBq5/arcgis/rest/services/Store_Locations/FeatureServer","18375","convenience store","BELTZHOOVER MINI MART","216 Beltzhoover Avenue","Pittsburgh","PA",15210,"ALLEGHENY","","","",40.420097,-79.99762,"USDA Food and Nutrition Service","","",1,NA,NA,NA,NA,0,"0","no type;no phone;no date/time info",NA,NA,NA,"0"
"food-data/Cleaned_data_files//cleaned_PA_SNAP.csv","207","USDA Food and Nutrition Service","https://services1.arcgis.com/RLQu0rK7h4kbsBq5/arcgis/rest/services/Store_Locations/FeatureServer","18562","convenience store","CIRCLE K 4235","200 Market Place Drive","Imperial","PA",15126,"ALLEGHENY","","","",40.484314,-80.351875,"USDA Food and Nutrition Service","","",1,NA,NA,NA,NA,0,"0","no type;no phone;no date/time info",NA,NA,NA,"0"
"food-data/Cleaned_data_files//cleaned_PA_SNAP.csv","208","USDA Food and Nutrition Service","https://services1.arcgis.com/RLQu0rK7h4kbsBq5/arcgis/rest/services/Store_Locations/FeatureServer","18977","supermarket","HIMALAYAN ASIAN GROCERY LLC","2122 Brownsville Road Ste 1","Pittsburgh","PA",15210,"ALLEGHENY","","","",40.392368,-79.986649,"USDA Food and Nutrition Service","","",1,NA,NA,NA,NA,0,"0","no type;no phone;no date/time info",206,NA,NA,"0"
"food-data/Cleaned_data_files//cleaned_PA_SNAP.csv","209","USDA Food and Nutrition Service","https://services1.arcgis.com/RLQu0rK7h4kbsBq5/arcgis/rest/services/Store_Locations/FeatureServer","19070","","BFS FOODS 64","3984 Monroeville Boulevard","Monroeville","PA",15146,"ALLEGHENY","","","",40.436333,-79.772949,"USDA Food and Nutrition Service","","",1,NA,NA,NA,NA,0,"0","no type;no phone;no date/time info",207,NA,NA,"0"
"food-data/Cleaned_data_files//cleaned_PA_SNAP.csv","210","USDA Food and Nutrition Service","https://services1.arcgis.com/RLQu0rK7h4kbsBq5/arcgis/rest/services/Store_Locations/FeatureServer","19327","convenience store","7- ELEVEN 170 F 170","429 Wood Street","Pittsburgh","PA",15222,"ALLEGHENY","","","",40.440178,-80.000771,"USDA Food and Nutrition Service","","",1,NA,NA,NA,NA,0,"0","no type;no phone;no date/time info",163,NA,NA,"0"
"food-data/Cleaned_data_files//cleaned_PA_SNAP.csv","211","USDA Food and Nutrition Service","https://services1.arcgis.com/RLQu0rK7h4kbsBq5/arcgis/rest/services/Store_Locations/FeatureServer","19480","","EDNA S MARKET & DELI","529 Mount Pleasant Road","Pittsburgh","PA",15214,"ALLEGHENY","","","",40.477821,-80.000206,"USDA Food and Nutrition Service","","",1,NA,NA,NA,NA,0,"0","no type;no phone;no date/time info",209,NA,NA,"0"
"food-data/Cleaned_data_files//cleaned_PA_SNAP.csv","212","USDA Food and Nutrition Service","https://services1.arcgis.com/RLQu0rK7h4kbsBq5/arcgis/rest/services/Store_Locations/FeatureServer","19547","convenience store","CIO STORES, LLC 14 14","1909 Painters Run Road","Pittsburgh","PA",15241,"ALLEGHENY","","","",40.362808,-80.083366,"USDA Food and Nutrition Service","","",1,NA,NA,NA,NA,0,"0","no type;no phone;no date/time info",NA,NA,NA,"0"
"food-data/Cleaned_data_files//cleaned_PA_SNAP.csv","213","USDA Food and Nutrition Service","https://services1.arcgis.com/RLQu0rK7h4kbsBq5/arcgis/rest/services/Store_Locations/FeatureServer","20197","","JOS COFFEE SHOP","3100 Versailles Avenue","McKeesport","PA",15131,"ALLEGHENY","","","",40.345139,-79.84082,"USDA Food and Nutrition Service","","",1,NA,NA,NA,NA,0,"0","no type;no phone;no date/time info",NA,NA,NA,"0"
"food-data/Cleaned_data_files//cleaned_PA_SNAP.csv","214","USDA Food and Nutrition Service","https://services1.arcgis.com/RLQu0rK7h4kbsBq5/arcgis/rest/services/Store_Locations/FeatureServer","20660","supermarket","GIANT EAGLE 68","5990 University Boulevard","Coraopolis","PA",15108,"ALLEGHENY","","","",40.519936,-80.217804,"USDA Food and Nutrition Service","","",1,NA,NA,NA,NA,0,"0","no type;no phone;no date/time info",212,NA,NA,"0"
"food-data/Cleaned_data_files//cleaned_PA_SNAP.csv","215","USDA Food and Nutrition Service","https://services1.arcgis.com/RLQu0rK7h4kbsBq5/arcgis/rest/services/Store_Locations/FeatureServer","20814","convenience store","7-ELEVEN STORE 36189A","6250 Library Road","Bethel Park","PA",15102,"ALLEGHENY","","","",40.293461,-80.031151,"USDA Food and Nutrition Service","","",1,NA,NA,NA,NA,0,"0","no type;no phone;no date/time info",NA,NA,NA,"0"
"food-data/Cleaned_data_files//cleaned_PA_SNAP.csv","216","USDA Food and Nutrition Service","https://services1.arcgis.com/RLQu0rK7h4kbsBq5/arcgis/rest/services/Store_Locations/FeatureServer","20901","convenience store","CIO STORES, LLC 15 15","2305 O'neil Boulevard","Mckeesport","PA",15132,"ALLEGHENY","","","",40.353027,-79.825424,"USDA Food and Nutrition Service","","",1,NA,NA,NA,NA,0,"0","no type;no phone;no date/time info",214,NA,NA,"0"
"food-data/Cleaned_data_files//cleaned_PA_SNAP.csv","217","USDA Food and Nutrition Service","https://services1.arcgis.com/RLQu0rK7h4kbsBq5/arcgis/rest/services/Store_Locations/FeatureServer","21251","supermarket","GROCERIA MERANTE","3454 Bates Street","Pittsburgh","PA",15213,"ALLEGHENY","","","",40.436619,-79.955414,"USDA Food and Nutrition Service","","",1,NA,NA,NA,NA,0,"0","no type;no phone;no date/time info",NA,NA,NA,"0"
"food-data/Cleaned_data_files//cleaned_PA_SNAP.csv","218","USDA Food and Nutrition Service","https://services1.arcgis.com/RLQu0rK7h4kbsBq5/arcgis/rest/services/Store_Locations/FeatureServer","21427","","BROOKLYN FOODMART CORPORATION","1500 Lincoln Avenue","Pittsburgh","PA",15206,"ALLEGHENY","","","",40.468678,-79.895844,"USDA Food and Nutrition Service","","",1,NA,NA,NA,NA,0,"0","no type;no phone;no date/time info",216,NA,NA,"0"
"food-data/Cleaned_data_files//cleaned_PA_SNAP.csv","219","USDA Food and Nutrition Service","https://services1.arcgis.com/RLQu0rK7h4kbsBq5/arcgis/rest/services/Store_Locations/FeatureServer","21692","","FISHES AND LOAVES COOPERATIVE MINISTRIES","131 E Elizabeth Street","Pittsburgh","PA",15207,"ALLEGHENY","","","",40.407532,-79.941986,"USDA Food and Nutrition Service","","",1,NA,NA,NA,NA,0,"0","no type;no phone;no date/time info",NA,NA,NA,"0"
"food-data/Cleaned_data_files//cleaned_PA_SNAP.csv","220","USDA Food and Nutrition Service","https://services1.arcgis.com/RLQu0rK7h4kbsBq5/arcgis/rest/services/Store_Locations/FeatureServer","22492","","KING MARKET OF PITTSBURGH","1150 Brownsville Road","Pittsburgh","PA",15210,"ALLEGHENY","","","",40.403946,-79.990395,"USDA Food and Nutrition Service","","",1,NA,NA,NA,NA,0,"0","no type;no phone;no date/time info",218,NA,NA,"0"
"food-data/Cleaned_data_files//cleaned_PA_SNAP.csv","221","USDA Food and Nutrition Service","https://services1.arcgis.com/RLQu0rK7h4kbsBq5/arcgis/rest/services/Store_Locations/FeatureServer","22530","convenience store","RITE AID 10928","623 E Ohio Street","Pittsburgh","PA",15212,"ALLEGHENY","","","",40.453762,-79.998924,"USDA Food and Nutrition Service","","",1,NA,NA,NA,NA,0,"0","no type;no phone;no date/time info",219,NA,NA,"0"
"food-data/Cleaned_data_files//cleaned_PA_SNAP.csv","223","USDA Food and Nutrition Service","https://services1.arcgis.com/RLQu0rK7h4kbsBq5/arcgis/rest/services/Store_Locations/FeatureServer","23271","convenience store","7-ELEVEN STORE #40135A 40135A","339 Cochran Road","Pittsburgh","PA",15228,"ALLEGHENY","","","",40.382584,-80.05278,"USDA Food and Nutrition Service","","",1,NA,NA,NA,NA,0,"0","no type;no phone;no date/time info",221,NA,NA,"0"
"food-data/Cleaned_data_files//cleaned_PA_SNAP.csv","224","USDA Food and Nutrition Service","https://services1.arcgis.com/RLQu0rK7h4kbsBq5/arcgis/rest/services/Store_Locations/FeatureServer","23749","convenience store","7-ELEVEN STORE 36138","740 W Ingomar Road","Pittsburgh","PA",15237,"ALLEGHENY","","","",40.581692,-80.055992,"USDA Food and Nutrition Service","","",1,NA,NA,NA,NA,0,"0","no type;no phone;no date/time info",222,NA,NA,"0"
"food-data/Cleaned_data_files//cleaned_PA_SNAP.csv","225","USDA Food and Nutrition Service","https://services1.arcgis.com/RLQu0rK7h4kbsBq5/arcgis/rest/services/Store_Locations/FeatureServer","24460","convenience store","DOLLAR TREE 4790","1701 Duncan Avenue Ste 10","Allison Park","PA",15101,"ALLEGHENY","","","",40.566422,-79.998596,"USDA Food and Nutrition Service","","",1,NA,NA,NA,NA,0,"0","no type;no phone;no date/time info",223,NA,NA,"0"
"food-data/Cleaned_data_files//cleaned_PA_SNAP.csv","226","USDA Food and Nutrition Service","https://services1.arcgis.com/RLQu0rK7h4kbsBq5/arcgis/rest/services/Store_Locations/FeatureServer","25864","","R-N-D MARKET","601 Lowell Street","Pittsburgh","PA",15206,"ALLEGHENY","","","",40.463612,-79.909187,"USDA Food and Nutrition Service","","",1,NA,NA,NA,NA,0,"0","no type;no phone;no date/time info",NA,NA,NA,"0"
"food-data/Cleaned_data_files//cleaned_PA_SNAP.csv","227","USDA Food and Nutrition Service","https://services1.arcgis.com/RLQu0rK7h4kbsBq5/arcgis/rest/services/Store_Locations/FeatureServer","26221","convenience store","7-ELEVEN STORE 36159A","1350 Wildwood Road","Gibsonia","PA",15044,"ALLEGHENY","","","",40.594669,-79.994194,"USDA Food and Nutrition Service","","",1,NA,NA,NA,NA,0,"0","no type;no phone;no date/time info",NA,NA,NA,"0"
"food-data/Cleaned_data_files//cleaned_PA_SNAP.csv","228","USDA Food and Nutrition Service","https://services1.arcgis.com/RLQu0rK7h4kbsBq5/arcgis/rest/services/Store_Locations/FeatureServer","26363","","PRODUCE PLUS MARKET & DELI","471 Lincoln Avenue","Bellevue","PA",15202,"ALLEGHENY","","","",40.495117,-80.054787,"USDA Food and Nutrition Service","","",1,NA,NA,NA,NA,0,"0","no type;no phone;no date/time info",226,NA,NA,"0"
"food-data/Cleaned_data_files//cleaned_PA_SNAP.csv","229","USDA Food and Nutrition Service","https://services1.arcgis.com/RLQu0rK7h4kbsBq5/arcgis/rest/services/Store_Locations/FeatureServer","26624","supermarket","TRADER JOES 630","1600 Washington Road Ste 1","Pittsburgh","PA",15228,"ALLEGHENY","","","",40.354389,-80.050247,"USDA Food and Nutrition Service","","",1,NA,NA,NA,NA,0,"0","no type;no phone;no date/time info",227,NA,NA,"0"
"food-data/Cleaned_data_files//cleaned_PA_SNAP.csv","230","USDA Food and Nutrition Service","https://services1.arcgis.com/RLQu0rK7h4kbsBq5/arcgis/rest/services/Store_Locations/FeatureServer","26846","convenience store","SHEETZ 468","3457 William Penn Highway","Pittsburgh","PA",15235,"ALLEGHENY","","","",40.429951,-79.810387,"USDA Food and Nutrition Service","","",1,NA,NA,NA,NA,0,"0","no type;no phone;no date/time info",NA,NA,NA,"0"
"food-data/Cleaned_data_files//cleaned_PA_SNAP.csv","231","USDA Food and Nutrition Service","https://services1.arcgis.com/RLQu0rK7h4kbsBq5/arcgis/rest/services/Store_Locations/FeatureServer","27022","","PODMILSAKS MARKET LLC","200 Herron Avenue","Cheswick","PA",15024,"ALLEGHENY","","","",40.542793,-79.815094,"USDA Food and Nutrition Service","","",1,NA,NA,NA,NA,0,"0","no type;no phone;no date/time info",NA,NA,NA,"0"
"food-data/Cleaned_data_files//cleaned_PA_SNAP.csv","232","USDA Food and Nutrition Service","https://services1.arcgis.com/RLQu0rK7h4kbsBq5/arcgis/rest/services/Store_Locations/FeatureServer","27106","convenience store","GETGO 3280","1700 William Flynn Highway","Glenshaw","PA",15116,"ALLEGHENY","","","",40.538803,-79.962486,"USDA Food and Nutrition Service","","",1,NA,NA,NA,NA,0,"0","no type;no phone;no date/time info",230,NA,NA,"0"
"food-data/Cleaned_data_files//cleaned_PA_SNAP.csv","233","USDA Food and Nutrition Service","https://services1.arcgis.com/RLQu0rK7h4kbsBq5/arcgis/rest/services/Store_Locations/FeatureServer","28135","convenience store","RITE AID 10922","200 Crafton Ingram Shp Ctr","Pittsburgh","PA",15205,"ALLEGHENY","","","",40.440399,-80.069771,"USDA Food and Nutrition Service","","",1,NA,NA,NA,NA,0,"0","no type;no phone;no date/time info",NA,NA,NA,"0"
"food-data/Cleaned_data_files//cleaned_PA_SNAP.csv","234","USDA Food and Nutrition Service","https://services1.arcgis.com/RLQu0rK7h4kbsBq5/arcgis/rest/services/Store_Locations/FeatureServer","28137","convenience store","RITE AID 10946","6200 Saltsburg Road","Pittsburgh","PA",15235,"ALLEGHENY","","","",40.484924,-79.817528,"USDA Food and Nutrition Service","","",1,NA,NA,NA,NA,0,"0","no type;no phone;no date/time info",232,NA,NA,"0"
"food-data/Cleaned_data_files//cleaned_PA_SNAP.csv","235","USDA Food and Nutrition Service","https://services1.arcgis.com/RLQu0rK7h4kbsBq5/arcgis/rest/services/Store_Locations/FeatureServer","28361","convenience store","RITE AID 10921","1915 E Carson Street","Pittsburgh","PA",15203,"ALLEGHENY","","","",40.428665,-79.978363,"USDA Food and Nutrition Service","","",1,NA,NA,NA,NA,0,"0","no type;no phone;no date/time info",NA,NA,NA,"0"
"food-data/Cleaned_data_files//cleaned_PA_SNAP.csv","236","USDA Food and Nutrition Service","https://services1.arcgis.com/RLQu0rK7h4kbsBq5/arcgis/rest/services/Store_Locations/FeatureServer","28363","convenience store","RITE AID 10920","535 Lincoln Avenue","Bellevue","PA",15202,"ALLEGHENY","","","",40.496342,-80.057281,"USDA Food and Nutrition Service","","",1,NA,NA,NA,NA,0,"0","no type;no phone;no date/time info",234,NA,NA,"0"
"food-data/Cleaned_data_files//cleaned_PA_SNAP.csv","237","USDA Food and Nutrition Service","https://services1.arcgis.com/RLQu0rK7h4kbsBq5/arcgis/rest/services/Store_Locations/FeatureServer","28453","convenience store","RITE AID 10943","2501 Saw Mill Run Boulevard","Pittsburgh","PA",15234,"ALLEGHENY","","","",40.382004,-79.995781,"USDA Food and Nutrition Service","","",1,NA,NA,NA,NA,0,"0","no type;no phone;no date/time info",NA,NA,NA,"0"
"food-data/Cleaned_data_files//cleaned_PA_SNAP.csv","238","USDA Food and Nutrition Service","https://services1.arcgis.com/RLQu0rK7h4kbsBq5/arcgis/rest/services/Store_Locations/FeatureServer","28522","convenience store","SHEETZ 327","2100 Mosside Boulevard","Monroeville","PA",15146,"ALLEGHENY","","","",40.398006,-79.768784,"USDA Food and Nutrition Service","","",1,NA,NA,NA,NA,0,"0","no type;no phone;no date/time info",NA,NA,NA,"0"
"food-data/Cleaned_data_files//cleaned_PA_SNAP.csv","239","USDA Food and Nutrition Service","https://services1.arcgis.com/RLQu0rK7h4kbsBq5/arcgis/rest/services/Store_Locations/FeatureServer","28687","convenience store","5TH AVENUE SMOKE SHOP","262 Fifth Avenue","Pittsburgh","PA",15222,"ALLEGHENY","","","",40.44088,-80.000992,"USDA Food and Nutrition Service","","",1,NA,NA,NA,NA,0,"0","no type;no phone;no date/time info",163,NA,NA,"0"
"food-data/Cleaned_data_files//cleaned_PA_SNAP.csv","240","USDA Food and Nutrition Service","https://services1.arcgis.com/RLQu0rK7h4kbsBq5/arcgis/rest/services/Store_Locations/FeatureServer","28733","","PUFF MART OF PITTSBURGH INC","798 Penn Avenue","Pittsburgh","PA",15221,"ALLEGHENY","","","",40.442608,-79.882164,"USDA Food and Nutrition Service","","",1,NA,NA,NA,NA,0,"0","no type;no phone;no date/time info",NA,NA,NA,"0"
"food-data/Cleaned_data_files//cleaned_PA_SNAP.csv","241","USDA Food and Nutrition Service","https://services1.arcgis.com/RLQu0rK7h4kbsBq5/arcgis/rest/services/Store_Locations/FeatureServer","29148","","MEGA DELI","995 Greensburg Pike","East Pittsburgh","PA",15112,"ALLEGHENY","","","",40.416763,-79.839432,"USDA Food and Nutrition Service","","",1,NA,NA,NA,NA,0,"0","no type;no phone;no date/time info",239,NA,NA,"0"
"food-data/Cleaned_data_files//cleaned_PA_SNAP.csv","242","USDA Food and Nutrition Service","https://services1.arcgis.com/RLQu0rK7h4kbsBq5/arcgis/rest/services/Store_Locations/FeatureServer","30367","convenience store","SHEETZ 476","3025 Babcock Boulevard","Pittsburgh","PA",15237,"ALLEGHENY","","","",40.515194,-80.008842,"USDA Food and Nutrition Service","","",1,NA,NA,NA,NA,0,"0","no type;no phone;no date/time info",NA,NA,NA,"0"
"food-data/Cleaned_data_files//cleaned_PA_SNAP.csv","243","USDA Food and Nutrition Service","https://services1.arcgis.com/RLQu0rK7h4kbsBq5/arcgis/rest/services/Store_Locations/FeatureServer","31294","supermarket","PLEASANT HILLS SHOP N SAVE","649 Old Clairton Road","Pittsburgh","PA",15236,"ALLEGHENY","","","",40.324081,-79.957176,"USDA Food and Nutrition Service","","",1,NA,NA,NA,NA,0,"0","no type;no phone;no date/time info",NA,NA,NA,"0"
"food-data/Cleaned_data_files//cleaned_PA_SNAP.csv","244","USDA Food and Nutrition Service","https://services1.arcgis.com/RLQu0rK7h4kbsBq5/arcgis/rest/services/Store_Locations/FeatureServer","31675","convenience store","SHEETZ 678","973 William Flynn Highway","Glenshaw","PA",15116,"ALLEGHENY","","","",40.513885,-79.952347,"USDA Food and Nutrition Service","","",1,NA,NA,NA,NA,0,"0","no type;no phone;no date/time info",NA,NA,NA,"0"
"food-data/Cleaned_data_files//cleaned_PA_SNAP.csv","245","USDA Food and Nutrition Service","https://services1.arcgis.com/RLQu0rK7h4kbsBq5/arcgis/rest/services/Store_Locations/FeatureServer","31947","","NEWS CORNER STORE","A15 Monroeville Mall","Monroeville","PA",15146,"ALLEGHENY","","","",40.43055,-79.79483,"USDA Food and Nutrition Service","","",1,NA,NA,NA,NA,0,"0","no type;no phone;no date/time info",NA,NA,NA,"0"
"food-data/Cleaned_data_files//cleaned_PA_SNAP.csv","246","USDA Food and Nutrition Service","https://services1.arcgis.com/RLQu0rK7h4kbsBq5/arcgis/rest/services/Store_Locations/FeatureServer","31991","","4TH E WOOD MARKET","245 Fourth Avenue","Pittsburgh","PA",15222,"ALLEGHENY","","","",40.439518,-80.001625,"USDA Food and Nutrition Service","","",1,NA,NA,NA,NA,0,"0","no type;no phone;no date/time info",163,NA,NA,"0"
"food-data/Cleaned_data_files//cleaned_PA_SNAP.csv","248","USDA Food and Nutrition Service","https://services1.arcgis.com/RLQu0rK7h4kbsBq5/arcgis/rest/services/Store_Locations/FeatureServer","32886","convenience store","ONE STOP MINI MART","751 E Warrington Avenue","Pittsburgh","PA",15210,"ALLEGHENY","","","",40.421852,-79.994423,"USDA Food and Nutrition Service","","",1,NA,NA,NA,NA,0,"0","no type;no phone;no date/time info",9,NA,NA,"0"
"food-data/Cleaned_data_files//cleaned_PA_SNAP.csv","249","USDA Food and Nutrition Service","https://services1.arcgis.com/RLQu0rK7h4kbsBq5/arcgis/rest/services/Store_Locations/FeatureServer","34059","convenience store","CVS PHARMACY 4008","242 Fifth Avenue","Pittsburgh","PA",15222,"ALLEGHENY","","","",40.440914,-80.000961,"USDA Food and Nutrition Service","","",1,NA,NA,NA,NA,0,"0","no type;no phone;no date/time info",NA,NA,NA,"0"
"food-data/Cleaned_data_files//cleaned_PA_SNAP.csv","250","USDA Food and Nutrition Service","https://services1.arcgis.com/RLQu0rK7h4kbsBq5/arcgis/rest/services/Store_Locations/FeatureServer","34060","convenience store","CVS PHARMACY 4085","6100 Penn Avenue","Pittsburgh","PA",15206,"ALLEGHENY","","","",40.461014,-79.923668,"USDA Food and Nutrition Service","","",1,NA,NA,NA,NA,0,"0","no type;no phone;no date/time info",248,NA,NA,"0"
"food-data/Cleaned_data_files//cleaned_PA_SNAP.csv","251","USDA Food and Nutrition Service","https://services1.arcgis.com/RLQu0rK7h4kbsBq5/arcgis/rest/services/Store_Locations/FeatureServer","34061","convenience store","CVS PHARMACY 4133","520 Penn Avenue","Wilkinsburg","PA",15221,"ALLEGHENY","","","",40.444298,-79.886826,"USDA Food and Nutrition Service","","",1,NA,NA,NA,NA,0,"0","no type;no phone;no date/time info",NA,NA,NA,"0"
"food-data/Cleaned_data_files//cleaned_PA_SNAP.csv","252","USDA Food and Nutrition Service","https://services1.arcgis.com/RLQu0rK7h4kbsBq5/arcgis/rest/services/Store_Locations/FeatureServer","34824","convenience store","RITE AID 10936","519 Penn Avenue","Pittsburgh","PA",15222,"ALLEGHENY","","","",40.442417,-80.003326,"USDA Food and Nutrition Service","","",1,NA,NA,NA,NA,0,"0","no type;no phone;no date/time info",NA,NA,NA,"0"
"food-data/Cleaned_data_files//cleaned_PA_SNAP.csv","253","USDA Food and Nutrition Service","https://services1.arcgis.com/RLQu0rK7h4kbsBq5/arcgis/rest/services/Store_Locations/FeatureServer","34828","convenience store","RITE AID 10910","4927 Homeville Road","West Mifflin","PA",15122,"ALLEGHENY","","","",40.381924,-79.87751,"USDA Food and Nutrition Service","","",1,NA,NA,NA,NA,0,"0","no type;no phone;no date/time info",NA,NA,NA,"0"
"food-data/Cleaned_data_files//cleaned_PA_SNAP.csv","254","USDA Food and Nutrition Service","https://services1.arcgis.com/RLQu0rK7h4kbsBq5/arcgis/rest/services/Store_Locations/FeatureServer","34902","supermarket","ROJELS FOODS LLC/ BETHEL PARK SHOP N SAVE","5001 Library Road","Bethel Park","PA",15102,"ALLEGHENY","","","",40.342155,-80.025978,"USDA Food and Nutrition Service","","",1,NA,NA,NA,NA,0,"0","no type;no phone;no date/time info",252,NA,NA,"0"
"food-data/Cleaned_data_files//cleaned_PA_SNAP.csv","255","USDA Food and Nutrition Service","https://services1.arcgis.com/RLQu0rK7h4kbsBq5/arcgis/rest/services/Store_Locations/FeatureServer","34967","supermarket","PENN HILLS SHOP N SAVE","2820 Main Street","Pittsburgh","PA",15235,"ALLEGHENY","","","",40.475769,-79.78627,"USDA Food and Nutrition Service","","",1,NA,NA,NA,NA,0,"0","no type;no phone;no date/time info",NA,NA,NA,"0"
"food-data/Cleaned_data_files//cleaned_PA_SNAP.csv","256","USDA Food and Nutrition Service","https://services1.arcgis.com/RLQu0rK7h4kbsBq5/arcgis/rest/services/Store_Locations/FeatureServer","35193","convenience store","RITE AID 10926","1222 Brownsville Road","Pittsburgh","PA",15210,"ALLEGHENY","","","",40.403358,-79.989929,"USDA Food and Nutrition Service","","",1,NA,NA,NA,NA,0,"0","no type;no phone;no date/time info",218,NA,NA,"0"
"food-data/Cleaned_data_files//cleaned_PA_SNAP.csv","257","USDA Food and Nutrition Service","https://services1.arcgis.com/RLQu0rK7h4kbsBq5/arcgis/rest/services/Store_Locations/FeatureServer","35214","","MCKEESPORT VALERO","231 Fifth Avenue","McKeesport","PA",15132,"ALLEGHENY","","","",40.351181,-79.865479,"USDA Food and Nutrition Service","","",1,NA,NA,NA,NA,0,"0","no type;no phone;no date/time info",255,NA,NA,"0"
"food-data/Cleaned_data_files//cleaned_PA_SNAP.csv","258","USDA Food and Nutrition Service","https://services1.arcgis.com/RLQu0rK7h4kbsBq5/arcgis/rest/services/Store_Locations/FeatureServer","36184","convenience store","7-ELEVEN 36140","1001 Western Avenue","Pittsburgh","PA",15233,"ALLEGHENY","","","",40.451183,-80.019157,"USDA Food and Nutrition Service","","",1,NA,NA,NA,NA,0,"0","no type;no phone;no date/time info",NA,NA,NA,"0"
"food-data/Cleaned_data_files//cleaned_PA_SNAP.csv","259","USDA Food and Nutrition Service","https://services1.arcgis.com/RLQu0rK7h4kbsBq5/arcgis/rest/services/Store_Locations/FeatureServer","36288","","SUPER MART","1761 Pine Hollow Road","McKees Rocks","PA",15136,"ALLEGHENY","","","",40.475864,-80.100143,"USDA Food and Nutrition Service","","",1,NA,NA,NA,NA,0,"0","no type;no phone;no date/time info",NA,NA,NA,"0"
"food-data/Cleaned_data_files//cleaned_PA_SNAP.csv","260","USDA Food and Nutrition Service","https://services1.arcgis.com/RLQu0rK7h4kbsBq5/arcgis/rest/services/Store_Locations/FeatureServer","36357","supermarket","GIANT EAGLE 6379","420 Waterfront Drive E","Homestead","PA",15120,"ALLEGHENY","","","",40.412422,-79.910011,"USDA Food and Nutrition Service","","",1,NA,NA,NA,NA,0,"0","no type;no phone;no date/time info",258,NA,NA,"0"
"food-data/Cleaned_data_files//cleaned_PA_SNAP.csv","261","USDA Food and Nutrition Service","https://services1.arcgis.com/RLQu0rK7h4kbsBq5/arcgis/rest/services/Store_Locations/FeatureServer","36624","convenience store","7-ELEVEN STORE 36144A","95 Warrendale Bayne Road","Warrendale","PA",15086,"ALLEGHENY","","","",40.653961,-80.082291,"USDA Food and Nutrition Service","","",1,NA,NA,NA,NA,0,"0","no type;no phone;no date/time info",NA,NA,NA,"0"
"food-data/Cleaned_data_files//cleaned_PA_SNAP.csv","262","USDA Food and Nutrition Service","https://services1.arcgis.com/RLQu0rK7h4kbsBq5/arcgis/rest/services/Store_Locations/FeatureServer","37568","","CARRICK PHARMACY","2717 Brownsville Road","Pittsburgh","PA",15227,"ALLEGHENY","","","",40.383907,-79.977432,"USDA Food and Nutrition Service","","",1,NA,NA,NA,NA,0,"0","no type;no phone;no date/time info",181,NA,NA,"0"
"food-data/Cleaned_data_files//cleaned_PA_SNAP.csv","263","USDA Food and Nutrition Service","https://services1.arcgis.com/RLQu0rK7h4kbsBq5/arcgis/rest/services/Store_Locations/FeatureServer","37817","convenience store","DOLLAR GENERAL 19008","1215 Brighton Road","Pittsburgh","PA",15233,"ALLEGHENY","","","",40.454773,-80.014885,"USDA Food and Nutrition Service","","",1,NA,NA,NA,NA,0,"0","no type;no phone;no date/time info",NA,NA,NA,"0"
"food-data/Cleaned_data_files//cleaned_PA_SNAP.csv","264","USDA Food and Nutrition Service","https://services1.arcgis.com/RLQu0rK7h4kbsBq5/arcgis/rest/services/Store_Locations/FeatureServer","38615","","BASNET FOODS LLC","1902 Grandview Avenue","McKeesport","PA",15132,"ALLEGHENY","","","",40.340015,-79.836929,"USDA Food and Nutrition Service","","",1,NA,NA,NA,NA,0,"0","no type;no phone;no date/time info",NA,NA,NA,"0"
"food-data/Cleaned_data_files//cleaned_PA_SNAP.csv","265","USDA Food and Nutrition Service","https://services1.arcgis.com/RLQu0rK7h4kbsBq5/arcgis/rest/services/Store_Locations/FeatureServer","38634","","RIMAL BROTHERS LLC","4040 Saw Mill Run Boulevard","Pittsburgh","PA",15227,"ALLEGHENY","","","",40.367867,-79.983757,"USDA Food and Nutrition Service","","",1,NA,NA,NA,NA,0,"0","no type;no phone;no date/time info",263,NA,NA,"0"
"food-data/Cleaned_data_files//cleaned_PA_SNAP.csv","266","USDA Food and Nutrition Service","https://services1.arcgis.com/RLQu0rK7h4kbsBq5/arcgis/rest/services/Store_Locations/FeatureServer","38873","convenience store","SPEEDWAY 2911","1200 Long Run Road","White Oak","PA",15131,"ALLEGHENY","","","",40.333549,-79.812927,"USDA Food and Nutrition Service","","",1,NA,NA,NA,NA,0,"0","no type;no phone;no date/time info",NA,NA,NA,"0"
